# 
# Header Description:
# 
# Version: 1.4.0.0, Platform: N
# 
# Raw,ElapsedRealtimeMillis,TimeNanos,LeapSecond,TimeUncertaintyNanos,FullBiasNanos,BiasNanos,BiasUncertaintyNanos,DriftNanosPerSecond,DriftUncertaintyNanosPerSecond,HardwareClockDiscontinuityCount, Svid,TimeOffsetNanos,State,ReceivedSvTimeNanos,ReceivedSvTimeUncertaintyNanos,Cn0DbHz,PseudorangeRateMetersPerSecond,PseudorangeRateUncertaintyMetersPerSecond,AccumulatedDeltaRangeState,AccumulatedDeltaRangeMeters,AccumulatedDeltaRangeUncertaintyMeters,CarrierFrequencyHz,CarrierCycles,CarrierPhase,CarrierPhaseUncertainty,MultipathIndicator,SnrInDb,ConstellationType
# 
# Fix,Provider,Latitude,Longitude,Altitude,Speed,Accuracy,(UTC)TimeInMs
# 
# Nav,Svid,Type,Status,MessageId,Sub-messageId,Data(Bytes)
# 
Raw,82655211,82628323000000,,,-1163522538070105344,0.0,171.08088650275022,1.554816829439383,10.543223075044919,55,2,0.0,15,574766321522122,46,20.7,4.32918119430542,0.8479999899864197,0,0.0,0.0,,,,,0,,1
Raw,82655212,82628323000000,,,-1163522538070105344,0.0,171.08088650275022,1.554816829439383,10.543223075044919,55,5,0.0,15,574766316980129,84,16.8,-581.7372436523438,1.940500020980835,0,0.0,0.0,,,,,0,,1
Raw,82655212,82628323000000,,,-1163522538070105344,0.0,171.08088650275022,1.554816829439383,10.543223075044919,55,6,0.0,15,574766320541853,31,23.5,498.655029296875,0.6664999723434448,0,0.0,0.0,,,,,0,,1
Raw,82655212,82628323000000,,,-1163522538070105344,0.0,171.08088650275022,1.554816829439383,10.543223075044919,55,7,0.0,15,574766322337394,70,17.9,-313.0140686035156,1.0794999599456787,0,0.0,0.0,,,,,0,,1
Raw,82655213,82628323000000,,,-1163522538070105344,0.0,171.08088650275022,1.554816829439383,10.543223075044919,55,9,0.0,15,574766323964610,345,11.1,318.9131774902344,10.121001243591309,0,0.0,0.0,,,,,0,,1
Raw,82655213,82628323000000,,,-1163522538070105344,0.0,171.08088650275022,1.554816829439383,10.543223075044919,55,23,0.0,15,574766315373474,706,13.3,553.992431640625,17.024002075195312,0,0.0,0.0,,,,,0,,1
Raw,82655214,82628323000000,,,-1163522538070105344,0.0,171.08088650275022,1.554816829439383,10.543223075044919,55,30,0.0,15,574766317345964,465,14.7,-642.0698852539062,13.382000923156738,0,0.0,0.0,,,,,0,,1
Fix,gps,51.519220,-0.126901,104.000000,0.000000,12.000000,1479569950000
Raw,82656198,82629323000000,,,-1163522538070105344,0.0,162.91583597194403,0.7873014341705592,9.620613009307592,55,2,0.0,15,574767321522203,46,20.4,1.8173046112060547,0.9179999828338623,0,0.0,0.0,,,,,0,,1
Raw,82656200,82629323000000,,,-1163522538070105344,0.0,162.91583597194403,0.7873014341705592,9.620613009307592,55,5,0.0,15,574767316982108,61,18.8,-584.2586669921875,1.0205000638961792,0,0.0,0.0,,,,,0,,1
Raw,82656201,82629323000000,,,-1163522538070105344,0.0,162.91583597194403,0.7873014341705592,9.620613009307592,55,6,0.0,15,574767320540140,31,23.8,495.29638671875,0.6664999723434448,0,0.0,0.0,,,,,0,,1
Raw,82656201,82629323000000,,,-1163522538070105344,0.0,162.91583597194403,0.7873014341705592,9.620613009307592,55,7,0.0,15,574767322338440,70,17.5,-317.1053771972656,1.0794999599456787,0,0.0,0.0,,,,,0,,1
Raw,82656202,82629323000000,,,-1163522538070105344,0.0,162.91583597194403,0.7873014341705592,9.620613009307592,55,9,0.0,15,574767323963546,411,11.1,318.9131774902344,11.621001243591309,0,0.0,0.0,,,,,0,,1
Raw,82656202,82629323000000,,,-1163522538070105344,0.0,162.91583597194403,0.7873014341705592,9.620613009307592,55,23,0.0,15,574767315371626,820,13.3,553.992431640625,18.52400016784668,0,0.0,0.0,,,,,0,,1
Raw,82656203,82629323000000,,,-1163522538070105344,0.0,162.91583597194403,0.7873014341705592,9.620613009307592,55,30,0.0,15,574767317348106,554,14.7,-642.0698852539062,14.882000923156738,0,0.0,0.0,,,,,0,,1
Fix,gps,51.519218,-0.126904,107.000000,0.000000,12.000000,1479569951000
Raw,82657214,82630323000000,,,-1163522538070105088,0.0,152.79685612767935,-6.809544300314331,15.0059148171948,55,2,0.0,15,574768321522170,53,19.7,0.9134096503257751,0.9179999828338623,0,0.0,0.0,,,,,0,,1
Raw,82657215,82630323000000,,,-1163522538070105088,0.0,152.79685612767935,-6.809544300314331,15.0059148171948,55,5,0.0,15,574768316983942,53,19.1,-586.0474243164062,1.0205000638961792,0,0.0,0.0,,,,,0,,1
Raw,82657217,82630323000000,,,-1163522538070105088,0.0,152.79685612767935,-6.809544300314331,15.0059148171948,55,6,0.0,15,574768320538530,24,25.8,494.582763671875,0.5764999985694885,0,0.0,0.0,,,,,0,,1
Raw,82657218,82630323000000,,,-1163522538070105088,0.0,152.79685612767935,-6.809544300314331,15.0059148171948,55,7,0.0,15,574768322339513,46,20.3,-317.6952819824219,0.9194999933242798,0,0.0,0.0,,,,,0,,1
Raw,82657219,82630323000000,,,-1163522538070105088,0.0,152.79685612767935,-6.809544300314331,15.0059148171948,55,9,0.0,15,574768323962482,488,11.1,318.9131774902344,13.121001243591309,0,0.0,0.0,,,,,0,,1
Raw,82657220,82630323000000,,,-1163522538070105088,0.0,152.79685612767935,-6.809544300314331,15.0059148171948,55,23,0.0,15,574768315369778,943,13.3,553.992431640625,20.02400016784668,0,0.0,0.0,,,,,0,,1
Raw,82657221,82630323000000,,,-1163522538070105088,0.0,152.79685612767935,-6.809544300314331,15.0059148171948,55,30,0.0,15,574768317350248,654,14.7,-642.0698852539062,16.381999969482422,0,0.0,0.0,,,,,0,,1
Fix,gps,51.519213,-0.126900,107.000000,0.000000,12.000000,1479569952000
Raw,82658215,82631323000000,,,-1163522538070105344,0.0,147.8522171964869,-12.597062325640573,9.617531304049955,55,2,0.0,15,574769321522138,35,22.2,3.0161547660827637,0.7879999876022339,0,0.0,0.0,,,,,0,,1
Raw,82658216,82631323000000,,,-1163522538070105344,0.0,147.8522171964869,-12.597062325640573,9.617531304049955,55,5,0.0,15,574769316986038,46,20.3,-584.2966918945312,0.9404999613761902,0,0.0,0.0,,,,,0,,1
Raw,82658217,82631323000000,,,-1163522538070105344,0.0,147.8522171964869,-12.597062325640573,9.617531304049955,55,6,0.0,15,574769320536911,27,24.7,497.1897888183594,0.6165000200271606,0,0.0,0.0,,,,,0,,1
Raw,82658218,82631323000000,,,-1163522538070105344,0.0,147.8522171964869,-12.597062325640573,9.617531304049955,55,7,0.0,15,574769322340519,40,21.6,-314.907470703125,0.7894999980926514,0,0.0,0.0,,,,,0,,1
Raw,82658219,82631323000000,,,-1163522538070105344,0.0,147.8522171964869,-12.597062325640573,9.617531304049955,55,9,0.0,15,574769323961418,574,11.1,318.9131774902344,14.621001243591309,0,0.0,0.0,,,,,0,,1
Raw,82658220,82631323000000,,,-1163522538070105344,0.0,147.8522171964869,-12.597062325640573,9.617531304049955,55,23,0.0,15,574769315367930,1076,13.3,553.992431640625,21.52400016784668,0,0.0,0.0,,,,,0,,1
Raw,82658220,82631323000000,,,-1163522538070105344,0.0,147.8522171964869,-12.597062325640573,9.617531304049955,55,30,0.0,15,574769317352390,764,14.7,-642.0698852539062,17.882001876831055,0,0.0,0.0,,,,,0,,1
Fix,gps,51.519211,-0.126904,107.000000,0.000000,12.000000,1479569953000
Raw,82659218,82632323000000,,,-1163522538070105344,0.0,147.86244719289243,-6.1862994337310235,9.055813975263385,55,2,0.0,15,574770321522100,40,21.8,4.643165588378906,0.7879999876022339,0,0.0,0.0,,,,,0,,1
Raw,82659220,82632323000000,,,-1163522538070105344,0.0,147.86244719289243,-6.1862994337310235,9.055813975263385,55,5,0.0,15,574770316988022,70,17.5,-581.5184326171875,1.1004999876022339,0,0.0,0.0,,,,,0,,1
Raw,82659222,82632323000000,,,-1163522538070105344,0.0,147.86244719289243,-6.1862994337310235,9.055813975263385,55,6,0.0,15,574770320535228,31,23.1,498.33154296875,0.7264999747276306,0,0.0,0.0,,,,,0,,1
Raw,82659224,82632323000000,,,-1163522538070105344,0.0,147.86244719289243,-6.1862994337310235,9.055813975263385,55,7,0.0,15,574770322341630,46,20.6,-313.6039733886719,0.8495000004768372,0,0.0,0.0,,,,,0,,1
Raw,82659225,82632323000000,,,-1163522538070105344,0.0,147.86244719289243,-6.1862994337310235,9.055813975263385,55,9,0.0,15,574770323960355,670,11.1,318.9131774902344,16.121000289916992,0,0.0,0.0,,,,,0,,1
Raw,82659235,82632323000000,,,-1163522538070105344,0.0,147.86244719289243,-6.1862994337310235,9.055813975263385,55,23,0.0,15,574770315366082,1220,13.3,553.992431640625,23.02400016784668,0,0.0,0.0,,,,,0,,1
Raw,82659237,82632323000000,,,-1163522538070105344,0.0,147.86244719289243,-6.1862994337310235,9.055813975263385,55,30,0.0,15,574770317354479,266,12.5,-641.47998046875,8.372000694274902,0,0.0,0.0,,,,,0,,1
Fix,gps,51.519213,-0.126901,105.000000,0.000000,11.000000,1479569954000
Raw,82660215,82633323000000,,,-1163522538070105344,0.0,135.45414549298584,-0.28045222723374175,11.343881912130088,55,2,0.0,15,574771321522142,46,20.5,4.138887405395508,0.8479999899864197,0,0.0,0.0,,,,,0,,1
Raw,82660217,82633323000000,,,-1163522538070105344,0.0,135.45414549298584,-0.28045222723374175,11.343881912130088,55,5,0.0,15,574771316989836,61,18.7,-582.8505249023438,1.0205000638961792,0,0.0,0.0,,,,,0,,1
Raw,82660218,82633323000000,,,-1163522538070105344,0.0,135.45414549298584,-0.28045222723374175,11.343881912130088,55,6,0.0,15,574771320533582,31,23.7,498.0556335449219,0.6664999723434448,0,0.0,0.0,,,,,0,,1
Raw,82660219,82633323000000,,,-1163522538070105344,0.0,135.45414549298584,-0.28045222723374175,11.343881912130088,55,7,0.0,15,574771322342603,35,22.7,-313.62298583984375,0.7294999957084656,0,0.0,0.0,,,,,0,,1
Raw,82660220,82633323000000,,,-1163522538070105344,0.0,135.45414549298584,-0.28045222723374175,11.343881912130088,55,9,0.0,15,574771323959291,777,11.1,318.9131774902344,17.621000289916992,0,0.0,0.0,,,,,0,,1
Raw,82660221,82633323000000,,,-1163522538070105344,0.0,135.45414549298584,-0.28045222723374175,11.343881912130088,55,23,0.0,15,574771315364235,1373,13.3,553.992431640625,24.52400016784668,0,0.0,0.0,,,,,0,,1
Raw,82660222,82633323000000,,,-1163522538070105344,0.0,135.45414549298584,-0.28045222723374175,11.343881912130088,55,30,0.0,15,574771317356619,321,12.5,-641.47998046875,9.872000694274902,0,0.0,0.0,,,,,0,,1
Fix,gps,51.519214,-0.126911,107.000000,0.000000,11.000000,1479569955000
Raw,82661208,82634323000000,,,-1163522538070105344,0.0,128.27609316445887,-2.258579198666221,8.168157207017261,55,2,0.0,15,574772321522105,35,22.2,2.5213911533355713,0.7879999876022339,0,0.0,0.0,,,,,0,,1
Raw,82661209,82634323000000,,,-1163522538070105344,0.0,128.27609316445887,-2.258579198666221,8.168157207017261,55,5,0.0,15,574772316991807,53,19.4,-583.5355224609375,1.0205000638961792,0,0.0,0.0,,,,,0,,1
Raw,82661209,82634323000000,,,-1163522538070105344,0.0,128.27609316445887,-2.258579198666221,8.168157207017261,55,6,0.0,15,574772320531934,31,23.2,497.6084289550781,0.7264999747276306,0,0.0,0.0,,,,,0,,1
Raw,82661210,82634323000000,,,-1163522538070105344,0.0,128.27609316445887,-2.258579198666221,8.168157207017261,55,7,0.0,15,574772322343704,31,23.0,-314.9931335449219,0.7294999957084656,0,0.0,0.0,,,,,0,,1
Raw,82661210,82634323000000,,,-1163522538070105344,0.0,128.27609316445887,-2.258579198666221,8.168157207017261,55,9,0.0,15,574772323958227,893,11.1,318.9131774902344,19.121000289916992,0,0.0,0.0,,,,,0,,1
Raw,82661211,82634323000000,,,-1163522538070105344,0.0,128.27609316445887,-2.258579198666221,8.168157207017261,55,23,0.0,15,574772315362323,287,12.2,553.992431640625,9.054000854492188,0,0.0,0.0,,,,,0,,1
Raw,82661211,82634323000000,,,-1163522538070105344,0.0,128.27609316445887,-2.258579198666221,8.168157207017261,55,30,0.0,15,574772317358758,387,12.5,-641.47998046875,11.372000694274902,0,0.0,0.0,,,,,0,,1
Fix,gps,51.519213,-0.126915,107.000000,0.000000,11.000000,1479569956000
Raw,82662203,82635323000000,,,-1163522538070105344,0.0,119.27273590117693,-6.102147805309962,8.311757514514165,55,2,0.0,15,574773321522044,53,19.7,2.9210078716278076,0.9179999828338623,0,0.0,0.0,,,,,0,,1
Raw,82662204,82635323000000,,,-1163522538070105344,0.0,119.27273590117693,-6.102147805309962,8.311757514514165,55,5,0.0,15,574773316993836,53,19.6,-584.5916748046875,0.9404999613761902,0,0.0,0.0,,,,,0,,1
Raw,82662205,82635323000000,,,-1163522538070105344,0.0,119.27273590117693,-6.102147805309962,8.311757514514165,55,6,0.0,15,574773320530262,31,23.3,497.33251953125,0.7264999747276306,0,0.0,0.0,,,,,0,,1
Raw,82662205,82635323000000,,,-1163522538070105344,0.0,119.27273590117693,-6.102147805309962,8.311757514514165,55,7,0.0,15,574773322344767,40,21.6,-315.35467529296875,0.7894999980926514,0,0.0,0.0,,,,,0,,1
Raw,82662206,82635323000000,,,-1163522538070105344,0.0,119.27273590117693,-6.102147805309962,8.311757514514165,55,9,0.0,15,574773323957163,1020,11.1,318.9131774902344,20.621002197265625,0,0.0,0.0,,,,,0,,1
Raw,82662206,82635323000000,,,-1163522538070105344,0.0,119.27273590117693,-6.102147805309962,8.311757514514165,55,23,0.0,15,574773315360475,347,12.2,553.992431640625,10.554000854492188,0,0.0,0.0,,,,,0,,1
Raw,82662207,82635323000000,,,-1163522538070105344,0.0,119.27273590117693,-6.102147805309962,8.311757514514165,55,30,0.0,15,574773317360898,462,12.5,-641.47998046875,12.872000694274902,0,0.0,0.0,,,,,0,,1
Fix,gps,51.519213,-0.126914,108.000000,0.000000,11.000000,1479569957000
Raw,82663199,82636323000000,,,-1163522538070105344,0.0,120.08031626464799,-7.223478155241372,8.224116202823295,55,2,0.0,15,574774321522183,46,20.1,2.7402288913726807,0.9179999828338623,0,0.0,0.0,,,,,0,,1
Raw,82663200,82636323000000,,,-1163522538070105344,0.0,120.08031626464799,-7.223478155241372,8.224116202823295,55,5,0.0,15,574774316995552,70,17.4,-583.335693359375,1.190500020980835,0,0.0,0.0,,,,,0,,1
Raw,82663202,82636323000000,,,-1163522538070105344,0.0,120.08031626464799,-7.223478155241372,8.224116202823295,55,6,0.0,15,574774320528591,31,23.1,497.1041564941406,0.7264999747276306,0,0.0,0.0,,,,,0,,1
Raw,82663203,82636323000000,,,-1163522538070105344,0.0,120.08031626464799,-7.223478155241372,8.224116202823295,55,7,0.0,15,574774322345724,35,22.6,-315.4117431640625,0.7294999957084656,0,0.0,0.0,,,,,0,,1
Raw,82663204,82636323000000,,,-1163522538070105344,0.0,120.08031626464799,-7.223478155241372,8.224116202823295,55,9,0.0,15,574774323956100,1156,11.1,318.9131774902344,22.121002197265625,0,0.0,0.0,,,,,0,,1
Raw,82663204,82636323000000,,,-1163522538070105344,0.0,120.08031626464799,-7.223478155241372,8.224116202823295,55,23,0.0,15,574774315358627,416,12.2,553.992431640625,12.054000854492188,0,0.0,0.0,,,,,0,,1
Raw,82663205,82636323000000,,,-1163522538070105344,0.0,120.08031626464799,-7.223478155241372,8.224116202823295,55,30,0.0,15,574774317363038,548,12.5,-641.47998046875,14.372000694274902,0,0.0,0.0,,,,,0,,1
Fix,gps,51.519214,-0.126915,108.000000,0.000000,11.000000,1479569958000
Raw,82664221,82637323000000,,,-1163522538070105344,0.0,122.95032502152026,-7.440533591619927,8.141221114868571,55,2,0.0,15,574775321522066,61,18.8,4.738312244415283,0.9980000257492065,0,0.0,0.0,,,,,0,,1
Raw,82664223,82637323000000,,,-1163522538070105344,0.0,122.95032502152026,-7.440533591619927,8.141221114868571,55,5,0.0,15,574775316997753,70,17.0,-583.1073608398438,1.190500020980835,0,0.0,0.0,,,,,0,,1
Raw,82664224,82637323000000,,,-1163522538070105344,0.0,122.95032502152026,-7.440533591619927,8.141221114868571,55,6,0.0,15,574775320526943,27,24.7,498.1412658691406,0.6165000200271606,0,0.0,0.0,,,,,0,,1
Raw,82664225,82637323000000,,,-1163522538070105344,0.0,122.95032502152026,-7.440533591619927,8.141221114868571,55,7,0.0,15,574775322346744,31,23.1,-313.95599365234375,0.7294999957084656,0,0.0,0.0,,,,,0,,1
Raw,82664227,82637323000000,,,-1163522538070105344,0.0,122.95032502152026,-7.440533591619927,8.141221114868571,55,9,0.0,15,574775323955036,1302,11.1,318.9131774902344,23.621002197265625,0,0.0,0.0,,,,,0,,1
Raw,82664228,82637323000000,,,-1163522538070105344,0.0,122.95032502152026,-7.440533591619927,8.141221114868571,55,23,0.0,15,574775315356779,496,12.2,553.992431640625,13.554000854492188,0,0.0,0.0,,,,,0,,1
Raw,82664229,82637323000000,,,-1163522538070105344,0.0,122.95032502152026,-7.440533591619927,8.141221114868571,55,30,0.0,15,574775317365380,136,14.9,-641.432373046875,4.381999969482422,0,0.0,0.0,,,,,0,,1
Fix,gps,51.519214,-0.126915,107.000000,0.000000,11.000000,1479569959000
Raw,82665228,82638323000000,,,-1163522538070105344,0.0,136.9709789287299,-4.230475111182528,12.248793048703876,55,2,0.0,15,574776321522027,46,20.5,5.185502529144287,0.8479999899864197,0,0.0,0.0,,,,,0,,1
Raw,82665245,82638323000000,,,-1163522538070105344,0.0,136.9709789287299,-4.230475111182528,12.248793048703876,55,5,0.0,15,574776316999678,53,19.9,-582.9266357421875,0.9404999613761902,0,0.0,0.0,,,,,0,,1
Raw,82665246,82638323000000,,,-1163522538070105344,0.0,136.9709789287299,-4.230475111182528,12.248793048703876,55,6,0.0,15,574776320525261,27,24.5,498.7216491699219,0.6165000200271606,0,0.0,0.0,,,,,0,,1
Raw,82665248,82638323000000,,,-1163522538070105344,0.0,136.9709789287299,-4.230475111182528,12.248793048703876,55,7,0.0,15,574776322347858,35,22.1,-313.96551513671875,0.7894999980926514,0,0.0,0.0,,,,,0,,1
Raw,82665255,82638323000000,,,-1163522538070105344,0.0,136.9709789287299,-4.230475111182528,12.248793048703876,55,9,0.0,15,574776323953972,1459,11.1,318.9131774902344,25.121002197265625,0,0.0,0.0,,,,,0,,1
Raw,82665256,82638323000000,,,-1163522538070105344,0.0,136.9709789287299,-4.230475111182528,12.248793048703876,55,23,0.0,15,574776315354931,586,12.2,553.992431640625,15.054000854492188,0,0.0,0.0,,,,,0,,1
Raw,82665257,82638323000000,,,-1163522538070105344,0.0,136.9709789287299,-4.230475111182528,12.248793048703876,55,30,0.0,15,574776317367520,166,14.9,-641.432373046875,5.88200044631958,0,0.0,0.0,,,,,0,,1
Fix,gps,51.519215,-0.126916,107.000000,0.000000,11.000000,1479569960000
Raw,82666236,82639323000000,,,-1163522538070105344,0.0,130.23073552176356,-3.0864636093746034,8.287917442641085,55,2,0.0,15,574777321522091,53,19.3,4.9381208419799805,0.9980000257492065,0,0.0,0.0,,,,,0,,1
Raw,82666237,82639323000000,,,-1163522538070105344,0.0,130.23073552176356,-3.0864636093746034,8.287917442641085,55,5,0.0,15,574777317001567,40,21.0,-582.9075317382812,0.871999979019165,0,0.0,0.0,,,,,0,,1
Raw,82666238,82639323000000,,,-1163522538070105344,0.0,130.23073552176356,-3.0864636093746034,8.287917442641085,55,6,0.0,15,574777320523606,27,24.4,498.76922607421875,0.6664999723434448,0,0.0,0.0,,,,,0,,1
Raw,82666240,82639323000000,,,-1163522538070105344,0.0,130.23073552176356,-3.0864636093746034,8.287917442641085,55,7,0.0,15,574777322348933,53,19.9,-314.7742919921875,0.9194999933242798,0,0.0,0.0,,,,,0,,1
Raw,82666241,82639323000000,,,-1163522538070105344,0.0,130.23073552176356,-3.0864636093746034,8.287917442641085,55,9,0.0,15,574777323952908,1625,11.1,318.9131774902344,26.621002197265625,0,0.0,0.0,,,,,0,,1
Raw,82666242,82639323000000,,,-1163522538070105344,0.0,130.23073552176356,-3.0864636093746034,8.287917442641085,55,23,0.0,15,574777315353083,686,12.2,553.992431640625,16.554000854492188,0,0.0,0.0,,,,,0,,1
Raw,82666243,82639323000000,,,-1163522538070105344,0.0,130.23073552176356,-3.0864636093746034,8.287917442641085,55,30,0.0,15,574777317369660,205,14.9,-641.432373046875,7.38200044631958,0,0.0,0.0,,,,,0,,1
Fix,gps,51.519214,-0.126916,107.000000,0.000000,11.000000,1479569961000
Fix,gps,51.519213,-0.126915,107.000000,0.000000,11.000000,1479569962000
Raw,82667230,82640323000000,,,-1163522538070105344,0.0,125.19051961135119,-3.656417441626215,8.06365041832027,55,2,0.0,15,574778321521992,53,19.7,3.9390790462493896,0.9179999828338623,0,0.0,0.0,,,,,0,,1
Raw,82667232,82640323000000,,,-1163522538070105344,0.0,125.19051961135119,-3.656417441626215,8.06365041832027,55,5,0.0,15,574778317003554,40,21.0,-583.05029296875,0.871999979019165,0,0.0,0.0,,,,,0,,1
Raw,82667233,82640323000000,,,-1163522538070105344,0.0,125.19051961135119,-3.656417441626215,8.06365041832027,55,6,0.0,15,574778320521924,35,22.8,498.2078857421875,0.7264999747276306,0,0.0,0.0,,,,,0,,1
Raw,82667235,82640323000000,,,-1163522538070105344,0.0,125.19051961135119,-3.656417441626215,8.06365041832027,55,7,0.0,15,574778322349921,46,20.2,-313.95599365234375,0.9194999933242798,0,0.0,0.0,,,,,0,,1
Raw,82667236,82640323000000,,,-1163522538070105344,0.0,125.19051961135119,-3.656417441626215,8.06365041832027,55,9,0.0,15,574778323951844,1802,11.1,318.9131774902344,28.121002197265625,0,0.0,0.0,,,,,0,,1
Raw,82667237,82640323000000,,,-1163522538070105344,0.0,125.19051961135119,-3.656417441626215,8.06365041832027,55,23,0.0,15,574778315351235,795,12.2,553.992431640625,18.054000854492188,0,0.0,0.0,,,,,0,,1
Raw,82667239,82640323000000,,,-1163522538070105344,0.0,125.19051961135119,-3.656417441626215,8.06365041832027,55,30,0.0,15,574778317371718,116,14.9,-640.8139038085938,2.881999969482422,0,0.0,0.0,,,,,0,,1
Raw,82668232,82641323000000,,,-1163522538070105344,0.0,122.16578761581331,-4.656492431834613,9.194596483934285,55,2,0.0,15,574779321522057,53,19.1,3.881990671157837,0.9980000257492065,0,0.0,0.0,,,,,0,,1
Raw,82668233,82641323000000,,,-1163522538070105344,0.0,122.16578761581331,-4.656492431834613,9.194596483934285,55,5,0.0,15,574779317005529,31,23.1,-583.2025146484375,0.7519999742507935,0,0.0,0.0,,,,,0,,1
Raw,82668234,82641323000000,,,-1163522538070105344,0.0,122.16578761581331,-4.656492431834613,9.194596483934285,55,6,0.0,15,574779320520245,27,24.6,498.1792907714844,0.6165000200271606,0,0.0,0.0,,,,,0,,1
Raw,82668235,82641323000000,,,-1163522538070105344,0.0,122.16578761581331,-4.656492431834613,9.194596483934285,55,7,0.0,15,574779322350984,46,20.3,-314.6029968261719,0.9194999933242798,0,0.0,0.0,,,,,0,,1
Raw,82668235,82641323000000,,,-1163522538070105344,0.0,122.16578761581331,-4.656492431834613,9.194596483934285,55,9,0.0,15,574779323950781,1988,11.1,318.9131774902344,29.621002197265625,0,0.0,0.0,,,,,0,,1
Raw,82668236,82641323000000,,,-1163522538070105344,0.0,122.16578761581331,-4.656492431834613,9.194596483934285,55,23,0.0,15,574779315349387,915,12.2,553.992431640625,19.554000854492188,0,0.0,0.0,,,,,0,,1
Raw,82668237,82641323000000,,,-1163522538070105344,0.0,122.16578761581331,-4.656492431834613,9.194596483934285,55,30,0.0,15,574779317373856,136,14.9,-640.8139038085938,4.381999969482422,0,0.0,0.0,,,,,0,,1
Fix,gps,51.519213,-0.126915,106.000000,0.000000,11.000000,1479569963000
Fix,gps,51.519213,-0.126914,106.000000,0.000000,11.000000,1479569964000
Raw,82669232,82642323000000,,,-1163522538070105344,0.0,112.95441072434187,-5.117263037365693,8.150269796783771,55,2,0.0,15,574780321522044,61,19.1,3.881990671157837,2.498000144958496,0,0.0,0.0,,,,,0,,1
Raw,82669235,82642323000000,,,-1163522538070105344,0.0,112.95441072434187,-5.117263037365693,8.150269796783771,55,5,0.0,15,574780317007425,35,22.3,-583.2025146484375,0.8119999766349792,0,0.0,0.0,,,,,0,,1
Raw,82669237,82642323000000,,,-1163522538070105344,0.0,112.95441072434187,-5.117263037365693,8.150269796783771,55,6,0.0,15,574780320518588,27,24.3,498.341064453125,0.6664999723434448,0,0.0,0.0,,,,,0,,1
Raw,82669239,82642323000000,,,-1163522538070105344,0.0,112.95441072434187,-5.117263037365693,8.150269796783771,55,7,0.0,15,574780322352000,46,20.1,-314.1272888183594,0.9194999933242798,0,0.0,0.0,,,,,0,,1
Raw,82669242,82642323000000,,,-1163522538070105344,0.0,112.95441072434187,-5.117263037365693,8.150269796783771,55,9,0.0,15,574780323949717,2185,11.1,318.9131774902344,31.121002197265625,0,0.0,0.0,,,,,0,,1
Raw,82669244,82642323000000,,,-1163522538070105344,0.0,112.95441072434187,-5.117263037365693,8.150269796783771,55,23,0.0,15,574780315347539,1045,12.2,553.992431640625,21.054000854492188,0,0.0,0.0,,,,,0,,1
Raw,82669246,82642323000000,,,-1163522538070105344,0.0,112.95441072434187,-5.117263037365693,8.150269796783771,55,30,0.0,15,574780317375994,166,14.9,-640.8139038085938,5.88200044631958,0,0.0,0.0,,,,,0,,1
Raw,82670216,82643323000000,,,-1163522538070105344,0.0,118.30386938527226,-4.140539022583035,12.808688393814252,55,2,0.0,15,574781321522114,73,17.1,3.3872275352478027,1.9179999828338623,0,0.0,0.0,,,,,0,,1
Raw,82670217,82643323000000,,,-1163522538070105344,0.0,118.30386938527226,-4.140539022583035,12.808688393814252,55,5,0.0,15,574781317009334,31,23.2,-583.38330078125,0.7519999742507935,0,0.0,0.0,,,,,0,,1
Raw,82670220,82643323000000,,,-1163522538070105344,0.0,118.30386938527226,-4.140539022583035,12.808688393814252,55,6,0.0,15,574781320516879,35,22.6,497.6465148925781,0.7264999747276306,0,0.0,0.0,,,,,0,,1
Raw,82670222,82643323000000,,,-1163522538070105344,0.0,118.30386938527226,-4.140539022583035,12.808688393814252,55,7,0.0,15,574781322353112,40,21.9,-314.34613037109375,0.7894999980926514,0,0.0,0.0,,,,,0,,1
Raw,82670223,82643323000000,,,-1163522538070105344,0.0,118.30386938527226,-4.140539022583035,12.808688393814252,55,9,0.0,15,574781323948653,2391,11.1,318.9131774902344,32.621002197265625,0,0.0,0.0,,,,,0,,1
Raw,82670224,82643323000000,,,-1163522538070105344,0.0,118.30386938527226,-4.140539022583035,12.808688393814252,55,23,0.0,15,574781315345691,1185,12.2,553.992431640625,22.554000854492188,0,0.0,0.0,,,,,0,,1
Raw,82670225,82643323000000,,,-1163522538070105344,0.0,118.30386938527226,-4.140539022583035,12.808688393814252,55,30,0.0,15,574781317377988,102,15.9,-641.0803833007812,2.7820000648498535,0,0.0,0.0,,,,,0,,1
Fix,gps,51.519213,-0.126915,106.000000,0.000000,11.000000,1479569965000
Fix,gps,51.519213,-0.126916,106.000000,0.000000,11.000000,1479569966000
Raw,82671258,82644323000000,,,-1163522538070105344,0.0,110.10570597136393,-6.933804223253692,7.909983472074678,55,2,0.0,15,574782321522103,87,17.1,3.3872275352478027,3.4180002212524414,0,0.0,0.0,,,,,0,,1
Raw,82671259,82644323000000,,,-1163522538070105344,0.0,110.10570597136393,-6.933804223253692,7.909983472074678,55,5,0.0,15,574782317011271,40,21.4,-583.42138671875,0.871999979019165,0,0.0,0.0,,,,,0,,1
Raw,82671260,82644323000000,,,-1163522538070105344,0.0,110.10570597136393,-6.933804223253692,7.909983472074678,55,6,0.0,15,574782320515246,27,24.2,498.341064453125,0.6664999723434448,0,0.0,0.0,,,,,0,,1
Raw,82671261,82644323000000,,,-1163522538070105344,0.0,110.10570597136393,-6.933804223253692,7.909983472074678,55,7,0.0,15,574782322354096,46,20.6,-313.8513488769531,0.8495000004768372,0,0.0,0.0,,,,,0,,1
Raw,82671261,82644323000000,,,-1163522538070105344,0.0,110.10570597136393,-6.933804223253692,7.909983472074678,55,9,0.0,15,574782323947589,2607,11.1,318.9131774902344,34.12099838256836,0,0.0,0.0,,,,,0,,1
Raw,82671262,82644323000000,,,-1163522538070105344,0.0,110.10570597136393,-6.933804223253692,7.909983472074678,55,23,0.0,15,574782315343843,1334,12.2,553.992431640625,24.054000854492188,0,0.0,0.0,,,,,0,,1
Raw,82671262,82644323000000,,,-1163522538070105344,0.0,110.10570597136393,-6.933804223253692,7.909983472074678,55,30,0.0,15,574782317380127,121,15.9,-641.0803833007812,4.2820000648498535,0,0.0,0.0,,,,,0,,1
Fix,gps,51.519213,-0.126916,106.000000,0.000000,11.000000,1479569967000
Raw,82672219,82645323000000,,,-1163522538070105344,0.0,106.63041757652536,-5.550934518598971,8.025449997585989,55,2,0.0,15,574783321522091,111,17.1,3.3872275352478027,4.918000221252441,0,0.0,0.0,,,,,0,,1
Raw,82672221,82645323000000,,,-1163522538070105344,0.0,106.63041757652536,-5.550934518598971,8.025449997585989,55,5,0.0,15,574783317013242,46,20.9,-581.8323974609375,0.871999979019165,0,0.0,0.0,,,,,0,,1
Raw,82672223,82645323000000,,,-1163522538070105344,0.0,106.63041757652536,-5.550934518598971,8.025449997585989,55,6,0.0,15,574783320513593,24,25.4,499.12347412109375,0.38179999589920044,0,0.0,0.0,,,,,0,,1
Raw,82672225,82645323000000,,,-1163522538070105344,0.0,106.63041757652536,-5.550934518598971,8.025449997585989,55,7,0.0,15,574783322355157,35,22.6,-313.6134948730469,0.7294999957084656,0,0.0,0.0,,,,,0,,1
Raw,82672227,82645323000000,,,-1163522538070105344,0.0,106.63041757652536,-5.550934518598971,8.025449997585989,55,9,0.0,15,574783323946526,2834,11.1,318.9131774902344,35.62099838256836,0,0.0,0.0,,,,,0,,1
Raw,82672229,82645323000000,,,-1163522538070105344,0.0,106.63041757652536,-5.550934518598971,8.025449997585989,55,23,0.0,15,574783315341996,1494,12.2,553.992431640625,25.554000854492188,0,0.0,0.0,,,,,0,,1
Raw,82672248,82645323000000,,,-1163522538070105344,0.0,106.63041757652536,-5.550934518598971,8.025449997585989,55,30,0.0,15,574783317382263,84,16.6,-639.8910522460938,1.9420000314712524,0,0.0,0.0,,,,,0,,1
Raw,82673230,82646323000000,,,-1163522538070105344,0.0,105.4780586855486,-3.2314761331582815,10.223750842593134,55,2,0.0,15,574784321521956,102,15.6,4.215004920959473,2.758000135421753,0,0.0,0.0,,,,,0,,1
Raw,82673231,82646323000000,,,-1163522538070105344,0.0,105.4780586855486,-3.2314761331582815,10.223750842593134,55,5,0.0,15,574784317015103,46,20.8,-581.8038940429688,0.871999979019165,0,0.0,0.0,,,,,0,,1
Raw,82673231,82646323000000,,,-1163522538070105344,0.0,105.4780586855486,-3.2314761331582815,10.223750842593134,55,6,0.0,15,574784320511930,24,25.4,499.4177551269531,0.38179999589920044,0,0.0,0.0,,,,,0,,1
Raw,82673232,82646323000000,,,-1163522538070105344,0.0,105.4780586855486,-3.2314761331582815,10.223750842593134,55,7,0.0,15,574784322356192,40,21.3,-312.7190856933594,0.8495000004768372,0,0.0,0.0,,,,,0,,1
Raw,82673233,82646323000000,,,-1163522538070105344,0.0,105.4780586855486,-3.2314761331582815,10.223750842593134,55,9,0.0,15,574784323945462,3070,11.1,318.9131774902344,37.12099838256836,0,0.0,0.0,,,,,0,,1
Raw,82673233,82646323000000,,,-1163522538070105344,0.0,105.4780586855486,-3.2314761331582815,10.223750842593134,55,23,0.0,15,574784315340148,1664,12.2,553.992431640625,27.054000854492188,0,0.0,0.0,,,,,0,,1
Raw,82673234,82646323000000,,,-1163522538070105344,0.0,105.4780586855486,-3.2314761331582815,10.223750842593134,55,30,0.0,15,574784317384397,98,16.6,-639.8910522460938,3.441999912261963,0,0.0,0.0,,,,,0,,1
Fix,gps,51.519213,-0.126916,106.000000,0.000000,11.000000,1479569968000
Raw,82674257,82647323000000,,,-1163522538070105344,0.0,107.54341201391071,-2.8478664567860834,9.094073246627103,55,2,0.0,15,574785321521941,121,15.6,4.215004920959473,4.258000373840332,0,0.0,0.0,,,,,0,,1
Raw,82674258,82647323000000,,,-1163522538070105344,0.0,107.54341201391071,-2.8478664567860834,9.094073246627103,55,5,0.0,15,574785317017121,53,19.0,-583.7068481445312,1.0220000743865967,0,0.0,0.0,,,,,0,,1
Raw,82674259,82647323000000,,,-1163522538070105344,0.0,107.54341201391071,-2.8478664567860834,9.094073246627103,55,6,0.0,15,574785320510221,27,24.7,499.09271240234375,0.6165000200271606,0,0.0,0.0,,,,,0,,1
Raw,82674259,82647323000000,,,-1163522538070105344,0.0,107.54341201391071,-2.8478664567860834,9.094073246627103,55,7,0.0,15,574785322357305,35,22.7,-312.28143310546875,0.7294999957084656,0,0.0,0.0,,,,,0,,1
Raw,82674260,82647323000000,,,-1163522538070105344,0.0,107.54341201391071,-2.8478664567860834,9.094073246627103,55,23,0.0,15,574785315338300,1844,12.2,553.992431640625,28.554000854492188,0,0.0,0.0,,,,,0,,1
Raw,82674261,82647323000000,,,-1163522538070105344,0.0,107.54341201391071,-2.8478664567860834,9.094073246627103,55,30,0.0,15,574785317386532,122,16.6,-639.8910522460938,4.942000389099121,0,0.0,0.0,,,,,0,,1
Fix,gps,51.519214,-0.126917,106.000000,0.000000,11.000000,1479569969000
Raw,82675227,82648323000000,,,-1163522538070105344,0.0,111.55648826388642,-2.8148035369458237,13.798177428233126,55,2,0.0,15,574786321521928,150,15.6,4.215004920959473,5.758000373840332,0,0.0,0.0,,,,,0,,1
Raw,82675228,82648323000000,,,-1163522538070105344,0.0,111.55648826388642,-2.8148035369458237,13.798177428233126,55,5,0.0,15,574786317019068,70,17.3,-582.2320556640625,1.1920000314712524,0,0.0,0.0,,,,,0,,1
Raw,82675229,82648323000000,,,-1163522538070105344,0.0,111.55648826388642,-2.8148035369458237,13.798177428233126,55,6,0.0,15,574786320508581,27,24.7,499.1402893066406,0.6165000200271606,0,0.0,0.0,,,,,0,,1
Raw,82675229,82648323000000,,,-1163522538070105344,0.0,111.55648826388642,-2.8148035369458237,13.798177428233126,55,7,0.0,15,574786322358244,40,21.2,-312.0340576171875,0.8495000004768372,0,0.0,0.0,,,,,0,,1
Raw,82675231,82648323000000,,,-1163522538070105344,0.0,111.55648826388642,-2.8148035369458237,13.798177428233126,55,23,0.0,15,574786315336452,2033,12.2,553.992431640625,30.054000854492188,0,0.0,0.0,,,,,0,,1
Raw,82675232,82648323000000,,,-1163522538070105344,0.0,111.55648826388642,-2.8148035369458237,13.798177428233126,55,30,0.0,15,574786317388678,102,15.5,-640.2716064453125,2.7820000648498535,0,0.0,0.0,,,,,0,,1
Fix,gps,51.519214,-0.126917,106.000000,0.000000,11.000000,1479569970000
Raw,82676217,82649323000000,,,-1163522538070105344,0.0,110.12498725904152,-3.045923279661152,9.255654011974308,55,2,0.0,15,574787321521913,190,15.6,4.215004920959473,7.258000373840332,0,0.0,0.0,,,,,0,,1
Raw,82676219,82649323000000,,,-1163522538070105344,0.0,110.12498725904152,-3.045923279661152,9.255654011974308,55,5,0.0,15,574787317020901,70,17.8,-581.4423217773438,1.1019999980926514,0,0.0,0.0,,,,,0,,1
Raw,82676221,82649323000000,,,-1163522538070105344,0.0,110.12498725904152,-3.045923279661152,9.255654011974308,55,6,0.0,15,574787320506906,27,24.9,499.1878662109375,0.6165000200271606,0,0.0,0.0,,,,,0,,1
Raw,82676223,82649323000000,,,-1163522538070105344,0.0,110.12498725904152,-3.045923279661152,9.255654011974308,55,7,0.0,15,574787322359295,40,21.3,-312.43365478515625,0.8495000004768372,0,0.0,0.0,,,,,0,,1
Raw,82676225,82649323000000,,,-1163522538070105344,0.0,110.12498725904152,-3.045923279661152,9.255654011974308,55,23,0.0,15,574787315334604,2233,12.2,553.992431640625,31.554000854492188,0,0.0,0.0,,,,,0,,1
Raw,82676228,82649323000000,,,-1163522538070105344,0.0,110.12498725904152,-3.045923279661152,9.255654011974308,55,30,0.0,15,574787317390814,121,15.5,-640.2716064453125,4.2820000648498535,0,0.0,0.0,,,,,0,,1
Fix,gps,51.519214,-0.126919,106.000000,0.000000,11.000000,1479569971000
Raw,82677233,82650323000000,,,-1163522538070105344,0.0,114.61021495051682,-3.0948885939095954,9.461257433976094,55,2,0.0,15,574788321521899,239,15.6,4.215004920959473,8.758000373840332,0,0.0,0.0,,,,,0,,1
Raw,82677234,82650323000000,,,-1163522538070105344,0.0,114.61021495051682,-3.0948885939095954,9.461257433976094,55,5,0.0,15,574788317022963,70,17.5,-583.0408325195312,1.1019999980926514,0,0.0,0.0,,,,,0,,1
Raw,82677235,82650323000000,,,-1163522538070105344,0.0,114.61021495051682,-3.0948885939095954,9.461257433976094,55,6,0.0,15,574788320505266,24,25.5,499.440185546875,0.38179999589920044,0,0.0,0.0,,,,,0,,1
Raw,82677235,82650323000000,,,-1163522538070105344,0.0,114.61021495051682,-3.0948885939095954,9.461257433976094,55,7,0.0,15,574788322360355,40,21.3,-313.2614440917969,0.8495000004768372,0,0.0,0.0,,,,,0,,1
Raw,82677236,82650323000000,,,-1163522538070105344,0.0,114.61021495051682,-3.0948885939095954,9.461257433976094,55,23,0.0,15,574788315332756,2443,12.2,553.992431640625,33.05400085449219,0,0.0,0.0,,,,,0,,1
Raw,82677236,82650323000000,,,-1163522538070105344,0.0,114.61021495051682,-3.0948885939095954,9.461257433976094,55,30,0.0,15,574788317392883,73,17.4,-640.6427001953125,1.9420000314712524,0,0.0,0.0,,,,,0,,1
Fix,gps,51.519214,-0.126919,107.000000,0.000000,11.000000,1479569972000
Raw,82678237,82651323000000,,,-1163522538070105344,0.0,118.89950110344216,-4.409034283122068,11.158054687455182,55,2,0.0,15,574789321521885,298,15.6,4.215004920959473,10.258000373840332,0,0.0,0.0,,,,,0,,1
Raw,82678242,82651323000000,,,-1163522538070105344,0.0,118.89950110344216,-4.409034283122068,11.158054687455182,55,5,0.0,15,574789317024893,35,22.5,-582.8695068359375,0.7519999742507935,0,0.0,0.0,,,,,0,,1
Raw,82678243,82651323000000,,,-1163522538070105344,0.0,118.89950110344216,-4.409034283122068,11.158054687455182,55,6,0.0,15,574789320503563,27,24.2,499.1878662109375,0.6664999723434448,0,0.0,0.0,,,,,0,,1
Raw,82678244,82651323000000,,,-1163522538070105344,0.0,118.89950110344216,-4.409034283122068,11.158054687455182,55,7,0.0,15,574789322361387,61,18.4,-313.52783203125,1.0794999599456787,0,0.0,0.0,,,,,0,,1
Raw,82678244,82651323000000,,,-1163522538070105344,0.0,118.89950110344216,-4.409034283122068,11.158054687455182,55,9,0.0,15,574789323939907,1011,16.2,322.18621826171875,3.751000165939331,0,0.0,0.0,,,,,0,,1
Raw,82678245,82651323000000,,,-1163522538070105344,0.0,118.89950110344216,-4.409034283122068,11.158054687455182,55,23,0.0,15,574789315330908,2663,12.2,553.992431640625,34.55400085449219,0,0.0,0.0,,,,,0,,1
Raw,82678246,82651323000000,,,-1163522538070105344,0.0,118.89950110344216,-4.409034283122068,11.158054687455182,55,30,0.0,15,574789317395020,87,17.4,-640.6427001953125,3.441999912261963,0,0.0,0.0,,,,,0,,1
Fix,gps,51.519214,-0.126919,107.000000,0.000000,11.000000,1479569973000
Fix,gps,51.519214,-0.126919,106.000000,0.000000,11.000000,1479569974000
Raw,82679214,82652323000000,,,-1163522538070105344,0.0,117.60710185626522,-5.127559114041306,9.445906963038569,55,2,0.0,15,574790321521871,367,15.6,4.215004920959473,11.758000373840332,0,0.0,0.0,,,,,0,,1
Raw,82679215,82652323000000,,,-1163522538070105344,0.0,117.60710185626522,-5.127559114041306,9.445906963038569,55,5,0.0,15,574790317026938,46,20.1,-581.3851928710938,0.9419999718666077,0,0.0,0.0,,,,,0,,1
Raw,82679217,82652323000000,,,-1163522538070105344,0.0,117.60710185626522,-5.127559114041306,9.445906963038569,55,6,0.0,15,574790320501966,27,24.8,499.7492370605469,0.6165000200271606,0,0.0,0.0,,,,,0,,1
Raw,82679219,82652323000000,,,-1163522538070105344,0.0,117.60710185626522,-5.127559114041306,9.445906963038569,55,7,0.0,15,574790322362449,53,19.6,-311.8818359375,0.9194999933242798,0,0.0,0.0,,,,,0,,1
Raw,82679221,82652323000000,,,-1163522538070105344,0.0,117.60710185626522,-5.127559114041306,9.445906963038569,55,9,0.0,15,574790323938844,891,16.9,321.9483337402344,4.4110002517700195,0,0.0,0.0,,,,,0,,1
Raw,82679222,82652323000000,,,-1163522538070105344,0.0,117.60710185626522,-5.127559114041306,9.445906963038569,55,23,0.0,15,574790315329060,2893,12.2,553.992431640625,36.05400085449219,0,0.0,0.0,,,,,0,,1
Raw,82679224,82652323000000,,,-1163522538070105344,0.0,117.60710185626522,-5.127559114041306,9.445906963038569,55,30,0.0,15,574790317397230,84,16.9,-640.2335205078125,1.9420000314712524,0,0.0,0.0,,,,,0,,1
Fix,gps,51.519214,-0.126919,106.000000,0.000000,11.000000,1479569975000
Raw,82680218,82653323000000,,,-1163522538070105344,0.0,112.20428859815001,-2.3345843889436426,9.475356136119938,55,2,0.0,15,574791321521857,447,15.6,4.215004920959473,13.258000373840332,0,0.0,0.0,,,,,0,,1
Raw,82680220,82653323000000,,,-1163522538070105344,0.0,112.20428859815001,-2.3345843889436426,9.475356136119938,55,5,0.0,15,574791317028724,40,21.6,-581.2235107421875,0.8119999766349792,0,0.0,0.0,,,,,0,,1
Raw,82680221,82653323000000,,,-1163522538070105344,0.0,112.20428859815001,-2.3345843889436426,9.475356136119938,55,6,0.0,15,574791320500273,24,25.7,499.8098449707031,0.38179999589920044,0,0.0,0.0,,,,,0,,1
Raw,82680222,82653323000000,,,-1163522538070105344,0.0,112.20428859815001,-2.3345843889436426,9.475356136119938,55,7,0.0,15,574791322363570,61,18.5,-312.0625915527344,0.999500036239624,0,0.0,0.0,,,,,0,,1
Raw,82680223,82653323000000,,,-1163522538070105344,0.0,112.20428859815001,-2.3345843889436426,9.475356136119938,55,9,0.0,15,574791323937763,905,17.4,322.20526123046875,5.1610002517700195,0,0.0,0.0,,,,,0,,1
Raw,82680224,82653323000000,,,-1163522538070105344,0.0,112.20428859815001,-2.3345843889436426,9.475356136119938,55,23,0.0,15,574791315327212,3133,12.2,553.992431640625,37.55400085449219,0,0.0,0.0,,,,,0,,1
Raw,82680225,82653323000000,,,-1163522538070105344,0.0,112.20428859815001,-2.3345843889436426,9.475356136119938,55,30,0.0,15,574791317399365,98,16.9,-640.2335205078125,3.441999912261963,0,0.0,0.0,,,,,0,,1
Fix,gps,51.519214,-0.126921,106.000000,0.000000,11.000000,1479569976000
Raw,82681257,82654323000000,,,-1163522538070105344,0.0,105.24130630074069,-2.105276688919805,9.515494651231732,55,2,0.0,15,574792321521843,536,15.6,4.215004920959473,14.758000373840332,0,0.0,0.0,,,,,0,,1
Raw,82681258,82654323000000,,,-1163522538070105344,0.0,105.24130630074069,-2.105276688919805,9.515494651231732,55,5,0.0,15,574792317030721,35,22.1,-581.4232788085938,0.8119999766349792,0,0.0,0.0,,,,,0,,1
Raw,82681260,82654323000000,,,-1163522538070105344,0.0,105.24130630074069,-2.105276688919805,9.515494651231732,55,6,0.0,15,574792320498626,27,24.8,499.73974609375,0.6165000200271606,0,0.0,0.0,,,,,0,,1
Raw,82681261,82654323000000,,,-1163522538070105344,0.0,105.24130630074069,-2.105276688919805,9.515494651231732,55,7,0.0,15,574792322364448,46,20.0,-311.06353759765625,0.9194999933242798,0,0.0,0.0,,,,,0,,1
Raw,82681262,82654323000000,,,-1163522538070105344,0.0,105.24130630074069,-2.105276688919805,9.515494651231732,55,9,0.0,15,574792323936686,807,17.9,321.9673767089844,5.821000099182129,0,0.0,0.0,,,,,0,,1
Raw,82681264,82654323000000,,,-1163522538070105344,0.0,105.24130630074069,-2.105276688919805,9.515494651231732,55,30,0.0,15,574792317401511,84,16.5,-639.5770263671875,1.9420000314712524,0,0.0,0.0,,,,,0,,1
Raw,82682216,82655323000000,,,-1163522538070105344,0.0,105.76129716355354,-2.038420385683379,9.409162697743444,55,2,0.0,15,574793321521829,635,15.6,4.215004920959473,16.25800132751465,0,0.0,0.0,,,,,0,,1
Raw,82682217,82655323000000,,,-1163522538070105344,0.0,105.76129716355354,-2.038420385683379,9.409162697743444,55,5,0.0,15,574793317032609,40,21.6,-581.6135864257812,0.8119999766349792,0,0.0,0.0,,,,,0,,1
Raw,82682218,82655323000000,,,-1163522538070105344,0.0,105.76129716355354,-2.038420385683379,9.409162697743444,55,6,0.0,15,574793320497017,27,24.6,500.4152526855469,0.6165000200271606,0,0.0,0.0,,,,,0,,1
Raw,82682219,82655323000000,,,-1163522538070105344,0.0,105.76129716355354,-2.038420385683379,9.409162697743444,55,7,0.0,15,574793322365662,53,19.2,-311.25384521484375,0.999500036239624,0,0.0,0.0,,,,,0,,1
Raw,82682222,82655323000000,,,-1163522538070105344,0.0,105.76129716355354,-2.038420385683379,9.409162697743444,55,9,0.0,15,574793323935618,47,20.8,321.9293212890625,1.3040000200271606,0,0.0,0.0,,,,,0,,1
Raw,82682223,82655323000000,,,-1163522538070105344,0.0,105.76129716355354,-2.038420385683379,9.409162697743444,55,30,0.0,15,574793317403644,98,16.5,-639.5770263671875,3.441999912261963,0,0.0,0.0,,,,,0,,1
Fix,gps,51.519211,-0.126921,106.000000,0.000000,11.000000,1479569977000
Fix,gps,51.519210,-0.126922,105.000000,0.000000,10.000000,1479569978000
Raw,82683221,82656323000000,,,-1163522538070105344,0.0,109.110536868684,-1.4672479875269897,11.909862730435677,55,2,0.0,15,574794321521815,745,15.6,4.215004920959473,17.75800132751465,0,0.0,0.0,,,,,0,,1
Raw,82683222,82656323000000,,,-1163522538070105344,0.0,109.110536868684,-1.4672479875269897,11.909862730435677,55,5,0.0,15,574794317034606,35,22.0,-581.6421508789062,0.8119999766349792,0,0.0,0.0,,,,,0,,1
Raw,82683223,82656323000000,,,-1163522538070105344,0.0,109.110536868684,-1.4672479875269897,11.909862730435677,55,6,0.0,15,574794320495311,27,24.3,500.5770263671875,0.6664999723434448,0,0.0,0.0,,,,,0,,1
Raw,82683225,82656323000000,,,-1163522538070105344,0.0,109.110536868684,-1.4672479875269897,11.909862730435677,55,7,0.0,15,574794322366688,70,17.4,-311.1015930175781,1.1694999933242798,0,0.0,0.0,,,,,0,,1
Raw,82683226,82656323000000,,,-1163522538070105344,0.0,109.110536868684,-1.4672479875269897,11.909862730435677,55,9,0.0,15,574794323934602,46,20.8,322.70001220703125,0.8510000109672546,0,0.0,0.0,,,,,0,,1
Raw,82683228,82656323000000,,,-1163522538070105344,0.0,109.110536868684,-1.4672479875269897,11.909862730435677,55,30,0.0,15,574794317405705,73,17.1,-638.8729248046875,1.9420000314712524,0,0.0,0.0,,,,,0,,1
Raw,82684215,82657323000000,,,-1163522538070105344,0.0,100.59025953523815,-1.4196911119911337,9.197706023949088,55,2,0.0,15,574795321521801,864,15.6,4.215004920959473,19.25800132751465,0,0.0,0.0,,,,,0,,1
Raw,82684217,82657323000000,,,-1163522538070105344,0.0,100.59025953523815,-1.4196911119911337,9.197706023949088,55,5,0.0,15,574795317036562,40,21.6,-581.8800048828125,0.8119999766349792,0,0.0,0.0,,,,,0,,1
Raw,82684218,82657323000000,,,-1163522538070105344,0.0,100.59025953523815,-1.4196911119911337,9.197706023949088,55,6,0.0,15,574795320493622,27,24.6,500.396240234375,0.6165000200271606,0,0.0,0.0,,,,,0,,1
Raw,82684220,82657323000000,,,-1163522538070105344,0.0,100.59025953523815,-1.4196911119911337,9.197706023949088,55,7,0.0,15,574795322367575,70,17.7,-311.09210205078125,1.0794999599456787,0,0.0,0.0,,,,,0,,1
Raw,82684221,82657323000000,,,-1163522538070105344,0.0,100.59025953523815,-1.4196911119911337,9.197706023949088,55,9,0.0,15,574795323933459,46,20.3,322.2623291015625,0.9210000038146973,0,0.0,0.0,,,,,0,,1
Raw,82684223,82657323000000,,,-1163522538070105344,0.0,100.59025953523815,-1.4196911119911337,9.197706023949088,55,16,0.0,15,574795312771572,1635,13.0,-59.01958084106445,8.124500274658203,0,0.0,0.0,,,,,0,,1
Raw,82684225,82657323000000,,,-1163522538070105344,0.0,100.59025953523815,-1.4196911119911337,9.197706023949088,55,30,0.0,15,574795317407836,87,17.1,-638.8729248046875,3.441999912261963,0,0.0,0.0,,,,,0,,1
Fix,gps,51.519208,-0.126923,105.000000,0.000000,10.000000,1479569979000
Fix,gps,51.519205,-0.126924,104.000000,0.000000,10.000000,1479569980000
Raw,82685238,82658323000000,,,-1163522538070105344,0.0,98.7639359664172,-2.273563443727323,9.233808499271847,55,2,0.0,15,574796321521787,993,15.6,4.215004920959473,20.75800132751465,0,0.0,0.0,,,,,0,,1
Raw,82685240,82658323000000,,,-1163522538070105344,0.0,98.7639359664172,-2.273563443727323,9.233808499271847,55,5,0.0,15,574796317038473,40,21.3,-581.8133544921875,0.871999979019165,0,0.0,0.0,,,,,0,,1
Raw,82685242,82658323000000,,,-1163522538070105344,0.0,98.7639359664172,-2.273563443727323,9.233808499271847,55,6,0.0,15,574796320491936,27,24.6,500.3391418457031,0.6165000200271606,0,0.0,0.0,,,,,0,,1
Raw,82685243,82658323000000,,,-1163522538070105344,0.0,98.7639359664172,-2.273563443727323,9.233808499271847,55,7,0.0,15,574796322368727,70,17.2,-311.0255126953125,1.1694999933242798,0,0.0,0.0,,,,,0,,1
Raw,82685245,82658323000000,,,-1163522538070105344,0.0,98.7639359664172,-2.273563443727323,9.233808499271847,55,9,0.0,15,574796323932404,40,21.7,322.4811706542969,0.7910000085830688,0,0.0,0.0,,,,,0,,1
Raw,82685259,82658323000000,,,-1163522538070105344,0.0,98.7639359664172,-2.273563443727323,9.233808499271847,55,16,0.0,15,574796312771772,1661,13.3,-59.40968704223633,8.874500274658203,0,0.0,0.0,,,,,0,,1
Raw,82685261,82658323000000,,,-1163522538070105344,0.0,98.7639359664172,-2.273563443727323,9.233808499271847,55,30,0.0,15,574796317410062,84,16.4,-639.120361328125,2.0320000648498535,0,0.0,0.0,,,,,0,,1
Fix,gps,51.519202,-0.126925,103.000000,0.000000,10.000000,1479569981000
Raw,82686234,82659323000000,,,-1163522538070105344,0.0,97.21395326778293,-2.4066849592497905,9.234663423956224,55,2,0.0,15,574797321521773,1133,15.6,4.215004920959473,22.25800132751465,0,0.0,0.0,,,,,0,,1
Raw,82686239,82659323000000,,,-1163522538070105344,0.0,97.21395326778293,-2.4066849592497905,9.234663423956224,55,5,0.0,15,574797317040365,40,21.8,-582.6030883789062,0.8119999766349792,0,0.0,0.0,,,,,0,,1
Raw,82686241,82659323000000,,,-1163522538070105344,0.0,97.21395326778293,-2.4066849592497905,9.234663423956224,55,6,0.0,15,574797320490273,27,24.4,499.11175537109375,0.6664999723434448,0,0.0,0.0,,,,,0,,1
Raw,82686242,82659323000000,,,-1163522538070105344,0.0,97.21395326778293,-2.4066849592497905,9.234663423956224,55,7,0.0,15,574797322369764,79,17.2,-311.0255126953125,2.6694998741149902,0,0.0,0.0,,,,,0,,1
Raw,82686243,82659323000000,,,-1163522538070105344,0.0,97.21395326778293,-2.4066849592497905,9.234663423956224,55,9,0.0,15,574797323931283,40,21.9,321.053955078125,0.7910000085830688,0,0.0,0.0,,,,,0,,1
Raw,82686244,82659323000000,,,-1163522538070105344,0.0,97.21395326778293,-2.4066849592497905,9.234663423956224,55,16,0.0,15,574797312771971,1689,13.3,-59.52386474609375,9.624500274658203,0,0.0,0.0,,,,,0,,1
Raw,82686246,82659323000000,,,-1163522538070105344,0.0,97.21395326778293,-2.4066849592497905,9.234663423956224,55,30,0.0,15,574797317412232,61,18.2,-639.3296508789062,1.1019999980926514,0,0.0,0.0,,,,,0,,1
Raw,82687228,82660323000000,,,-1163522538070105344,0.0,97.27549331728369,-5.602338555214522,9.018781023772512,55,2,0.0,15,574798321521759,1282,15.6,4.215004920959473,23.75800132751465,0,0.0,0.0,,,,,0,,1
Raw,82687229,82660323000000,,,-1163522538070105344,0.0,97.27549331728369,-5.602338555214522,9.018781023772512,55,5,0.0,15,574798317042322,35,22.5,-581.1473388671875,0.7519999742507935,0,0.0,0.0,,,,,0,,1
Raw,82687229,82660323000000,,,-1163522538070105344,0.0,97.27549331728369,-5.602338555214522,9.018781023772512,55,6,0.0,15,574798320488636,24,25.4,501.20361328125,0.38179999589920044,0,0.0,0.0,,,,,0,,1
Raw,82687230,82660323000000,,,-1163522538070105344,0.0,97.27549331728369,-5.602338555214522,9.018781023772512,55,7,0.0,15,574798322370939,96,15.1,-311.2919006347656,2.109499931335449,0,0.0,0.0,,,,,0,,1
Raw,82687231,82660323000000,,,-1163522538070105344,0.0,97.27549331728369,-5.602338555214522,9.018781023772512,55,9,0.0,15,574798323930148,40,21.4,323.2328186035156,0.8510000109672546,0,0.0,0.0,,,,,0,,1
Raw,82687231,82660323000000,,,-1163522538070105344,0.0,97.27549331728369,-5.602338555214522,9.018781023772512,55,16,0.0,15,574798312772158,341,13.3,-59.46677017211914,10.749500274658203,0,0.0,0.0,,,,,0,,1
Raw,82687232,82660323000000,,,-1163522538070105344,0.0,97.27549331728369,-5.602338555214522,9.018781023772512,55,30,0.0,15,574798317414364,70,18.2,-639.3296508789062,2.6019999980926514,0,0.0,0.0,,,,,0,,1
Fix,gps,51.519201,-0.126926,103.000000,0.000000,11.000000,1479569982000
Raw,82688215,82661323000000,,,-1163522538070105344,0.0,110.02933024428785,-0.8869911199104743,13.056018502643834,55,2,0.0,15,574799321521745,1441,15.6,4.215004920959473,25.25800132751465,0,0.0,0.0,,,,,0,,1
Raw,82688216,82661323000000,,,-1163522538070105344,0.0,110.02933024428785,-0.8869911199104743,13.056018502643834,55,5,0.0,15,574799317044319,40,21.7,-581.5565185546875,0.8119999766349792,0,0.0,0.0,,,,,0,,1
Raw,82688218,82661323000000,,,-1163522538070105344,0.0,110.02933024428785,-0.8869911199104743,13.056018502643834,55,6,0.0,15,574799320486936,24,25.1,501.17535400390625,0.38179999589920044,0,0.0,0.0,,,,,0,,1
Raw,82688220,82661323000000,,,-1163522538070105344,0.0,110.02933024428785,-0.8869911199104743,13.056018502643834,55,7,0.0,15,574799322371977,111,15.1,-311.2919006347656,3.609499931335449,0,0.0,0.0,,,,,0,,1
Raw,82688221,82661323000000,,,-1163522538070105344,0.0,110.02933024428785,-0.8869911199104743,13.056018502643834,55,9,0.0,15,574799323929188,40,21.9,323.1662292480469,0.7910000085830688,0,0.0,0.0,,,,,0,,1
Raw,82688222,82661323000000,,,-1163522538070105344,0.0,110.02933024428785,-0.8869911199104743,13.056018502643834,55,16,0.0,15,574799312772357,412,13.3,-59.46677017211914,12.249500274658203,0,0.0,0.0,,,,,0,,1
Raw,82688223,82661323000000,,,-1163522538070105344,0.0,110.02933024428785,-0.8869911199104743,13.056018502643834,55,30,0.0,15,574799317416382,73,17.4,-638.8634033203125,1.9420000314712524,0,0.0,0.0,,,,,0,,1
Fix,gps,51.519200,-0.126927,103.000000,0.000000,11.000000,1479569983000
Raw,82689240,82662323000000,,,-1163522538070105344,0.0,105.55879271123558,-1.2396506339211408,9.128820566915278,55,2,0.0,15,574800321521731,1611,15.6,4.215004920959473,26.75800132751465,0,0.0,0.0,,,,,0,,1
Raw,82689241,82662323000000,,,-1163522538070105344,0.0,105.55879271123558,-1.2396506339211408,9.128820566915278,55,5,0.0,15,574800317046158,35,22.5,-581.1568603515625,0.7519999742507935,0,0.0,0.0,,,,,0,,1
Raw,82689242,82662323000000,,,-1163522538070105344,0.0,105.55879271123558,-1.2396506339211408,9.128820566915278,55,6,0.0,15,574800320485252,24,25.5,501.2391357421875,0.38179999589920044,0,0.0,0.0,,,,,0,,1
Raw,82689244,82662323000000,,,-1163522538070105344,0.0,105.55879271123558,-1.2396506339211408,9.128820566915278,55,7,0.0,15,574800322373015,135,15.1,-311.2919006347656,5.109500408172607,0,0.0,0.0,,,,,0,,1
Raw,82689245,82662323000000,,,-1163522538070105344,0.0,105.55879271123558,-1.2396506339211408,9.128820566915278,55,9,0.0,15,574800323928040,31,23.2,323.11865234375,0.7310000061988831,0,0.0,0.0,,,,,0,,1
Raw,82689246,82662323000000,,,-1163522538070105344,0.0,105.55879271123558,-1.2396506339211408,9.128820566915278,55,16,0.0,15,574800312772555,494,13.3,-59.46677017211914,13.749500274658203,0,0.0,0.0,,,,,0,,1
Raw,82689248,82662323000000,,,-1163522538070105344,0.0,105.55879271123558,-1.2396506339211408,9.128820566915278,55,30,0.0,15,574800317418441,61,18.8,-639.2344970703125,1.0220000743865967,0,0.0,0.0,,,,,0,,1
Fix,gps,51.519200,-0.126928,103.000000,0.000000,11.000000,1479569984000
Raw,82690231,82663323000000,,,-1163522538070105344,0.0,109.05192175414413,-1.4990790205429705,9.03930398787021,55,2,0.0,15,574801321521717,1790,15.6,4.215004920959473,28.25800132751465,0,0.0,0.0,,,,,0,,1
Raw,82690232,82663323000000,,,-1163522538070105344,0.0,109.05192175414413,-1.4990790205429705,9.03930398787021,55,5,0.0,15,574801317048215,40,21.5,-581.1188354492188,0.8119999766349792,0,0.0,0.0,,,,,0,,1
Raw,82690234,82663323000000,,,-1163522538070105344,0.0,109.05192175414413,-1.4990790205429705,9.03930398787021,55,6,0.0,15,574801320483615,24,25.4,501.6141052246094,0.38179999589920044,0,0.0,0.0,,,,,0,,1
Raw,82690235,82663323000000,,,-1163522538070105344,0.0,109.05192175414413,-1.4990790205429705,9.03930398787021,55,7,0.0,15,574801322373882,102,15.0,-311.6534423828125,2.859499931335449,0,0.0,0.0,,,,,0,,1
Raw,82690237,82663323000000,,,-1163522538070105344,0.0,109.05192175414413,-1.4990790205429705,9.03930398787021,55,9,0.0,15,574801323927004,35,22.3,323.6134033203125,0.7910000085830688,0,0.0,0.0,,,,,0,,1
Raw,82690238,82663323000000,,,-1163522538070105344,0.0,109.05192175414413,-1.4990790205429705,9.03930398787021,55,16,0.0,15,574801312772753,585,13.3,-59.46677017211914,15.249500274658203,0,0.0,0.0,,,,,0,,1
Raw,82690239,82663323000000,,,-1163522538070105344,0.0,109.05192175414413,-1.4990790205429705,9.03930398787021,55,30,0.0,15,574801317420685,46,20.2,-639.8434448242188,0.9419999718666077,0,0.0,0.0,,,,,0,,1
Fix,gps,51.519200,-0.126928,103.000000,0.000000,10.000000,1479569985000
Fix,gps,51.519199,-0.126928,103.000000,0.000000,10.000000,1479569986000
Raw,82691286,82664323000000,,,-1163522538070105344,0.0,104.746941360645,-1.8731692099644806,9.964181393398382,55,2,0.0,15,574802321521703,1980,15.6,4.215004920959473,29.75800132751465,0,0.0,0.0,,,,,0,,1
Raw,82691288,82664323000000,,,-1163522538070105344,0.0,104.746941360645,-1.8731692099644806,9.964181393398382,55,5,0.0,15,574802317050097,35,22.8,-581.68017578125,0.7519999742507935,0,0.0,0.0,,,,,0,,1
Raw,82691290,82664323000000,,,-1163522538070105344,0.0,104.746941360645,-1.8731692099644806,9.964181393398382,55,6,0.0,15,574802320481912,24,25.9,500.107421875,0.38179999589920044,0,0.0,0.0,,,,,0,,1
Raw,82691292,82664323000000,,,-1163522538070105344,0.0,104.746941360645,-1.8731692099644806,9.964181393398382,55,7,0.0,15,574802322374921,122,15.0,-311.6534423828125,4.359500408172607,0,0.0,0.0,,,,,0,,1
Raw,82691294,82664323000000,,,-1163522538070105344,0.0,104.746941360645,-1.8731692099644806,9.964181393398382,55,9,0.0,15,574802323925948,35,22.9,323.18524169921875,0.7310000061988831,0,0.0,0.0,,,,,0,,1
Raw,82691295,82664323000000,,,-1163522538070105344,0.0,104.746941360645,-1.8731692099644806,9.964181393398382,55,16,0.0,15,574802312772952,687,13.3,-59.46677017211914,16.749500274658203,0,0.0,0.0,,,,,0,,1
Raw,82691297,82664323000000,,,-1163522538070105344,0.0,104.746941360645,-1.8731692099644806,9.964181393398382,55,30,0.0,15,574802317422797,53,19.3,-639.786376953125,1.0220000743865967,0,0.0,0.0,,,,,0,,1
Fix,gps,51.519199,-0.126929,103.000000,0.000000,10.000000,1479569987000
Raw,82692228,82665323000000,,,-1163522538070105344,0.0,96.89635771792382,-3.8455212148589184,8.88925237894106,55,2,0.0,15,574803321521689,2179,15.6,4.215004920959473,31.25800132751465,0,0.0,0.0,,,,,0,,1
Raw,82692230,82665323000000,,,-1163522538070105344,0.0,96.89635771792382,-3.8455212148589184,8.88925237894106,55,5,0.0,15,574803317052043,35,22.3,-581.0617065429688,0.8119999766349792,0,0.0,0.0,,,,,0,,1
Raw,82692231,82665323000000,,,-1163522538070105344,0.0,96.89635771792382,-3.8455212148589184,8.88925237894106,55,6,0.0,15,574803320480227,21,26.3,501.7520446777344,0.1112000048160553,0,0.0,0.0,,,,,0,,1
Raw,82692237,82665323000000,,,-1163522538070105344,0.0,96.89635771792382,-3.8455212148589184,8.88925237894106,55,7,0.0,15,574803322375961,84,16.5,-310.57830810546875,1.9194999933242798,0,0.0,0.0,,,,,0,,1
Raw,82692239,82665323000000,,,-1163522538070105344,0.0,96.89635771792382,-3.8455212148589184,8.88925237894106,55,9,0.0,15,574803323924784,31,23.6,323.7561340332031,0.6710000038146973,0,0.0,0.0,,,,,0,,1
Raw,82692241,82665323000000,,,-1163522538070105344,0.0,96.89635771792382,-3.8455212148589184,8.88925237894106,55,16,0.0,15,574803312773150,798,13.3,-59.46677017211914,18.249500274658203,0,0.0,0.0,,,,,0,,1
Raw,82692242,82665323000000,,,-1163522538070105344,0.0,96.89635771792382,-3.8455212148589184,8.88925237894106,55,30,0.0,15,574803317424903,53,19.2,-638.1593627929688,1.0220000743865967,0,0.0,0.0,,,,,0,,1
Fix,gps,51.519199,-0.126929,103.000000,0.000000,10.000000,1479569988000
Raw,82693220,82666323000000,,,-1163522538070105344,0.0,105.82154936855659,-0.30789687530732596,15.603808582230315,55,2,0.0,15,574804321521674,2388,15.6,4.215004920959473,32.75800323486328,0,0.0,0.0,,,,,0,,1
Raw,82693222,82666323000000,,,-1163522538070105344,0.0,105.82154936855659,-0.30789687530732596,15.603808582230315,55,5,0.0,15,574804317053939,35,22.7,-581.1093139648438,0.7519999742507935,0,0.0,0.0,,,,,0,,1
Raw,82693223,82666323000000,,,-1163522538070105344,0.0,105.82154936855659,-0.30789687530732596,15.603808582230315,55,6,0.0,15,574804320478572,21,26.3,501.7975769042969,0.1112000048160553,0,0.0,0.0,,,,,0,,1
Raw,82693225,82666323000000,,,-1163522538070105344,0.0,105.82154936855659,-0.30789687530732596,15.603808582230315,55,7,0.0,15,574804322376997,98,16.5,-310.57830810546875,3.4194998741149902,0,0.0,0.0,,,,,0,,1
Raw,82693226,82666323000000,,,-1163522538070105344,0.0,105.82154936855659,-0.30789687530732596,15.603808582230315,55,9,0.0,15,574804323923758,31,23.8,323.9273986816406,0.6710000038146973,0,0.0,0.0,,,,,0,,1
Raw,82693232,82666323000000,,,-1163522538070105344,0.0,105.82154936855659,-0.30789687530732596,15.603808582230315,55,16,0.0,15,574804312773348,920,13.3,-59.46677017211914,19.749500274658203,0,0.0,0.0,,,,,0,,1
Raw,82693232,82666323000000,,,-1163522538070105344,0.0,105.82154936855659,-0.30789687530732596,15.603808582230315,55,30,0.0,15,574804317427032,61,19.2,-638.1593627929688,2.5220000743865967,0,0.0,0.0,,,,,0,,1
Fix,gps,51.519199,-0.126929,103.000000,0.000000,11.000000,1479569989000
Raw,82694274,82667323000000,,,-1163522538070105344,0.0,103.63461478846148,-0.10133094231422436,11.259729488430251,55,2,0.0,15,574805321521660,2608,15.6,4.215004920959473,34.25800323486328,0,0.0,0.0,,,,,0,,1
Raw,82694275,82667323000000,,,-1163522538070105344,0.0,103.63461478846148,-0.10133094231422436,11.259729488430251,55,5,0.0,15,574805317055895,40,21.6,-580.662109375,0.8119999766349792,0,0.0,0.0,,,,,0,,1
Raw,82694276,82667323000000,,,-1163522538070105344,0.0,103.63461478846148,-0.10133094231422436,11.259729488430251,55,6,0.0,15,574805320476898,21,26.6,501.9395446777344,0.1112000048160553,0,0.0,0.0,,,,,0,,1
Raw,82694277,82667323000000,,,-1163522538070105344,0.0,103.63461478846148,-0.10133094231422436,11.259729488430251,55,7,0.0,15,574805322377864,84,16.9,-309.5982971191406,1.9194999933242798,0,0.0,0.0,,,,,0,,1
Raw,82694278,82667323000000,,,-1163522538070105344,0.0,103.63461478846148,-0.10133094231422436,11.259729488430251,55,9,0.0,15,574805323922698,27,24.1,323.51824951171875,0.6710000038146973,0,0.0,0.0,,,,,0,,1
Raw,82694279,82667323000000,,,-1163522538070105344,0.0,103.63461478846148,-0.10133094231422436,11.259729488430251,55,16,0.0,15,574805312773547,1051,13.3,-59.46677017211914,21.249500274658203,0,0.0,0.0,,,,,0,,1
Raw,82694280,82667323000000,,,-1163522538070105344,0.0,103.63461478846148,-0.10133094231422436,11.259729488430251,55,30,0.0,15,574805317429158,73,17.3,-638.9776000976562,1.9420000314712524,0,0.0,0.0,,,,,0,,1
Fix,gps,51.519199,-0.126929,103.000000,0.000000,11.000000,1479569990000
Raw,82695308,82668323000000,,,-1163522538070105344,0.0,105.02653458388522,0.27865397765852523,11.594501293977885,55,2,0.0,15,574806321521646,2837,15.6,4.215004920959473,35.75800323486328,0,0.0,0.0,,,,,0,,1
Raw,82695311,82668323000000,,,-1163522538070105344,0.0,105.02653458388522,0.27865397765852523,11.594501293977885,55,5,0.0,15,574806317057812,35,22.3,-580.8618774414062,0.8119999766349792,0,0.0,0.0,,,,,0,,1
