# 
# Header Description:
# 
# Version: 1.4.0.0, Platform: N
# 
# Raw,ElapsedRealtimeMillis,TimeNanos,LeapSecond,TimeUncertaintyNanos,FullBiasNanos,BiasNanos,BiasUncertaintyNanos,DriftNanosPerSecond,DriftUncertaintyNanosPerSecond,HardwareClockDiscontinuityCount, Svid,TimeOffsetNanos,State,ReceivedSvTimeNanos,ReceivedSvTimeUncertaintyNanos,Cn0DbHz,PseudorangeRateMetersPerSecond,PseudorangeRateUncertaintyMetersPerSecond,AccumulatedDeltaRangeState,AccumulatedDeltaRangeMeters,AccumulatedDeltaRangeUncertaintyMeters,CarrierFrequencyHz,CarrierCycles,CarrierPhase,CarrierPhaseUncertainty,MultipathIndicator,SnrInDb,ConstellationType
# 
# Fix,Provider,Latitude,Longitude,Altitude,Speed,Accuracy,(UTC)TimeInMs
# 
# Nav,Svid,Type,Status,MessageId,Sub-messageId,Data(Bytes)
# 
Raw,17357130,17361911000000,,,-1163849822485671424,0.0,238.37186745367944,12.142935081366183,9.922303603603117,782,2,0.0,15,231984322567713,80,19.4,403.4320983886719,3.999500274658203,0,0.0,0.0,,,,,0,,1
Raw,17357130,17361911000000,,,-1163849822485671424,0.0,238.37186745367944,12.142935081366183,9.922303603603117,782,7,0.0,15,231984327246468,19,27.8,93.88265228271484,0.05180000141263008,0,0.0,0.0,,,,,0,,1
Raw,17357131,17361911000000,,,-1163849822485671424,0.0,238.37186745367944,12.142935081366183,9.922303603603117,782,9,0.0,15,231984322436239,10,34.2,525.634033203125,0.025100000202655792,0,0.0,0.0,,,,,0,,1
Raw,17357131,17361911000000,,,-1163849822485671424,0.0,238.37186745367944,12.142935081366183,9.922303603603117,782,16,0.0,15,231984314340634,403,13.5,383.58447265625,11.9975004196167,0,0.0,0.0,,,,,0,,1
Raw,17357132,17361911000000,,,-1163849822485671424,0.0,238.37186745367944,12.142935081366183,9.922303603603117,782,30,0.0,15,231984326918859,7,37.2,-342.5511779785156,0.029600001871585846,0,0.0,0.0,,,,,0,,1
Fix,gps,51.513434,-0.080140,153.000000,0.000000,14.000000,1479831968000
Fix,gps,51.513434,-0.080140,153.000000,0.000000,13.000000,1479831969000
Raw,17358168,17362911000000,,,-1163849822485671424,0.0,232.31464729178697,7.151063250998945,9.770884115178964,782,2,0.0,15,231985322565801,90,16.3,403.032470703125,2.759500026702881,0,0.0,0.0,,,,,0,,1
Raw,17358170,17362911000000,,,-1163849822485671424,0.0,232.31464729178697,7.151063250998945,9.770884115178964,782,5,0.0,15,231985326273439,318,23.5,-353.1089172363281,0.9455000162124634,0,0.0,0.0,,,,,0,,1
Raw,17358171,17362911000000,,,-1163849822485671424,0.0,232.31464729178697,7.151063250998945,9.770884115178964,782,7,0.0,15,231985327246108,17,28.3,91.69265747070312,0.043800000101327896,0,0.0,0.0,,,,,0,,1
Raw,17358172,17362911000000,,,-1163849822485671424,0.0,232.31464729178697,7.151063250998945,9.770884115178964,782,9,0.0,15,231985322434496,9,35.8,523.5526733398438,0.02460000105202198,0,0.0,0.0,,,,,0,,1
Raw,17358174,17362911000000,,,-1163849822485671424,0.0,232.31464729178697,7.151063250998945,9.770884115178964,782,16,0.0,15,231985314339354,483,13.5,383.58447265625,13.4975004196167,0,0.0,0.0,,,,,0,,1
Raw,17358175,17362911000000,,,-1163849822485671424,0.0,232.31464729178697,7.151063250998945,9.770884115178964,782,30,0.0,15,231985326920007,8,36.1,-344.64093017578125,0.03020000085234642,0,0.0,0.0,,,,,0,,1
Fix,gps,51.513434,-0.080140,153.000000,0.000000,13.000000,1479831970000
Raw,17359218,17363911000000,,,-1163849822485671424,0.0,229.04360957909375,0.7750827213486456,11.626061136931195,782,2,0.0,15,231986322564457,109,16.3,403.032470703125,4.259500503540039,0,0.0,0.0,,,,,0,,1
Raw,17359220,17363911000000,,,-1163849822485671424,0.0,229.04360957909375,0.7750827213486456,11.626061136931195,782,5,0.0,15,231986326274669,19,27.9,-351.48175048828125,0.10430000722408295,0,0.0,0.0,,,,,0,,1
Raw,17359221,17363911000000,,,-1163849822485671424,0.0,229.04360957909375,0.7750827213486456,11.626061136931195,782,7,0.0,15,231986327245850,14,30.5,93.93965911865234,0.03629999980330467,0,0.0,0.0,,,,,0,,1
Raw,17359223,17363911000000,,,-1163849822485671424,0.0,229.04360957909375,0.7750827213486456,11.626061136931195,782,9,0.0,15,231986322432739,10,34.6,525.5988159179688,0.025100000202655792,0,0.0,0.0,,,,,0,,1
Raw,17359225,17363911000000,,,-1163849822485671424,0.0,229.04360957909375,0.7750827213486456,11.626061136931195,782,16,0.0,15,231986314338075,573,13.5,383.58447265625,14.9975004196167,0,0.0,0.0,,,,,0,,1
Raw,17359227,17363911000000,,,-1163849822485671424,0.0,229.04360957909375,0.7750827213486456,11.626061136931195,782,30,0.0,15,231986326921188,8,36.2,-342.46246337890625,0.03020000085234642,0,0.0,0.0,,,,,0,,1
Raw,17360170,17364911000000,,,-1163849822485671168,0.0,224.07658980228007,6.714658794251378,9.602859205908498,782,2,0.0,15,231987322563079,73,17.9,403.47015380859375,1.8294999599456787,0,0.0,0.0,,,,,0,,1
Raw,17360171,17364911000000,,,-1163849822485671168,0.0,224.07658980228007,6.714658794251378,9.602859205908498,782,5,0.0,15,231987326275865,19,27.9,-350.25048828125,0.050300002098083496,0,0.0,0.0,,,,,0,,1
Raw,17360173,17364911000000,,,-1163849822485671168,0.0,224.07658980228007,6.714658794251378,9.602859205908498,782,6,0.0,15,231987316695902,1012,16.4,704.7716674804688,3.8005001544952393,0,0.0,0.0,,,,,0,,1
Raw,17360175,17364911000000,,,-1163849822485671168,0.0,224.07658980228007,6.714658794251378,9.602859205908498,782,7,0.0,15,231987327245573,14,30.1,95.08702850341797,0.03629999980330467,0,0.0,0.0,,,,,0,,1
Raw,17360175,17364911000000,,,-1163849822485671168,0.0,224.07658980228007,6.714658794251378,9.602859205908498,782,9,0.0,15,231987322431040,10,34.1,526.6653442382812,0.025100000202655792,0,0.0,0.0,,,,,0,,1
Raw,17360176,17364911000000,,,-1163849822485671168,0.0,224.07658980228007,6.714658794251378,9.602859205908498,782,16,0.0,15,231987314336795,673,13.5,383.58447265625,16.497501373291016,0,0.0,0.0,,,,,0,,1
Raw,17360177,17364911000000,,,-1163849822485671168,0.0,224.07658980228007,6.714658794251378,9.602859205908498,782,30,0.0,15,231987326922332,8,36.5,-341.2539367675781,0.03020000085234642,0,0.0,0.0,,,,,0,,1
Fix,gps,51.513438,-0.080132,151.000000,0.000000,13.000000,1479831971000
Raw,17361163,17365911000000,,,-1163849822485671168,0.0,236.48694332223386,9.969520099822773,15.321700932519063,782,2,0.0,15,231988322561733,87,17.9,403.47015380859375,3.3294999599456787,0,0.0,0.0,,,,,0,,1
Raw,17361164,17365911000000,,,-1163849822485671168,0.0,236.48694332223386,9.969520099822773,15.321700932519063,782,5,0.0,15,231988326276970,24,25.9,-350.8104553222656,0.39079999923706055,0,0.0,0.0,,,,,0,,1
Raw,17361166,17365911000000,,,-1163849822485671168,0.0,236.48694332223386,9.969520099822773,15.321700932519063,782,7,0.0,15,231988327245250,13,31.1,94.7049331665039,0.0357000008225441,0,0.0,0.0,,,,,0,,1
Raw,17361168,17365911000000,,,-1163849822485671168,0.0,236.48694332223386,9.969520099822773,15.321700932519063,782,9,0.0,15,231988322429291,10,34.5,526.2679443359375,0.025100000202655792,0,0.0,0.0,,,,,0,,1
Raw,17361169,17365911000000,,,-1163849822485671168,0.0,236.48694332223386,9.969520099822773,15.321700932519063,782,16,0.0,15,231988314335516,784,13.5,383.58447265625,17.997501373291016,0,0.0,0.0,,,,,0,,1
Raw,17361170,17365911000000,,,-1163849822485671168,0.0,236.48694332223386,9.969520099822773,15.321700932519063,782,30,0.0,15,231988326923427,8,36.7,-341.70294189453125,0.03020000085234642,0,0.0,0.0,,,,,0,,1
Fix,gps,51.513441,-0.080125,151.000000,0.000000,14.000000,1479831972000
Fix,gps,51.513443,-0.080123,151.000000,0.000000,15.000000,1479831973000
Raw,17362161,17366911000000,,,-1163849822485671168,0.0,247.43872927501798,8.624763335236956,9.563559709905556,782,2,0.0,15,231989322560844,49,20.3,404.3074645996094,1.6694999933242798,0,0.0,0.0,,,,,0,,1
Raw,17362162,17366911000000,,,-1163849822485671168,0.0,247.43872927501798,8.624763335236956,9.563559709905556,782,5,0.0,15,231989326278195,17,28.2,-350.4300842285156,0.04230000078678131,0,0.0,0.0,,,,,0,,1
Raw,17362164,17366911000000,,,-1163849822485671168,0.0,247.43872927501798,8.624763335236956,9.563559709905556,782,7,0.0,15,231989327244968,12,32.5,95.00602722167969,0.03440000116825104,0,0.0,0.0,,,,,0,,1
Raw,17362165,17366911000000,,,-1163849822485671168,0.0,247.43872927501798,8.624763335236956,9.563559709905556,782,9,0.0,15,231989322427515,9,35.6,526.4893188476562,0.02460000105202198,0,0.0,0.0,,,,,0,,1
Raw,17362166,17366911000000,,,-1163849822485671168,0.0,247.43872927501798,8.624763335236956,9.563559709905556,782,16,0.0,15,231989314334236,904,13.5,383.58447265625,19.497501373291016,0,0.0,0.0,,,,,0,,1
Raw,17362168,17366911000000,,,-1163849822485671168,0.0,247.43872927501798,8.624763335236956,9.563559709905556,782,30,0.0,15,231989326924553,7,37.6,-341.4590759277344,0.029600001871585846,0,0.0,0.0,,,,,0,,1
Raw,17363148,17367911000000,,,-1163849822485671168,0.0,262.66579516232014,9.20178182767693,9.389048506936694,782,2,0.0,15,231990322559569,46,20.4,402.8707580566406,0.9194999933242798,0,0.0,0.0,,,,,0,,1
Raw,17363148,17367911000000,,,-1163849822485671168,0.0,262.66579516232014,9.20178182767693,9.389048506936694,782,5,0.0,15,231990326279367,14,30.8,-351.19097900390625,0.03480000048875809,0,0.0,0.0,,,,,0,,1
Raw,17363149,17367911000000,,,-1163849822485671168,0.0,262.66579516232014,9.20178182767693,9.389048506936694,782,6,0.0,15,231990316689507,869,17.0,706.1608276367188,2.750500202178955,0,0.0,0.0,,,,,0,,1
Raw,17363149,17367911000000,,,-1163849822485671168,0.0,262.66579516232014,9.20178182767693,9.389048506936694,782,7,0.0,15,231990327244640,13,31.1,94.47437286376953,0.0357000008225441,0,0.0,0.0,,,,,0,,1
Raw,17363149,17367911000000,,,-1163849822485671168,0.0,262.66579516232014,9.20178182767693,9.389048506936694,782,9,0.0,15,231990322425726,17,28.2,525.894287109375,0.03629999980330467,0,0.0,0.0,,,,,0,,1
Raw,17363150,17367911000000,,,-1163849822485671168,0.0,262.66579516232014,9.20178182767693,9.389048506936694,782,16,0.0,15,231990314332957,1034,13.5,383.58447265625,20.997501373291016,0,0.0,0.0,,,,,0,,1
Raw,17363150,17367911000000,,,-1163849822485671168,0.0,262.66579516232014,9.20178182767693,9.389048506936694,782,30,0.0,15,231990326925691,10,34.2,-341.8289794921875,0.03110000118613243,0,0.0,0.0,,,,,0,,1
Fix,gps,51.513449,-0.080128,151.000000,0.000000,14.000000,1479831974000
Raw,17364189,17368911000000,,,-1163849822485671168,0.0,255.17333415336907,6.822861243421204,10.88853073381918,782,2,0.0,15,231991322558401,46,20.3,404.02203369140625,0.9194999933242798,0,0.0,0.0,,,,,0,,1
Raw,17364190,17368911000000,,,-1163849822485671168,0.0,255.17333415336907,6.822861243421204,10.88853073381918,782,5,0.0,15,231991326280562,12,32.0,-351.4068298339844,0.03290000185370445,0,0.0,0.0,,,,,0,,1
Raw,17364191,17368911000000,,,-1163849822485671168,0.0,255.17333415336907,6.822861243421204,10.88853073381918,782,6,0.0,15,231991316687053,664,19.1,705.5803833007812,3.3305001258850098,0,0.0,0.0,,,,,0,,1
Raw,17364192,17368911000000,,,-1163849822485671168,0.0,255.17333415336907,6.822861243421204,10.88853073381918,782,7,0.0,15,231991327244332,12,32.2,94.44047546386719,0.03440000116825104,0,0.0,0.0,,,,,0,,1
Raw,17364193,17368911000000,,,-1163849822485671168,0.0,255.17333415336907,6.822861243421204,10.88853073381918,782,9,0.0,15,231991322423728,17,28.4,525.5276489257812,0.03629999980330467,0,0.0,0.0,,,,,0,,1
Raw,17364194,17368911000000,,,-1163849822485671168,0.0,255.17333415336907,6.822861243421204,10.88853073381918,782,13,0.0,15,231991317304724,652,18.6,-621.7655639648438,2.0420000553131104,0,0.0,0.0,,,,,0,,1
Raw,17364194,17368911000000,,,-1163849822485671168,0.0,255.17333415336907,6.822861243421204,10.88853073381918,782,16,0.0,15,231991314331677,1174,13.5,383.58447265625,22.497501373291016,0,0.0,0.0,,,,,0,,1
Raw,17364195,17368911000000,,,-1163849822485671168,0.0,255.17333415336907,6.822861243421204,10.88853073381918,782,30,0.0,15,231991326926875,12,32.3,-341.9844055175781,0.03290000185370445,0,0.0,0.0,,,,,0,,1
Fix,gps,51.513452,-0.080131,150.000000,0.000000,15.000000,1479831975000
Fix,gps,51.513454,-0.080133,151.000000,0.000000,14.000000,1479831976000
Raw,17365196,17369911000000,,,-1163849822485671424,0.0,246.26438971608877,6.009523276807644,8.94336076103496,782,2,0.0,15,231992322557053,54,20.3,404.02203369140625,2.4194998741149902,0,0.0,0.0,,,,,0,,1
Raw,17365198,17369911000000,,,-1163849822485671424,0.0,246.26438971608877,6.009523276807644,8.94336076103496,782,5,0.0,15,231992326281687,21,26.1,-349.7114562988281,0.12020000070333481,0,0.0,0.0,,,,,0,,1
Raw,17365199,17369911000000,,,-1163849822485671424,0.0,246.26438971608877,6.009523276807644,8.94336076103496,782,6,0.0,15,231992316684700,675,19.1,705.8468017578125,4.08050012588501,0,0.0,0.0,,,,,0,,1
Raw,17365200,17369911000000,,,-1163849822485671424,0.0,246.26438971608877,6.009523276807644,8.94336076103496,782,7,0.0,15,231992327244052,13,31.8,95.63610076904297,0.0357000008225441,0,0.0,0.0,,,,,0,,1
Raw,17365202,17369911000000,,,-1163849822485671424,0.0,246.26438971608877,6.009523276807644,8.94336076103496,782,9,0.0,15,231992322422199,10,34.2,526.9175415039062,0.025100000202655792,0,0.0,0.0,,,,,0,,1
Raw,17365203,17369911000000,,,-1163849822485671424,0.0,246.26438971608877,6.009523276807644,8.94336076103496,782,13,0.0,15,231992317306832,871,17.4,-621.2327270507812,2.9619998931884766,0,0.0,0.0,,,,,0,,1
Raw,17365205,17369911000000,,,-1163849822485671424,0.0,246.26438971608877,6.009523276807644,8.94336076103496,782,16,0.0,15,231992314330398,1324,13.5,383.58447265625,23.997501373291016,0,0.0,0.0,,,,,0,,1
Raw,17365206,17369911000000,,,-1163849822485671424,0.0,246.26438971608877,6.009523276807644,8.94336076103496,782,30,0.0,15,231992326928000,11,33.9,-340.74993896484375,0.03189999982714653,0,0.0,0.0,,,,,0,,1
Raw,17366163,17370911000000,,,-1163849822485671168,0.0,231.48985928855836,10.059454995504103,8.365686958883426,782,2,0.0,15,231993322555706,72,20.3,404.02203369140625,3.9195003509521484,0,0.0,0.0,,,,,0,,1
Raw,17366164,17370911000000,,,-1163849822485671168,0.0,231.48985928855836,10.059454995504103,8.365686958883426,782,5,0.0,15,231993326282948,17,28.2,-349.2590026855469,0.04230000078678131,0,0.0,0.0,,,,,0,,1
Raw,17366166,17370911000000,,,-1163849822485671168,0.0,231.48985928855836,10.059454995504103,8.365686958883426,782,6,0.0,15,231993316682347,787,18.4,705.9609985351562,4.9105000495910645,0,0.0,0.0,,,,,0,,1
Raw,17366167,17370911000000,,,-1163849822485671168,0.0,231.48985928855836,10.059454995504103,8.365686958883426,782,7,0.0,15,231993327243680,16,29.7,96.10015106201172,0.03720000013709068,0,0.0,0.0,,,,,0,,1
Raw,17366168,17370911000000,,,-1163849822485671168,0.0,231.48985928855836,10.059454995504103,8.365686958883426,782,9,0.0,15,231993322420450,9,35.1,527.4467163085938,0.02460000105202198,0,0.0,0.0,,,,,0,,1
Raw,17366169,17370911000000,,,-1163849822485671168,0.0,231.48985928855836,10.059454995504103,8.365686958883426,782,16,0.0,15,231993314329118,1485,13.5,383.58447265625,25.497501373291016,0,0.0,0.0,,,,,0,,1
Raw,17366170,17370911000000,,,-1163849822485671168,0.0,231.48985928855836,10.059454995504103,8.365686958883426,782,30,0.0,15,231993326929124,7,37.6,-340.1949157714844,0.029600001871585846,0,0.0,0.0,,,,,0,,1
Fix,gps,51.513455,-0.080134,151.000000,0.000000,14.000000,1479831977000
Fix,gps,51.513455,-0.080135,151.000000,0.000000,14.000000,1479831978000
Raw,17367206,17371911000000,,,-1163849822485671168,0.0,231.79478012025356,11.9369077757767,8.929756722289891,782,2,0.0,15,231994322554638,102,15.6,405.9249572753906,2.759500026702881,0,0.0,0.0,,,,,0,,1
Raw,17367208,17371911000000,,,-1163849822485671168,0.0,231.79478012025356,11.9369077757767,8.929756722289891,782,5,0.0,15,231994326284050,19,27.6,-349.35919189453125,0.050300002098083496,0,0.0,0.0,,,,,0,,1
Raw,17367209,17371911000000,,,-1163849822485671168,0.0,231.79478012025356,11.9369077757767,8.929756722289891,782,6,0.0,15,231994316679984,803,18.1,706.008544921875,5.6605000495910645,0,0.0,0.0,,,,,0,,1
Raw,17367210,17371911000000,,,-1163849822485671168,0.0,231.79478012025356,11.9369077757767,8.929756722289891,782,7,0.0,15,231994327243330,17,28.5,96.38105010986328,0.043800000101327896,0,0.0,0.0,,,,,0,,1
Raw,17367211,17371911000000,,,-1163849822485671168,0.0,231.79478012025356,11.9369077757767,8.929756722289891,782,9,0.0,15,231994322418675,10,34.8,527.4003295898438,0.025100000202655792,0,0.0,0.0,,,,,0,,1
Raw,17367212,17371911000000,,,-1163849822485671168,0.0,231.79478012025356,11.9369077757767,8.929756722289891,782,13,0.0,15,231994317310869,749,18.2,-619.957763671875,1.9119999408721924,0,0.0,0.0,,,,,0,,1
Raw,17367213,17371911000000,,,-1163849822485671168,0.0,231.79478012025356,11.9369077757767,8.929756722289891,782,16,0.0,15,231994314327839,1655,13.5,383.58447265625,26.997501373291016,0,0.0,0.0,,,,,0,,1
Raw,17367218,17371911000000,,,-1163849822485671168,0.0,231.79478012025356,11.9369077757767,8.929756722289891,782,30,0.0,15,231994326930265,6,39.2,-340.0747985839844,0.028600001707673073,0,0.0,0.0,,,,,0,,1
Fix,gps,51.513456,-0.080136,151.000000,0.000000,14.000000,1479831979000
Raw,17368172,17372911000000,,,-1163849822485671168,0.0,232.74360864888877,11.628767470606482,9.215238739848408,782,2,0.0,15,231995322553284,121,15.6,405.9249572753906,4.259500503540039,0,0.0,0.0,,,,,0,,1
Raw,17368174,17372911000000,,,-1163849822485671168,0.0,232.74360864888877,11.628767470606482,9.215238739848408,782,5,0.0,15,231995326285225,27,24.9,-350.52093505859375,0.6255000233650208,0,0.0,0.0,,,,,0,,1
Raw,17368176,17372911000000,,,-1163849822485671168,0.0,232.74360864888877,11.628767470606482,9.215238739848408,782,6,0.0,15,231995316677625,822,17.7,706.2368774414062,6.4105000495910645,0,0.0,0.0,,,,,0,,1
Raw,17368178,17372911000000,,,-1163849822485671168,0.0,232.74360864888877,11.628767470606482,9.215238739848408,782,7,0.0,15,231995327243044,17,28.2,94.6575698852539,0.043800000101327896,0,0.0,0.0,,,,,0,,1
Raw,17368179,17372911000000,,,-1163849822485671168,0.0,232.74360864888877,11.628767470606482,9.215238739848408,782,9,0.0,15,231995322416883,10,34.7,525.6510620117188,0.025100000202655792,0,0.0,0.0,,,,,0,,1
Raw,17368181,17372911000000,,,-1163849822485671168,0.0,232.74360864888877,11.628767470606482,9.215238739848408,782,30,0.0,15,231995326931408,7,37.5,-341.8157958984375,0.029600001871585846,0,0.0,0.0,,,,,0,,1
Fix,gps,51.513456,-0.080136,151.000000,0.000000,14.000000,1479831980000
Raw,17369173,17373911000000,,,-1163849822485671168,0.0,244.8261366225779,5.706474346362431,13.425142374927892,782,2,0.0,15,231996322551815,84,16.3,406.1913757324219,2.009500026702881,0,0.0,0.0,,,,,0,,1
Raw,17369176,17373911000000,,,-1163849822485671168,0.0,244.8261366225779,5.706474346362431,13.425142374927892,782,5,0.0,15,231996326286418,27,24.8,-350.54949951171875,0.6255000233650208,0,0.0,0.0,,,,,0,,1
Raw,17369177,17373911000000,,,-1163849822485671168,0.0,244.8261366225779,5.706474346362431,13.425142374927892,782,6,0.0,15,231996316675279,958,17.4,706.2559814453125,7.250500202178955,0,0.0,0.0,,,,,0,,1
Raw,17369180,17373911000000,,,-1163849822485671168,0.0,244.8261366225779,5.706474346362431,13.425142374927892,782,7,0.0,15,231996327242716,16,29.7,95.44994354248047,0.03720000013709068,0,0.0,0.0,,,,,0,,1
Raw,17369182,17373911000000,,,-1163849822485671168,0.0,244.8261366225779,5.706474346362431,13.425142374927892,782,9,0.0,15,231996322415141,9,35.5,526.498291015625,0.02460000105202198,0,0.0,0.0,,,,,0,,1
Raw,17369185,17373911000000,,,-1163849822485671168,0.0,244.8261366225779,5.706474346362431,13.425142374927892,782,30,0.0,15,231996326932538,5,40.9,-340.9596862792969,0.028400002047419548,0,0.0,0.0,,,,,0,,1
Raw,17370216,17374911000000,,,-1163849822485671168,0.0,246.0766991134733,7.476288530117502,9.63022792971142,782,2,0.0,15,231997322550480,40,21.3,406.3340759277344,0.8495000004768372,0,0.0,0.0,,,,,0,,1
Raw,17370218,17374911000000,,,-1163849822485671168,0.0,246.0766991134733,7.476288530117502,9.63022792971142,782,5,0.0,15,231997326287522,27,24.4,-349.67413330078125,0.6754999756813049,0,0.0,0.0,,,,,0,,1
Raw,17370220,17374911000000,,,-1163849822485671168,0.0,246.0766991134733,7.476288530117502,9.63022792971142,782,6,0.0,15,231997316672886,981,17.2,706.341552734375,8.000499725341797,0,0.0,0.0,,,,,0,,1
Raw,17370221,17374911000000,,,-1163849822485671168,0.0,246.0766991134733,7.476288530117502,9.63022792971142,782,7,0.0,15,231997327242366,19,27.6,95.8936538696289,0.05180000141263008,0,0.0,0.0,,,,,0,,1
Raw,17370222,17374911000000,,,-1163849822485671168,0.0,246.0766991134733,7.476288530117502,9.63022792971142,782,9,0.0,15,231997322413424,11,33.6,526.7689819335938,0.02590000070631504,0,0.0,0.0,,,,,0,,1
Raw,17370223,17374911000000,,,-1163849822485671168,0.0,246.0766991134733,7.476288530117502,9.63022792971142,782,30,0.0,15,231997326933683,5,41.4,-340.5743713378906,0.02810000069439411,0,0.0,0.0,,,,,0,,1
Fix,gps,51.513456,-0.080137,151.000000,0.000000,14.000000,1479831981000
Raw,17371168,17375911000000,,,-1163849822485671168,0.0,235.3362797293812,8.08749287602968,9.65207582825021,782,2,0.0,15,231998322549053,40,21.4,405.4492492675781,0.8495000004768372,0,0.0,0.0,,,,,0,,1
Raw,17371170,17375911000000,,,-1163849822485671168,0.0,235.3362797293812,8.08749287602968,9.65207582825021,782,5,0.0,15,231998326288651,27,24.1,-350.4638671875,0.6754999756813049,0,0.0,0.0,,,,,0,,1
Raw,17371171,17375911000000,,,-1163849822485671168,0.0,235.3362797293812,8.08749287602968,9.65207582825021,782,6,0.0,15,231998316670531,1007,17.2,706.4557495117188,8.750500679016113,0,0.0,0.0,,,,,0,,1
Raw,17371173,17375911000000,,,-1163849822485671168,0.0,235.3362797293812,8.08749287602968,9.65207582825021,782,7,0.0,15,231998327242074,14,30.9,95.01315307617188,0.03629999980330467,0,0.0,0.0,,,,,0,,1
Raw,17371174,17375911000000,,,-1163849822485671168,0.0,235.3362797293812,8.08749287602968,9.65207582825021,782,9,0.0,15,231998322411615,12,32.4,525.9107666015625,0.026900000870227814,0,0.0,0.0,,,,,0,,1
Raw,17371176,17375911000000,,,-1163849822485671168,0.0,235.3362797293812,8.08749287602968,9.65207582825021,782,30,0.0,15,231998326934811,5,40.8,-341.44879150390625,0.028400002047419548,0,0.0,0.0,,,,,0,,1
Fix,gps,51.513457,-0.080138,151.000000,0.000000,14.000000,1479831982000
Raw,17372188,17376911000000,,,-1163849822485671168,0.0,235.5577307753265,5.363097624456697,10.636685827377313,782,2,0.0,15,231999322547643,35,22.6,405.6204833984375,0.7294999957084656,0,0.0,0.0,,,,,0,,1
Raw,17372190,17376911000000,,,-1163849822485671168,0.0,235.5577307753265,5.363097624456697,10.636685827377313,782,5,0.0,15,231999326289945,27,24.5,-350.0451965332031,0.6255000233650208,0,0.0,0.0,,,,,0,,1
Raw,17372191,17376911000000,,,-1163849822485671168,0.0,235.5577307753265,5.363097624456697,10.636685827377313,782,6,0.0,15,231999316668167,1036,17.1,706.341552734375,9.500499725341797,0,0.0,0.0,,,,,0,,1
Raw,17372192,17376911000000,,,-1163849822485671168,0.0,235.5577307753265,5.363097624456697,10.636685827377313,782,7,0.0,15,231999327241751,17,28.3,96.11170959472656,0.043800000101327896,0,0.0,0.0,,,,,0,,1
Raw,17372193,17376911000000,,,-1163849822485671168,0.0,235.5577307753265,5.363097624456697,10.636685827377313,782,9,0.0,15,231999322409928,12,32.4,527.121826171875,0.026900000870227814,0,0.0,0.0,,,,,0,,1
Raw,17372195,17376911000000,,,-1163849822485671168,0.0,235.5577307753265,5.363097624456697,10.636685827377313,782,30,0.0,15,231999326935945,5,41.1,-340.35345458984375,0.02810000069439411,0,0.0,0.0,,,,,0,,1
Fix,gps,51.513457,-0.080138,151.000000,0.000000,14.000000,1479831983000
Fix,gps,51.513457,-0.080138,151.000000,0.000000,14.000000,1479831984000
Raw,17373201,17377911000000,,,-1163849822485671168,0.0,235.10130995418876,8.605290934402571,9.656686059315634,782,2,0.0,15,232000322546339,31,23.9,405.5729064941406,0.6694999933242798,0,0.0,0.0,,,,,0,,1
Raw,17373202,17377911000000,,,-1163849822485671168,0.0,235.10130995418876,8.605290934402571,9.656686059315634,782,5,0.0,15,232000326291142,27,24.3,-349.7787780761719,0.6754999756813049,0,0.0,0.0,,,,,0,,1
Raw,17373203,17377911000000,,,-1163849822485671168,0.0,235.10130995418876,8.605290934402571,9.656686059315634,782,6,0.0,15,232000316666185,61,18.9,707.0171508789062,1.1195000410079956,0,0.0,0.0,,,,,0,,1
Raw,17373205,17377911000000,,,-1163849822485671168,0.0,235.10130995418876,8.605290934402571,9.656686059315634,782,7,0.0,15,232000327241426,21,26.4,96.36109161376953,0.12170000374317169,0,0.0,0.0,,,,,0,,1
Raw,17373206,17377911000000,,,-1163849822485671168,0.0,235.10130995418876,8.605290934402571,9.656686059315634,782,9,0.0,15,232000322408184,13,31.9,527.2769165039062,0.028200000524520874,0,0.0,0.0,,,,,0,,1
Raw,17373207,17377911000000,,,-1163849822485671168,0.0,235.10130995418876,8.605290934402571,9.656686059315634,782,30,0.0,15,232000326937064,5,41.5,-340.013427734375,0.02810000069439411,0,0.0,0.0,,,,,0,,1
Raw,17374156,17378911000000,,,-1163849822485671168,0.0,255.13971922919154,9.682476950026645,13.639290272100789,782,2,0.0,15,232001322545042,35,22.9,405.17327880859375,0.7294999957084656,0,0.0,0.0,,,,,0,,1
Raw,17374159,17378911000000,,,-1163849822485671168,0.0,255.13971922919154,9.682476950026645,13.639290272100789,782,5,0.0,15,232001326292309,31,23.9,-349.7787780761719,0.6754999756813049,0,0.0,0.0,,,,,0,,1
Raw,17374161,17378911000000,,,-1163849822485671168,0.0,255.13971922919154,9.682476950026645,13.639290272100789,782,6,0.0,15,232001316663826,68,18.9,707.0171508789062,2.3405001163482666,0,0.0,0.0,,,,,0,,1
Raw,17374162,17378911000000,,,-1163849822485671168,0.0,255.13971922919154,9.682476950026645,13.639290272100789,782,7,0.0,15,232001327241132,16,29.4,95.19878387451172,0.03720000013709068,0,0.0,0.0,,,,,0,,1
Raw,17374163,17378911000000,,,-1163849822485671168,0.0,255.13971922919154,9.682476950026645,13.639290272100789,782,9,0.0,15,232001322406417,12,32.1,525.7857055664062,0.026900000870227814,0,0.0,0.0,,,,,0,,1
Raw,17374165,17378911000000,,,-1163849822485671168,0.0,255.13971922919154,9.682476950026645,13.639290272100789,782,30,0.0,15,232001326938212,5,40.0,-341.3174133300781,0.028400002047419548,0,0.0,0.0,,,,,0,,1
Fix,gps,51.513457,-0.080138,151.000000,0.000000,14.000000,1479831985000
Fix,gps,51.513458,-0.080138,151.000000,0.000000,14.000000,1479831986000
Raw,17375184,17379911000000,,,-1163849822485671168,0.0,252.9867342673242,5.444327796293519,9.707873382464681,782,2,0.0,15,232002322543774,53,19.9,404.9639892578125,0.9194999933242798,0,0.0,0.0,,,,,0,,1
Raw,17375186,17379911000000,,,-1163849822485671168,0.0,252.9867342673242,5.444327796293519,9.707873382464681,782,5,0.0,15,232002326293506,40,21.0,-350.5780334472656,0.8554999828338623,0,0.0,0.0,,,,,0,,1
Raw,17375188,17379911000000,,,-1163849822485671168,0.0,252.9867342673242,5.444327796293519,9.707873382464681,782,6,0.0,15,232002316661590,73,17.0,706.6365356445312,1.940500020980835,0,0.0,0.0,,,,,0,,1
Raw,17375189,17379911000000,,,-1163849822485671168,0.0,252.9867342673242,5.444327796293519,9.707873382464681,782,7,0.0,15,232002327240840,17,28.1,96.7551040649414,0.043800000101327896,0,0.0,0.0,,,,,0,,1
Raw,17375191,17379911000000,,,-1163849822485671168,0.0,252.9867342673242,5.444327796293519,9.707873382464681,782,9,0.0,15,232002322404696,12,32.7,526.4097900390625,0.026900000870227814,0,0.0,0.0,,,,,0,,1
Raw,17375192,17379911000000,,,-1163849822485671168,0.0,252.9867342673242,5.444327796293519,9.707873382464681,782,30,0.0,15,232002326939356,5,40.8,-340.6572265625,0.028400002047419548,0,0.0,0.0,,,,,0,,1
Raw,17376157,17380911000000,,,-1163849822485671168,0.0,243.6386130284518,5.734284052246737,9.669605363034425,782,2,0.0,15,232003322542423,61,19.9,404.9639892578125,2.4194998741149902,0,0.0,0.0,,,,,0,,1
Raw,17376159,17380911000000,,,-1163849822485671168,0.0,243.6386130284518,5.734284052246737,9.669605363034425,782,6,0.0,15,232003316659233,87,17.0,706.6365356445312,3.440500259399414,0,0.0,0.0,,,,,0,,1
Raw,17376160,17380911000000,,,-1163849822485671168,0.0,243.6386130284518,5.734284052246737,9.669605363034425,782,7,0.0,15,232003327240541,24,25.7,95.39104461669922,0.392300009727478,0,0.0,0.0,,,,,0,,1
Raw,17376161,17380911000000,,,-1163849822485671168,0.0,243.6386130284518,5.734284052246737,9.669605363034425,782,9,0.0,15,232003322402884,10,34.3,525.8572998046875,0.025100000202655792,0,0.0,0.0,,,,,0,,1
Raw,17376163,17380911000000,,,-1163849822485671168,0.0,243.6386130284518,5.734284052246737,9.669605363034425,782,30,0.0,15,232003326940507,5,41.6,-341.0518798828125,0.02810000069439411,0,0.0,0.0,,,,,0,,1
Fix,gps,51.513458,-0.080138,151.000000,0.000000,13.000000,1479831987000
Fix,gps,51.513458,-0.080139,151.000000,0.000000,12.000000,1479831988000
Raw,17377198,17381911000000,,,-1163849822485671168,0.0,222.860457142815,3.949812880646956,10.733228694409792,782,2,0.0,15,232004322541072,79,19.9,404.9639892578125,3.9195003509521484,0,0.0,0.0,,,,,0,,1
Raw,17377199,17381911000000,,,-1163849822485671168,0.0,222.860457142815,3.949812880646956,10.733228694409792,782,6,0.0,15,232004316656912,84,16.6,705.7896728515625,1.940500020980835,0,0.0,0.0,,,,,0,,1
Raw,17377200,17381911000000,,,-1163849822485671168,0.0,222.860457142815,3.949812880646956,10.733228694409792,782,7,0.0,15,232004327240254,17,28.5,96.23973083496094,0.043800000101327896,0,0.0,0.0,,,,,0,,1
Raw,17377201,17381911000000,,,-1163849822485671168,0.0,222.860457142815,3.949812880646956,10.733228694409792,782,9,0.0,15,232004322401126,11,33.6,526.8350219726562,0.02590000070631504,0,0.0,0.0,,,,,0,,1
Raw,17377202,17381911000000,,,-1163849822485671168,0.0,222.860457142815,3.949812880646956,10.733228694409792,782,30,0.0,15,232004326941655,5,40.3,-340.27496337890625,0.028400002047419548,0,0.0,0.0,,,,,0,,1
Raw,17378161,17382911000000,,,-1163849822485671168,0.0,201.05205476284027,6.795548984411389,9.720385503450075,782,2,0.0,15,232005322538923,90,16.3,405.4492492675781,2.759500026702881,0,0.0,0.0,,,,,0,,1
Raw,17378163,17382911000000,,,-1163849822485671168,0.0,201.05205476284027,6.795548984411389,9.720385503450075,782,5,0.0,15,232005326296938,367,22.8,-350.3401794433594,1.0054999589920044,0,0.0,0.0,,,,,0,,1
Raw,17378164,17382911000000,,,-1163849822485671168,0.0,201.05205476284027,6.795548984411389,9.720385503450075,782,6,0.0,15,232005316654558,98,16.6,705.7896728515625,3.440500259399414,0,0.0,0.0,,,,,0,,1
Raw,17378165,17382911000000,,,-1163849822485671168,0.0,201.05205476284027,6.795548984411389,9.720385503450075,782,7,0.0,15,232005327239916,17,28.6,96.46361541748047,0.043800000101327896,0,0.0,0.0,,,,,0,,1
Raw,17378166,17382911000000,,,-1163849822485671168,0.0,201.05205476284027,6.795548984411389,9.720385503450075,782,9,0.0,15,232005322399389,11,33.4,526.7726440429688,0.02590000070631504,0,0.0,0.0,,,,,0,,1
Raw,17378168,17382911000000,,,-1163849822485671168,0.0,201.05205476284027,6.795548984411389,9.720385503450075,782,30,0.0,15,232005326942789,6,39.3,-340.07940673828125,0.028600001707673073,0,0.0,0.0,,,,,0,,1
Fix,gps,51.513458,-0.080139,151.000000,0.000000,12.000000,1479831989000
Raw,17379178,17383911000000,,,-1163849822485671168,0.0,198.49371165037155,7.186079375513464,15.529472284464672,782,2,0.0,15,232006322537571,109,16.3,405.4492492675781,4.259500503540039,0,0.0,0.0,,,,,0,,1
Raw,17379180,17383911000000,,,-1163849822485671168,0.0,198.49371165037155,7.186079375513464,15.529472284464672,782,5,0.0,15,232006326298142,426,22.0,-349.9595947265625,1.815500020980835,0,0.0,0.0,,,,,0,,1
Raw,17379181,17383911000000,,,-1163849822485671168,0.0,198.49371165037155,7.186079375513464,15.529472284464672,782,6,0.0,15,232006316652307,84,16.9,705.5994262695312,1.940500020980835,0,0.0,0.0,,,,,0,,1
Raw,17379182,17383911000000,,,-1163849822485671168,0.0,198.49371165037155,7.186079375513464,15.529472284464672,782,7,0.0,15,232006327239598,14,30.3,96.39939880371094,0.03629999980330467,0,0.0,0.0,,,,,0,,1
Raw,17379183,17383911000000,,,-1163849822485671168,0.0,198.49371165037155,7.186079375513464,15.529472284464672,782,9,0.0,15,232006322397639,11,33.5,526.7304077148438,0.02590000070631504,0,0.0,0.0,,,,,0,,1
Raw,17379185,17383911000000,,,-1163849822485671168,0.0,198.49371165037155,7.186079375513464,15.529472284464672,782,30,0.0,15,232006326943912,6,39.5,-340.0899658203125,0.028600001707673073,0,0.0,0.0,,,,,0,,1
Fix,gps,51.513458,-0.080139,151.000000,0.000000,12.000000,1479831990000
Raw,17380180,17384911000000,,,-1163849822485671168,0.0,180.37190602626652,7.125442549946031,9.657906812237046,782,2,0.0,15,232007322536316,64,18.2,405.6585388183594,1.8294999599456787,0,0.0,0.0,,,,,0,,1
Raw,17380182,17384911000000,,,-1163849822485671168,0.0,180.37190602626652,7.125442549946031,9.657906812237046,782,5,0.0,15,232007326299171,31,23.8,-349.9405517578125,0.7294999957084656,0,0.0,0.0,,,,,0,,1
Raw,17380183,17384911000000,,,-1163849822485671168,0.0,180.37190602626652,7.125442549946031,9.657906812237046,782,6,0.0,15,232007316649953,98,16.9,705.5994262695312,3.440500259399414,0,0.0,0.0,,,,,0,,1
Raw,17380184,17384911000000,,,-1163849822485671168,0.0,180.37190602626652,7.125442549946031,9.657906812237046,782,7,0.0,15,232007327239256,27,24.8,95.70820617675781,0.6270000338554382,0,0.0,0.0,,,,,0,,1
Raw,17380185,17384911000000,,,-1163849822485671168,0.0,180.37190602626652,7.125442549946031,9.657906812237046,782,9,0.0,15,232007322395887,11,33.8,525.1019287109375,0.02590000070631504,0,0.0,0.0,,,,,0,,1
Raw,17380188,17384911000000,,,-1163849822485671168,0.0,180.37190602626652,7.125442549946031,9.657906812237046,782,30,0.0,15,232007326945051,6,39.8,-341.6899719238281,0.028600001707673073,0,0.0,0.0,,,,,0,,1
Fix,gps,51.513458,-0.080139,151.000000,0.000000,12.000000,1479831991000
Raw,17381173,17385911000000,,,-1163849822485671168,0.0,174.60335220675915,2.3381724879620025,9.750011228419753,782,2,0.0,15,232008322535015,46,20.3,406.2674560546875,0.9194999933242798,0,0.0,0.0,,,,,0,,1
Raw,17381174,17385911000000,,,-1163849822485671168,0.0,174.60335220675915,2.3381724879620025,9.750011228419753,782,5,0.0,15,232008326300321,24,25.2,-349.733642578125,0.39079999923706055,0,0.0,0.0,,,,,0,,1
Raw,17381175,17385911000000,,,-1163849822485671168,0.0,174.60335220675915,2.3381724879620025,9.750011228419753,782,6,0.0,15,232008316647599,122,16.9,705.5994262695312,4.940500259399414,0,0.0,0.0,,,,,0,,1
Raw,17381176,17385911000000,,,-1163849822485671168,0.0,174.60335220675915,2.3381724879620025,9.750011228419753,782,7,0.0,15,232008327239022,24,25.8,96.20530700683594,0.392300009727478,0,0.0,0.0,,,,,0,,1
Raw,17381176,17385911000000,,,-1163849822485671168,0.0,174.60335220675915,2.3381724879620025,9.750011228419753,782,9,0.0,15,232008322394164,11,33.3,526.3773803710938,0.02590000070631504,0,0.0,0.0,,,,,0,,1
Raw,17381177,17385911000000,,,-1163849822485671168,0.0,174.60335220675915,2.3381724879620025,9.750011228419753,782,30,0.0,15,232008326946190,6,39.4,-340.345947265625,0.028600001707673073,0,0.0,0.0,,,,,0,,1
Fix,gps,51.513458,-0.080138,151.000000,0.000000,12.000000,1479831992000
Raw,17382159,17386911000000,,,-1163849822485671168,0.0,185.81023323349655,6.25374026686793,11.804469205903263,782,2,0.0,15,232009322533660,54,20.3,406.2674560546875,2.4194998741149902,0,0.0,0.0,,,,,0,,1
Raw,17382160,17386911000000,,,-1163849822485671168,0.0,185.81023323349655,6.25374026686793,11.804469205903263,782,5,0.0,15,232009326301473,24,25.2,-349.7532043457031,0.39079999923706055,0,0.0,0.0,,,,,0,,1
Raw,17382163,17386911000000,,,-1163849822485671168,0.0,185.81023323349655,6.25374026686793,11.804469205903263,782,6,0.0,15,232009316644115,102,15.5,704.7811889648438,2.7804999351501465,0,0.0,0.0,,,,,0,,1
Raw,17382165,17386911000000,,,-1163849822485671168,0.0,185.81023323349655,6.25374026686793,11.804469205903263,782,7,0.0,15,232009327238739,27,24.7,96.53598022460938,0.6270000338554382,0,0.0,0.0,,,,,0,,1
Raw,17382166,17386911000000,,,-1163849822485671168,0.0,185.81023323349655,6.25374026686793,11.804469205903263,782,9,0.0,15,232009322392390,12,32.8,526.4702758789062,0.026900000870227814,0,0.0,0.0,,,,,0,,1
Raw,17382169,17386911000000,,,-1163849822485671168,0.0,185.81023323349655,6.25374026686793,11.804469205903263,782,30,0.0,15,232009326947304,6,39.2,-340.12518310546875,0.028600001707673073,0,0.0,0.0,,,,,0,,1
Fix,gps,51.513459,-0.080138,151.000000,0.000000,12.000000,1479831993000
Raw,17383169,17387911000000,,,-1163849822485671168,0.0,175.59787374921143,6.582217043262836,9.897388314824662,782,2,0.0,15,232010322532373,64,18.0,405.3635559082031,1.8294999599456787,0,0.0,0.0,,,,,0,,1
Raw,17383170,17387911000000,,,-1163849822485671168,0.0,175.59787374921143,6.582217043262836,9.897388314824662,782,5,0.0,15,232010326302692,31,23.2,-350.2450256347656,0.7354999780654907,0,0.0,0.0,,,,,0,,1
Raw,17383171,17387911000000,,,-1163849822485671168,0.0,175.59787374921143,6.582217043262836,9.897388314824662,782,6,0.0,15,232010316641764,121,15.5,704.7811889648438,4.280500411987305,0,0.0,0.0,,,,,0,,1
Raw,17383172,17387911000000,,,-1163849822485671168,0.0,175.59787374921143,6.582217043262836,9.897388314824662,782,7,0.0,15,232010327238387,31,23.2,95.91752624511719,0.7369999885559082,0,0.0,0.0,,,,,0,,1
Raw,17383173,17387911000000,,,-1163849822485671168,0.0,175.59787374921143,6.582217043262836,9.897388314824662,782,9,0.0,15,232010322390641,13,31.9,525.9132690429688,0.028200000524520874,0,0.0,0.0,,,,,0,,1
Raw,17383174,17387911000000,,,-1163849822485671168,0.0,175.59787374921143,6.582217043262836,9.897388314824662,782,30,0.0,15,232010326948421,5,40.3,-340.65576171875,0.028400002047419548,0,0.0,0.0,,,,,0,,1
Fix,gps,51.513459,-0.080138,151.000000,0.000000,12.000000,1479831994000
Fix,gps,51.513459,-0.080138,151.000000,0.000000,12.000000,1479831995000
Raw,17384200,17388911000000,,,-1163849822485671168,0.0,180.93686958309263,4.594100028368797,15.781117575933722,782,2,0.0,15,232011322531021,77,18.0,405.3635559082031,3.3294999599456787,0,0.0,0.0,,,,,0,,1
Raw,17384202,17388911000000,,,-1163849822485671168,0.0,180.93686958309263,4.594100028368797,15.781117575933722,782,5,0.0,15,232011326303866,35,22.3,-350.2355041503906,0.7954999804496765,0,0.0,0.0,,,,,0,,1
Raw,17384203,17388911000000,,,-1163849822485671168,0.0,180.93686958309263,4.594100028368797,15.781117575933722,782,6,0.0,15,232011316639414,151,15.5,704.7811889648438,5.780500411987305,0,0.0,0.0,,,,,0,,1
Raw,17384205,17388911000000,,,-1163849822485671168,0.0,180.93686958309263,4.594100028368797,15.781117575933722,782,7,0.0,15,232011327238070,46,20.5,96.53598022460938,0.8569999933242798,0,0.0,0.0,,,,,0,,1
Raw,17384207,17388911000000,,,-1163849822485671168,0.0,180.93686958309263,4.594100028368797,15.781117575933722,782,9,0.0,15,232011322388856,14,30.9,525.5611572265625,0.02879999950528145,0,0.0,0.0,,,,,0,,1
Raw,17384209,17388911000000,,,-1163849822485671168,0.0,180.93686958309263,4.594100028368797,15.781117575933722,782,30,0.0,15,232011326949553,5,40.2,-340.9122009277344,0.028400002047419548,0,0.0,0.0,,,,,0,,1
Fix,gps,51.513459,-0.080138,151.000000,0.000000,12.000000,1479831996000
Raw,17385212,17389911000000,,,-1163849822485671168,0.0,175.98795238882303,3.3721581651860504,9.93115823749693,782,2,0.0,15,232012322529669,101,18.0,405.3635559082031,4.829500198364258,0,0.0,0.0,,,,,0,,1
Raw,17385213,17389911000000,,,-1163849822485671168,0.0,175.98795238882303,3.3721581651860504,9.93115823749693,782,5,0.0,15,232012326305064,31,23.3,-349.9500732421875,0.7354999780654907,0,0.0,0.0,,,,,0,,1
Raw,17385214,17389911000000,,,-1163849822485671168,0.0,175.98795238882303,3.3721581651860504,9.93115823749693,782,6,0.0,15,232012316637063,190,15.5,704.7811889648438,7.280500411987305,0,0.0,0.0,,,,,0,,1
Raw,17385216,17389911000000,,,-1163849822485671168,0.0,175.98795238882303,3.3721581651860504,9.93115823749693,782,7,0.0,15,232012327237829,40,21.0,95.86995697021484,0.8569999933242798,0,0.0,0.0,,,,,0,,1
Raw,17385218,17389911000000,,,-1163849822485671168,0.0,175.98795238882303,3.3721581651860504,9.93115823749693,782,9,0.0,15,232012322387025,13,31.2,526.0269165039062,0.028200000524520874,0,0.0,0.0,,,,,0,,1
Raw,17385219,17389911000000,,,-1163849822485671168,0.0,175.98795238882303,3.3721581651860504,9.93115823749693,782,30,0.0,15,232012326950691,6,38.6,-340.4962463378906,0.029100000858306885,0,0.0,0.0,,,,,0,,1
Raw,17386159,17390911000000,,,-1163849822485671168,0.0,184.82113955542445,4.286615032910139,9.929258316500674,782,2,0.0,15,232013322528534,102,15.7,404.3930969238281,2.759500026702881,0,0.0,0.0,,,,,0,,1
Raw,17386160,17390911000000,,,-1163849822485671168,0.0,184.82113955542445,4.286615032910139,9.929258316500674,782,5,0.0,15,232013326306318,53,19.7,-351.21551513671875,0.9254999756813049,0,0.0,0.0,,,,,0,,1
Raw,17386162,17390911000000,,,-1163849822485671168,0.0,184.82113955542445,4.286615032910139,9.929258316500674,782,6,0.0,15,232013316634712,240,15.5,704.7811889648438,8.780500411987305,0,0.0,0.0,,,,,0,,1
Raw,17386164,17390911000000,,,-1163849822485671168,0.0,184.82113955542445,4.286615032910139,9.929258316500674,782,7,0.0,15,232013327237453,35,22.3,95.48936462402344,0.796999990940094,0,0.0,0.0,,,,,0,,1
Raw,17386166,17390911000000,,,-1163849822485671168,0.0,184.82113955542445,4.286615032910139,9.929258316500674,782,9,0.0,15,232013322385320,14,30.9,525.5388793945312,0.02879999950528145,0,0.0,0.0,,,,,0,,1
Raw,17386168,17390911000000,,,-1163849822485671168,0.0,184.82113955542445,4.286615032910139,9.929258316500674,782,30,0.0,15,232013326951832,8,36.7,-340.8059387207031,0.03020000085234642,0,0.0,0.0,,,,,0,,1
Fix,gps,51.513460,-0.080138,151.000000,0.000000,11.000000,1479831997000
Fix,gps,51.513460,-0.080138,151.000000,0.000000,11.000000,1479831998000
Raw,17387187,17391911000000,,,-1163849822485671168,0.0,179.17866352945566,3.0524861189417547,12.859054989266298,782,2,0.0,15,232014322527378,46,20.4,405.6300048828125,0.9194999933242798,0,0.0,0.0,,,,,0,,1
Raw,17387190,17391911000000,,,-1163849822485671168,0.0,179.17866352945566,3.0524861189417547,12.859054989266298,782,5,0.0,15,232014326307494,35,22.4,-350.1403503417969,0.7954999804496765,0,0.0,0.0,,,,,0,,1
Raw,17387192,17391911000000,,,-1163849822485671168,0.0,179.17866352945566,3.0524861189417547,12.859054989266298,782,6,0.0,15,232014316632361,299,15.5,704.7811889648438,10.280500411987305,0,0.0,0.0,,,,,0,,1
Raw,17387194,17391911000000,,,-1163849822485671168,0.0,179.17866352945566,3.0524861189417547,12.859054989266298,782,7,0.0,15,232014327237110,31,23.5,96.19345092773438,0.6769999861717224,0,0.0,0.0,,,,,0,,1
Raw,17387195,17391911000000,,,-1163849822485671168,0.0,179.17866352945566,3.0524861189417547,12.859054989266298,782,9,0.0,15,232014322383621,14,30.9,525.99951171875,0.02879999950528145,0,0.0,0.0,,,,,0,,1
Raw,17387196,17391911000000,,,-1163849822485671168,0.0,179.17866352945566,3.0524861189417547,12.859054989266298,782,30,0.0,15,232014326952985,8,36.2,-340.2406005859375,0.03020000085234642,0,0.0,0.0,,,,,0,,1
Fix,gps,51.513460,-0.080138,151.000000,0.000000,11.000000,1479831999000
Raw,17388170,17392911000000,,,-1163849822485671168,0.0,169.1388024482876,4.357168189537566,9.929655955888757,782,2,0.0,15,232015322526014,46,20.5,405.6204833984375,0.8495000004768372,0,0.0,0.0,,,,,0,,1
Raw,17388172,17392911000000,,,-1163849822485671168,0.0,169.1388024482876,4.357168189537566,9.929655955888757,782,5,0.0,15,232015326308551,35,22.5,-349.065185546875,0.7354999780654907,0,0.0,0.0,,,,,0,,1
Raw,17388173,17392911000000,,,-1163849822485671168,0.0,169.1388024482876,4.357168189537566,9.929655955888757,782,6,0.0,15,232015316630210,166,13.7,704.98095703125,5.250500202178955,0,0.0,0.0,,,,,0,,1
Raw,17388175,17392911000000,,,-1163849822485671168,0.0,169.1388024482876,4.357168189537566,9.929655955888757,782,7,0.0,15,232015327236744,24,25.8,96.24430847167969,0.392300009727478,0,0.0,0.0,,,,,0,,1
Raw,17388176,17392911000000,,,-1163849822485671168,0.0,169.1388024482876,4.357168189537566,9.929655955888757,782,9,0.0,15,232015322381882,12,32.4,525.8475952148438,0.026900000870227814,0,0.0,0.0,,,,,0,,1
Raw,17388177,17392911000000,,,-1163849822485671168,0.0,169.1388024482876,4.357168189537566,9.929655955888757,782,30,0.0,15,232015326954151,9,35.1,-340.38671875,0.03060000203549862,0,0.0,0.0,,,,,0,,1
Fix,gps,51.513460,-0.080138,151.000000,0.000000,11.000000,1479832000000
Raw,17389209,17393911000000,,,-1163849822485671168,0.0,174.82168914284557,3.6772394305437515,9.93470199972352,782,2,0.0,15,232016322524710,40,21.8,405.3540954589844,0.7894999980926514,0,0.0,0.0,,,,,0,,1
Raw,17389210,17393911000000,,,-1163849822485671168,0.0,174.82168914284557,3.6772394305437515,9.93470199972352,782,5,0.0,15,232016326309881,40,21.9,-350.1403503417969,0.7954999804496765,0,0.0,0.0,,,,,0,,1
Raw,17389211,17393911000000,,,-1163849822485671168,0.0,174.82168914284557,3.6772394305437515,9.93470199972352,782,6,0.0,15,232016316627858,201,13.7,704.98095703125,6.750500202178955,0,0.0,0.0,,,,,0,,1
Raw,17389213,17393911000000,,,-1163849822485671168,0.0,174.82168914284557,3.6772394305437515,9.93470199972352,782,7,0.0,15,232016327236414,21,26.9,96.00981903076172,0.12170000374317169,0,0.0,0.0,,,,,0,,1
Raw,17389214,17393911000000,,,-1163849822485671168,0.0,174.82168914284557,3.6772394305437515,9.93470199972352,782,9,0.0,15,232016322380153,13,31.0,525.6854858398438,0.028200000524520874,0,0.0,0.0,,,,,0,,1
Raw,17389216,17393911000000,,,-1163849822485671168,0.0,174.82168914284557,3.6772394305437515,9.93470199972352,782,30,0.0,15,232016326955313,9,35.6,-340.42388916015625,0.03060000203549862,0,0.0,0.0,,,,,0,,1
Raw,17390181,17394911000000,,,-1163849822485671168,0.0,176.7545472830534,3.2777750764899394,9.935706436817815,782,2,0.0,15,232017322523407,40,21.6,404.3645324707031,0.7894999980926514,0,0.0,0.0,,,,,0,,1
Raw,17390182,17394911000000,,,-1163849822485671168,0.0,176.7545472830534,3.2777750764899394,9.935706436817815,782,5,0.0,15,232017326310971,24,25.3,-351.47943115234375,0.39079999923706055,0,0.0,0.0,,,,,0,,1
Raw,17390183,17394911000000,,,-1163849822485671168,0.0,176.7545472830534,3.2777750764899394,9.935706436817815,782,6,0.0,15,232017316625926,64,18.2,704.0961303710938,1.8504999876022339,0,0.0,0.0,,,,,0,,1
Raw,17390184,17394911000000,,,-1163849822485671168,0.0,176.7545472830534,3.2777750764899394,9.935706436817815,782,7,0.0,15,232017327236148,31,23.9,95.35615539550781,0.6769999861717224,0,0.0,0.0,,,,,0,,1
Raw,17390185,17394911000000,,,-1163849822485671168,0.0,176.7545472830534,3.2777750764899394,9.935706436817815,782,9,0.0,15,232017322378421,13,31.4,524.2210693359375,0.028200000524520874,0,0.0,0.0,,,,,0,,1
Raw,17390186,17394911000000,,,-1163849822485671168,0.0,176.7545472830534,3.2777750764899394,9.935706436817815,782,30,0.0,15,232017326956478,10,34.9,-341.8406677246094,0.03110000118613243,0,0.0,0.0,,,,,0,,1
Fix,gps,51.513460,-0.080138,151.000000,0.000000,12.000000,1479832001000
Raw,17391178,17395911000000,,,-1163849822485671168,0.0,184.59702550899237,-1.4519043758689085,9.93858136959365,782,2,0.0,15,232018322522144,46,20.4,404.4026184082031,0.9194999933242798,0,0.0,0.0,,,,,0,,1
Raw,17391179,17395911000000,,,-1163849822485671168,0.0,184.59702550899237,-1.4519043758689085,9.93858136959365,782,5,0.0,15,232018326312118,24,25.8,-349.7682189941406,0.39079999923706055,0,0.0,0.0,,,,,0,,1
Raw,17391179,17395911000000,,,-1163849822485671168,0.0,184.59702550899237,-1.4519043758689085,9.93858136959365,782,6,0.0,15,232018316623707,61,18.4,704.94287109375,1.1004999876022339,0,0.0,0.0,,,,,0,,1
Raw,17391180,17395911000000,,,-1163849822485671168,0.0,184.59702550899237,-1.4519043758689085,9.93858136959365,782,7,0.0,15,232018327235767,27,24.7,96.36471557617188,0.6270000338554382,0,0.0,0.0,,,,,0,,1
Raw,17391181,17395911000000,,,-1163849822485671168,0.0,184.59702550899237,-1.4519043758689085,9.93858136959365,782,9,0.0,15,232018322376633,13,31.8,525.7918090820312,0.028200000524520874,0,0.0,0.0,,,,,0,,1
Raw,17391182,17395911000000,,,-1163849822485671168,0.0,184.59702550899237,-1.4519043758689085,9.93858136959365,782,30,0.0,15,232018326957608,10,34.5,-340.1748962402344,0.03110000118613243,0,0.0,0.0,,,,,0,,1
Fix,gps,51.513460,-0.080137,151.000000,0.000000,12.000000,1479832002000
Raw,17392177,17396911000000,,,-1163849822485671168,0.0,187.95991491060704,3.205935158802679,13.843575121891696,782,2,0.0,15,232019322520779,53,19.5,407.5995178222656,0.9194999933242798,0,0.0,0.0,,,,,0,,1
Raw,17392179,17396911000000,,,-1163849822485671168,0.0,187.95991491060704,3.205935158802679,13.843575121891696,782,5,0.0,15,232019326313273,21,26.5,-349.45037841796875,0.12020000070333481,0,0.0,0.0,,,,,0,,1
Raw,17392180,17396911000000,,,-1163849822485671168,0.0,187.95991491060704,3.205935158802679,13.843575121891696,782,6,0.0,15,232019316621356,70,18.4,704.94287109375,2.6005001068115234,0,0.0,0.0,,,,,0,,1
Raw,17392182,17396911000000,,,-1163849822485671168,0.0,187.95991491060704,3.205935158802679,13.843575121891696,782,7,0.0,15,232019327235506,27,24.3,96.76432800292969,0.6769999861717224,0,0.0,0.0,,,,,0,,1
Raw,17392183,17396911000000,,,-1163849822485671168,0.0,187.95991491060704,3.205935158802679,13.843575121891696,782,9,0.0,15,232019322374854,13,31.7,526.1210327148438,0.028200000524520874,0,0.0,0.0,,,,,0,,1
Raw,17392185,17396911000000,,,-1163849822485671168,0.0,187.95991491060704,3.205935158802679,13.843575121891696,782,30,0.0,15,232019326958712,10,34.5,-339.8003845214844,0.03110000118613243,0,0.0,0.0,,,,,0,,1
Fix,gps,51.513460,-0.080137,151.000000,0.000000,12.000000,1479832003000
Raw,17393191,17397911000000,,,-1163849822485671168,0.0,187.509082024917,4.169849419517963,9.929795129674584,782,2,0.0,15,232020322519419,61,19.5,407.5995178222656,2.4194998741149902,0,0.0,0.0,,,,,0,,1
Raw,17393192,17397911000000,,,-1163849822485671168,0.0,187.509082024917,4.169849419517963,9.929795129674584,782,5,0.0,15,232020326314430,21,26.8,-349.7638854980469,0.12020000070333481,0,0.0,0.0,,,,,0,,1
Raw,17393193,17397911000000,,,-1163849822485671168,0.0,187.509082024917,4.169849419517963,9.929795129674584,782,6,0.0,15,232020316618743,64,18.0,704.5623168945312,1.8504999876022339,0,0.0,0.0,,,,,0,,1
Raw,17393195,17397911000000,,,-1163849822485671168,0.0,187.509082024917,4.169849419517963,9.929795129674584,782,7,0.0,15,232020327235062,40,21.6,96.2885971069336,0.796999990940094,0,0.0,0.0,,,,,0,,1
Raw,17393196,17397911000000,,,-1163849822485671168,0.0,187.509082024917,4.169849419517963,9.929795129674584,782,9,0.0,15,232020322373139,12,32.0,525.904052734375,0.026900000870227814,0,0.0,0.0,,,,,0,,1
Raw,17393197,17397911000000,,,-1163849822485671168,0.0,187.509082024917,4.169849419517963,9.929795129674584,782,30,0.0,15,232020326959817,10,34.9,-340.0445251464844,0.03110000118613243,0,0.0,0.0,,,,,0,,1
Fix,gps,51.513460,-0.080137,151.000000,0.000000,12.000000,1479832004000
Raw,17394193,17398911000000,,,-1163849822485671168,0.0,199.6348873944953,3.2677440264664837,9.925607191639303,782,2,0.0,15,232021322518060,79,19.5,407.5995178222656,3.9195003509521484,0,0.0,0.0,,,,,0,,1
Raw,17394194,17398911000000,,,-1163849822485671168,0.0,199.6348873944953,3.2677440264664837,9.925607191639303,782,5,0.0,15,232021326315583,21,26.9,-349.9755554199219,0.12020000070333481,0,0.0,0.0,,,,,0,,1
Raw,17394195,17398911000000,,,-1163849822485671168,0.0,199.6348873944953,3.2677440264664837,9.925607191639303,782,6,0.0,15,232021316616392,78,18.0,704.5623168945312,3.3505001068115234,0,0.0,0.0,,,,,0,,1
Raw,17394196,17398911000000,,,-1163849822485671168,0.0,199.6348873944953,3.2677440264664837,9.925607191639303,782,7,0.0,15,232021327234758,24,25.8,96.04121398925781,0.5870000123977661,0,0.0,0.0,,,,,0,,1
Raw,17394197,17398911000000,,,-1163849822485671168,0.0,199.6348873944953,3.2677440264664837,9.925607191639303,782,9,0.0,15,232021322371431,13,31.1,525.3524169921875,0.028200000524520874,0,0.0,0.0,,,,,0,,1
Raw,17394198,17398911000000,,,-1163849822485671168,0.0,199.6348873944953,3.2677440264664837,9.925607191639303,782,30,0.0,15,232021326960957,9,35.4,-340.39520263671875,0.03060000203549862,0,0.0,0.0,,,,,0,,1
Fix,gps,51.513460,-0.080137,151.000000,0.000000,12.000000,1479832005000
Raw,17395173,17399911000000,,,-1163849822485671168,0.0,214.01737467385828,1.5150782401421523,10.908638562395721,782,2,0.0,15,232022322516700,107,19.5,407.5995178222656,5.419500350952148,0,0.0,0.0,,,,,0,,1
Raw,17395175,17399911000000,,,-1163849822485671168,0.0,214.01737467385828,1.5150782401421523,10.908638562395721,782,5,0.0,15,232022326316731,19,27.5,-350.4952697753906,0.050300002098083496,0,0.0,0.0,,,,,0,,1
Raw,17395177,17399911000000,,,-1163849822485671168,0.0,214.01737467385828,1.5150782401421523,10.908638562395721,782,6,0.0,15,232022316614042,102,18.0,704.5623168945312,4.850500106811523,0,0.0,0.0,,,,,0,,1
Raw,17395178,17399911000000,,,-1163849822485671168,0.0,214.01737467385828,1.5150782401421523,10.908638562395721,782,7,0.0,15,232022327234408,17,28.8,95.82538604736328,0.043800000101327896,0,0.0,0.0,,,,,0,,1
Raw,17395179,17399911000000,,,-1163849822485671168,0.0,214.01737467385828,1.5150782401421523,10.908638562395721,782,9,0.0,15,232022322369661,11,33.1,524.8741455078125,0.02590000070631504,0,0.0,0.0,,,,,0,,1
Raw,17395180,17399911000000,,,-1163849822485671168,0.0,214.01737467385828,1.5150782401421523,10.908638562395721,782,30,0.0,15,232022326962077,9,35.1,-340.72344970703125,0.03060000203549862,0,0.0,0.0,,,,,0,,1
Fix,gps,51.513468,-0.080127,149.000000,0.190000,13.000000,1479832006000
Fix,gps,51.513477,-0.080118,149.000000,0.000000,13.000000,1479832007000
Raw,17396164,17400911000000,,,-1163849822485671168,0.0,226.4872018713504,-0.2332144076018982,9.635988929165954,782,2,0.0,15,232023322515340,145,19.5,407.5995178222656,6.919500350952148,0,0.0,0.0,,,,,0,,1
Raw,17396165,17400911000000,,,-1163849822485671168,0.0,226.4872018713504,-0.2332144076018982,9.635988929165954,782,5,0.0,15,232023326317854,21,26.7,-350.0877380371094,0.12020000070333481,0,0.0,0.0,,,,,0,,1
Raw,17396166,17400911000000,,,-1163849822485671168,0.0,226.4872018713504,-0.2332144076018982,9.635988929165954,782,6,0.0,15,232023316611692,135,18.0,704.5623168945312,6.350500106811523,0,0.0,0.0,,,,,0,,1
Raw,17396167,17400911000000,,,-1163849822485671168,0.0,226.4872018713504,-0.2332144076018982,9.635988929165954,782,7,0.0,15,232023327234138,19,27.7,96.31686401367188,0.05180000141263008,0,0.0,0.0,,,,,0,,1
Raw,17396167,17400911000000,,,-1163849822485671168,0.0,226.4872018713504,-0.2332144076018982,9.635988929165954,782,9,0.0,15,232023322367935,13,31.2,525.3092041015625,0.028200000524520874,0,0.0,0.0,,,,,0,,1
Raw,17396168,17400911000000,,,-1163849822485671168,0.0,226.4872018713504,-0.2332144076018982,9.635988929165954,782,30,0.0,15,232023326963245,11,33.4,-340.29193115234375,0.03189999982714653,0,0.0,0.0,,,,,0,,1
Raw,17397160,17401911000000,,,-1163849822485671168,0.0,245.0828324072063,0.40370935334128366,13.42658978230051,782,2,0.0,15,232024322513954,122,15.3,404.8212585449219,4.359500408172607,0,0.0,0.0,,,,,0,,1
Raw,17397163,17401911000000,,,-1163849822485671168,0.0,245.0828324072063,0.40370935334128366,13.42658978230051,782,5,0.0,15,232024326319086,17,28.7,-349.95391845703125,0.04230000078678131,0,0.0,0.0,,,,,0,,1
Raw,17397167,17401911000000,,,-1163849822485671168,0.0,245.0828324072063,0.40370935334128366,13.42658978230051,782,6,0.0,15,232024316609342,179,18.0,704.5623168945312,7.850500106811523,0,0.0,0.0,,,,,0,,1
Raw,17397170,17401911000000,,,-1163849822485671168,0.0,245.0828324072063,0.40370935334128366,13.42658978230051,782,7,0.0,15,232024327233821,17,28.5,96.39105224609375,0.043800000101327896,0,0.0,0.0,,,,,0,,1
Raw,17397173,17401911000000,,,-1163849822485671168,0.0,245.0828324072063,0.40370935334128366,13.42658978230051,782,9,0.0,15,232024322366169,12,32.7,525.4388427734375,0.026900000870227814,0,0.0,0.0,,,,,0,,1
Raw,17397175,17401911000000,,,-1163849822485671168,0.0,245.0828324072063,0.40370935334128366,13.42658978230051,782,30,0.0,15,232024326964413,11,33.0,-340.1286315917969,0.03189999982714653,0,0.0,0.0,,,,,0,,1
Fix,gps,51.513481,-0.080115,149.000000,0.000000,13.000000,1479832008000
Raw,17398193,17402911000000,,,-1163849822485671168,0.0,225.73907335754484,0.7006093374039638,7.955358102648738,782,2,0.0,15,232025322512604,151,15.3,404.8212585449219,5.859500408172607,0,0.0,0.0,,,,,0,,1
Raw,17398194,17402911000000,,,-1163849822485671168,0.0,225.73907335754484,0.7006093374039638,7.955358102648738,782,5,0.0,15,232025326320238,19,27.1,-349.7129821777344,0.050300002098083496,0,0.0,0.0,,,,,0,,1
Raw,17398195,17402911000000,,,-1163849822485671168,0.0,225.73907335754484,0.7006093374039638,7.955358102648738,782,6,0.0,15,232025316606992,233,18.0,704.5623168945312,9.350500106811523,0,0.0,0.0,,,,,0,,1
Raw,17398195,17402911000000,,,-1163849822485671168,0.0,225.73907335754484,0.7006093374039638,7.955358102648738,782,7,0.0,15,232025327233472,21,26.7,96.64285278320312,0.12170000374317169,0,0.0,0.0,,,,,0,,1
Raw,17398196,17402911000000,,,-1163849822485671168,0.0,225.73907335754484,0.7006093374039638,7.955358102648738,782,9,0.0,15,232025322364344,11,33.5,525.695068359375,0.02590000070631504,0,0.0,0.0,,,,,0,,1
Raw,17398197,17402911000000,,,-1163849822485671168,0.0,225.73907335754484,0.7006093374039638,7.955358102648738,782,30,0.0,15,232025326965524,11,33.0,-339.890625,0.03189999982714653,0,0.0,0.0,,,,,0,,1
Fix,gps,51.513483,-0.080113,149.000000,0.000000,13.000000,1479832009000
Raw,17399158,17403911000000,,,-1163849822485671168,0.0,212.4017191817984,1.407484278645939,8.252642057245536,782,2,0.0,15,232026322511287,84,16.5,405.0210876464844,1.9194999933242798,0,0.0,0.0,,,,,0,,1
Raw,17399159,17403911000000,,,-1163849822485671168,0.0,212.4017191817984,1.407484278645939,8.252642057245536,782,5,0.0,15,232026326321412,24,25.6,-350.31427001953125,0.39079999923706055,0,0.0,0.0,,,,,0,,1
Raw,17399160,17403911000000,,,-1163849822485671168,0.0,212.4017191817984,1.407484278645939,8.252642057245536,782,6,0.0,15,232026316604651,150,14.3,704.5527954101562,5.250500202178955,0,0.0,0.0,,,,,0,,1
Raw,17399161,17403911000000,,,-1163849822485671168,0.0,212.4017191817984,1.407484278645939,8.252642057245536,782,7,0.0,15,232026327233240,24,25.0,96.09961700439453,0.392300009727478,0,0.0,0.0,,,,,0,,1
Raw,17399162,17403911000000,,,-1163849822485671168,0.0,212.4017191817984,1.407484278645939,8.252642057245536,782,9,0.0,15,232026322362543,10,34.4,524.9278564453125,0.025100000202655792,0,0.0,0.0,,,,,0,,1
Raw,17399165,17403911000000,,,-1163849822485671168,0.0,212.4017191817984,1.407484278645939,8.252642057245536,782,30,0.0,15,232026326966628,10,34.3,-340.5935974121094,0.03110000118613243,0,0.0,0.0,,,,,0,,1
Fix,gps,51.513484,-0.080112,149.000000,0.000000,12.000000,1479832010000
Raw,17400185,17404911000000,,,-1163849822485671168,0.0,208.73222092632204,-0.9769254191327215,11.045695316122345,782,2,0.0,15,232027322509936,98,16.5,405.0210876464844,3.4194998741149902,0,0.0,0.0,,,,,0,,1
Raw,17400187,17404911000000,,,-1163849822485671168,0.0,208.73222092632204,-0.9769254191327215,11.045695316122345,782,5,0.0,15,232027326322572,24,25.3,-349.2283020019531,0.39079999923706055,0,0.0,0.0,,,,,0,,1
Raw,17400189,17404911000000,,,-1163849822485671168,0.0,208.73222092632204,-0.9769254191327215,11.045695316122345,782,6,0.0,15,232027316602301,186,14.3,704.5527954101562,6.750500202178955,0,0.0,0.0,,,,,0,,1
Raw,17400190,17404911000000,,,-1163849822485671168,0.0,208.73222092632204,-0.9769254191327215,11.045695316122345,782,7,0.0,15,232027327232851,27,24.9,97.22103118896484,0.6270000338554382,0,0.0,0.0,,,,,0,,1
Raw,17400192,17404911000000,,,-1163849822485671168,0.0,208.73222092632204,-0.9769254191327215,11.045695316122345,782,9,0.0,15,232027322360768,10,34.8,525.9385986328125,0.025100000202655792,0,0.0,0.0,,,,,0,,1
Raw,17400193,17404911000000,,,-1163849822485671168,0.0,208.73222092632204,-0.9769254191327215,11.045695316122345,782,30,0.0,15,232027326967754,9,35.0,-339.50689697265625,0.03060000203549862,0,0.0,0.0,,,,,0,,1
Fix,gps,51.513485,-0.080111,149.000000,0.000000,13.000000,1479832011000
Raw,17401184,17405911000000,,,-1163849822485671168,0.0,214.84764874912798,1.791213942703491,9.447456961373314,782,2,0.0,15,232028322508585,122,16.5,405.0210876464844,4.919500350952148,0,0.0,0.0,,,,,0,,1
Raw,17401186,17405911000000,,,-1163849822485671168,0.0,214.84764874912798,1.791213942703491,9.447456961373314,782,5,0.0,15,232028326323723,21,26.8,-348.7752990722656,0.12020000070333481,0,0.0,0.0,,,,,0,,1
Raw,17401188,17405911000000,,,-1163849822485671168,0.0,214.84764874912798,1.791213942703491,9.447456961373314,782,6,0.0,15,232028316600158,73,17.9,704.7526245117188,1.8504999876022339,0,0.0,0.0,,,,,0,,1
Raw,17401189,17405911000000,,,-1163849822485671168,0.0,214.84764874912798,1.791213942703491,9.447456961373314,782,7,0.0,15,232028327232555,24,25.7,97.79209899902344,0.392300009727478,0,0.0,0.0,,,,,0,,1
