# 
# Header Description:
# 
# Version: 1.4.0.0, Platform: N
# 
# Raw,ElapsedRealtimeMillis,TimeNanos,LeapSecond,TimeUncertaintyNanos,FullBiasNanos,BiasNanos,BiasUncertaintyNanos,DriftNanosPerSecond,DriftUncertaintyNanosPerSecond,HardwareClockDiscontinuityCount, Svid,TimeOffsetNanos,State,ReceivedSvTimeNanos,ReceivedSvTimeUncertaintyNanos,Cn0DbHz,PseudorangeRateMetersPerSecond,PseudorangeRateUncertaintyMetersPerSecond,AccumulatedDeltaRangeState,AccumulatedDeltaRangeMeters,AccumulatedDeltaRangeUncertaintyMeters,CarrierFrequencyHz,CarrierCycles,CarrierPhase,CarrierPhaseUncertainty,MultipathIndicator,SnrInDb,ConstellationType
# 
# Fix,Provider,Latitude,Longitude,Altitude,Speed,Accuracy,(UTC)TimeInMs
# 
# Nav,Svid,Type,Status,MessageId,Sub-messageId,Data(Bytes)
# 
Raw,78793187,78766276000000,,,-1163522538119260160,0.0,2131.7629143595695,1.8140515656792164,36.039870977500236,53,2,0.0,15,570904320894128,24,25.6,-410.4211120605469,0.38179999589920044,0,0.0,0.0,,,,,0,,1
Raw,78793187,78766276000000,,,-1163522538119260160,0.0,2131.7629143595695,1.8140515656792164,36.039870977500236,53,3,0.0,15,570904315699416,325,12.3,614.6771240234375,10.044000625610352,0,0.0,0.0,,,,,0,,1
Raw,78793188,78766276000000,,,-1163522538119260160,0.0,2131.7629143595695,1.8140515656792164,36.039870977500236,53,6,0.0,15,570904326398829,69,18.6,54.100494384765625,2.505500078201294,0,0.0,0.0,,,,,0,,1
Raw,78793188,78766276000000,,,-1163522538119260160,0.0,2131.7629143595695,1.8140515656792164,36.039870977500236,53,7,0.0,15,570904318226347,289,14.6,-620.2051391601562,9.768500328063965,0,0.0,0.0,,,,,0,,1
Raw,78793189,78766276000000,,,-1163522538119260160,0.0,2131.7629143595695,1.8140515656792164,36.039870977500236,53,9,0.0,15,570904328130980,342,11.9,-27.90656852722168,9.958500862121582,0,0.0,0.0,,,,,0,,1
Raw,78794210,78767276000000,,,-1163522538119260160,0.0,972.9348821565509,2.3698528156499,35.33001786635629,53,2,0.0,15,570905320895540,31,23.9,-414.56427001953125,0.6664999723434448,0,0.0,0.0,,,,,0,,1
Raw,78794213,78767276000000,,,-1163522538119260160,0.0,972.9348821565509,2.3698528156499,35.33001786635629,53,3,0.0,15,570905315697366,392,12.3,614.6771240234375,11.544000625610352,0,0.0,0.0,,,,,0,,1
Raw,78794214,78767276000000,,,-1163522538119260160,0.0,972.9348821565509,2.3698528156499,35.33001786635629,53,6,0.0,15,570905326398656,73,17.7,52.10240936279297,1.8355000019073486,0,0.0,0.0,,,,,0,,1
Raw,78794216,78767276000000,,,-1163522538119260160,0.0,972.9348821565509,2.3698528156499,35.33001786635629,53,7,0.0,15,570905318228415,355,14.6,-620.2051391601562,11.268500328063965,0,0.0,0.0,,,,,0,,1
Raw,78794217,78767276000000,,,-1163522538119260160,0.0,972.9348821565509,2.3698528156499,35.33001786635629,53,9,0.0,15,570905328131074,407,11.9,-27.90656852722168,11.458500862121582,0,0.0,0.0,,,,,0,,1
Raw,78795237,78768276000000,,,-1163522538119260160,0.0,802.1334651857615,-7.719552378564555,36.09055886557785,53,2,0.0,15,570906320896893,24,25.2,-413.5176696777344,0.6165000200271606,0,0.0,0.0,,,,,0,,1
Raw,78795238,78768276000000,,,-1163522538119260160,0.0,802.1334651857615,-7.719552378564555,36.09055886557785,53,3,0.0,15,570906315695316,468,12.3,614.6771240234375,13.044000625610352,0,0.0,0.0,,,,,0,,1
Raw,78795240,78768276000000,,,-1163522538119260160,0.0,802.1334651857615,-7.719552378564555,36.09055886557785,53,6,0.0,15,570906326398482,87,17.7,52.10240936279297,3.3355000019073486,0,0.0,0.0,,,,,0,,1
Raw,78795242,78768276000000,,,-1163522538119260160,0.0,802.1334651857615,-7.719552378564555,36.09055886557785,53,7,0.0,15,570906318230484,431,14.6,-620.2051391601562,12.768500328063965,0,0.0,0.0,,,,,0,,1
Raw,78795244,78768276000000,,,-1163522538119260160,0.0,802.1334651857615,-7.719552378564555,36.09055886557785,53,9,0.0,15,570906328131166,483,11.9,-27.90656852722168,12.958500862121582,0,0.0,0.0,,,,,0,,1
Raw,78796238,78769276000000,,,-1163522538119260160,0.0,711.9280053302646,-4.625548532293443,35.52155916903794,53,2,0.0,15,570907320898323,27,24.9,-411.5766906738281,0.6165000200271606,0,0.0,0.0,,,,,0,,1
Raw,78796241,78769276000000,,,-1163522538119260160,0.0,711.9280053302646,-4.625548532293443,35.52155916903794,53,3,0.0,15,570907315693265,554,12.3,614.6771240234375,14.544000625610352,0,0.0,0.0,,,,,0,,1
Raw,78796245,78769276000000,,,-1163522538119260160,0.0,711.9280053302646,-4.625548532293443,35.52155916903794,53,6,0.0,15,570907326398308,110,17.7,52.10240936279297,4.835500240325928,0,0.0,0.0,,,,,0,,1
Raw,78796246,78769276000000,,,-1163522538119260160,0.0,711.9280053302646,-4.625548532293443,35.52155916903794,53,7,0.0,15,570907318232568,102,15.8,-620.7760009765625,2.813499927520752,0,0.0,0.0,,,,,0,,1
Raw,78796248,78769276000000,,,-1163522538119260160,0.0,711.9280053302646,-4.625548532293443,35.52155916903794,53,9,0.0,15,570907328131260,569,11.9,-27.90656852722168,14.458500862121582,0,0.0,0.0,,,,,0,,1
Fix,gps,51.524093,-0.134458,109.000000,1.310000,29.000000,1479566091000
Raw,78797207,78770276000000,,,-1163522538119260160,0.0,419.452233472839,-0.23678702353658457,33.84550278604122,53,2,0.0,15,570908320899634,27,24.4,-411.1199645996094,0.6664999723434448,0,0.0,0.0,,,,,0,,1
Raw,78797210,78770276000000,,,-1163522538119260160,0.0,419.452233472839,-0.23678702353658457,33.84550278604122,53,3,0.0,15,570908315691215,651,12.3,614.6771240234375,16.04400062561035,0,0.0,0.0,,,,,0,,1
Raw,78797212,78770276000000,,,-1163522538119260160,0.0,419.452233472839,-0.23678702353658457,33.84550278604122,53,6,0.0,15,570908326398134,144,17.7,52.10240936279297,6.335500240325928,0,0.0,0.0,,,,,0,,1
Raw,78797214,78770276000000,,,-1163522538119260160,0.0,419.452233472839,-0.23678702353658457,33.84550278604122,53,7,0.0,15,570908318234639,122,15.8,-620.7760009765625,4.31350040435791,0,0.0,0.0,,,,,0,,1
Raw,78797216,78770276000000,,,-1163522538119260160,0.0,419.452233472839,-0.23678702353658457,33.84550278604122,53,9,0.0,15,570908328131353,665,11.9,-27.90656852722168,15.958500862121582,0,0.0,0.0,,,,,0,,1
Fix,gps,51.524105,-0.134401,119.000000,2.000000,28.000000,1479566092000
Fix,gps,51.524102,-0.134309,106.000000,1.630000,20.000000,1479566093000
Raw,78798255,78771276000000,,,-1163522538119260160,0.0,403.5760066471994,1.8659496692344602,34.070474427357716,53,2,0.0,15,570909320900980,21,26.0,-412.1402587890625,0.1112000048160553,0,0.0,0.0,,,,,0,,1
Raw,78798262,78771276000000,,,-1163522538119260160,0.0,403.5760066471994,1.8659496692344602,34.070474427357716,53,3,0.0,15,570909315689165,757,12.3,614.6771240234375,17.54400062561035,0,0.0,0.0,,,,,0,,1
Raw,78798263,78771276000000,,,-1163522538119260160,0.0,403.5760066471994,1.8659496692344602,34.070474427357716,53,6,0.0,15,570909326397960,188,17.7,52.10240936279297,7.835500240325928,0,0.0,0.0,,,,,0,,1
Raw,78798265,78771276000000,,,-1163522538119260160,0.0,403.5760066471994,1.8659496692344602,34.070474427357716,53,7,0.0,15,570909318236759,73,17.8,-619.586669921875,1.8535000085830688,0,0.0,0.0,,,,,0,,1
Raw,78798266,78771276000000,,,-1163522538119260160,0.0,403.5760066471994,1.8659496692344602,34.070474427357716,53,9,0.0,15,570909328131446,770,11.9,-27.90656852722168,17.458499908447266,0,0.0,0.0,,,,,0,,1
Raw,78799193,78772276000000,,,-1163522538119260160,0.0,291.4906945079565,-1.943722764231295,37.271872321922686,53,2,0.0,15,570910320902352,24,25.5,-411.1011657714844,0.38179999589920044,0,0.0,0.0,,,,,0,,1
Raw,78799194,78772276000000,,,-1163522538119260160,0.0,291.4906945079565,-1.943722764231295,37.271872321922686,53,3,0.0,15,570910315687115,873,12.3,614.6771240234375,19.044002532958984,0,0.0,0.0,,,,,0,,1
Raw,78799195,78772276000000,,,-1163522538119260160,0.0,291.4906945079565,-1.943722764231295,37.271872321922686,53,6,0.0,15,570910326397787,242,17.7,52.10240936279297,9.335500717163086,0,0.0,0.0,,,,,0,,1
Raw,78799196,78772276000000,,,-1163522538119260160,0.0,291.4906945079565,-1.943722764231295,37.271872321922686,53,7,0.0,15,570910318238826,87,17.8,-619.586669921875,3.3535001277923584,0,0.0,0.0,,,,,0,,1
Raw,78799197,78772276000000,,,-1163522538119260160,0.0,291.4906945079565,-1.943722764231295,37.271872321922686,53,9,0.0,15,570910328131539,886,11.9,-27.90656852722168,18.958499908447266,0,0.0,0.0,,,,,0,,1
Fix,gps,51.524091,-0.134263,105.000000,0.980000,18.000000,1479566094000
Raw,78800212,78773276000000,,,-1163522538119260160,0.0,272.8461113292724,0.9482757994509394,35.93294415548738,53,2,0.0,15,570911320903744,27,24.4,-411.6908264160156,0.6664999723434448,0,0.0,0.0,,,,,0,,1
Raw,78800215,78773276000000,,,-1163522538119260160,0.0,272.8461113292724,0.9482757994509394,35.93294415548738,53,3,0.0,15,570911315685064,1000,12.3,614.6771240234375,20.544002532958984,0,0.0,0.0,,,,,0,,1
Raw,78800221,78773276000000,,,-1163522538119260160,0.0,272.8461113292724,0.9482757994509394,35.93294415548738,53,6,0.0,15,570911326397613,305,17.7,52.10240936279297,10.835500717163086,0,0.0,0.0,,,,,0,,1
Raw,78800222,78773276000000,,,-1163522538119260160,0.0,272.8461113292724,0.9482757994509394,35.93294415548738,53,7,0.0,15,570911318240893,111,17.8,-619.586669921875,4.8535003662109375,0,0.0,0.0,,,,,0,,1
Raw,78800223,78773276000000,,,-1163522538119260160,0.0,272.8461113292724,0.9482757994509394,35.93294415548738,53,9,0.0,15,570911328131632,1012,11.9,-27.90656852722168,20.458499908447266,0,0.0,0.0,,,,,0,,1
Fix,gps,51.524084,-0.134212,116.000000,0.920000,20.000000,1479566095000
Raw,78801213,78774276000000,,,-1163522538119260160,0.0,292.85295750014484,-0.9884912577843276,36.373264564928775,53,2,0.0,15,570912320905150,24,25.4,-411.7450866699219,0.38179999589920044,0,0.0,0.0,,,,,0,,1
Raw,78801215,78774276000000,,,-1163522538119260160,0.0,292.85295750014484,-0.9884912577843276,36.373264564928775,53,3,0.0,15,570912315683014,1136,12.3,614.6771240234375,22.044002532958984,0,0.0,0.0,,,,,0,,1
Raw,78801216,78774276000000,,,-1163522538119260160,0.0,292.85295750014484,-0.9884912577843276,36.373264564928775,53,6,0.0,15,570912326397343,182,13.9,53.738929748535156,5.985500335693359,0,0.0,0.0,,,,,0,,1
Raw,78801218,78774276000000,,,-1163522538119260160,0.0,292.85295750014484,-0.9884912577843276,36.373264564928775,53,7,0.0,15,570912318242918,102,15.5,-619.9672241210938,2.7835001945495605,0,0.0,0.0,,,,,0,,1
Raw,78801219,78774276000000,,,-1163522538119260160,0.0,292.85295750014484,-0.9884912577843276,36.373264564928775,53,9,0.0,15,570912328131725,1148,11.9,-27.90656852722168,21.958499908447266,0,0.0,0.0,,,,,0,,1
Fix,gps,51.524081,-0.134177,118.000000,0.660000,18.000000,1479566096000
Raw,78802216,78775276000000,,,-1163522538119260160,0.0,260.88859885931015,-0.8216822800576937,33.32088282632639,53,2,0.0,15,570913320906518,31,23.8,-411.1104736328125,0.6664999723434448,0,0.0,0.0,,,,,0,,1
Raw,78802222,78775276000000,,,-1163522538119260160,0.0,260.88859885931015,-0.8216822800576937,33.32088282632639,53,3,0.0,15,570913315680963,1282,12.3,614.6771240234375,23.544002532958984,0,0.0,0.0,,,,,0,,1
Raw,78802223,78775276000000,,,-1163522538119260160,0.0,260.88859885931015,-0.8216822800576937,33.32088282632639,53,6,0.0,15,570913326397163,222,13.9,53.738929748535156,7.485500335693359,0,0.0,0.0,,,,,0,,1
Raw,78802224,78775276000000,,,-1163522538119260160,0.0,260.88859885931015,-0.8216822800576937,33.32088282632639,53,7,0.0,15,570913318244986,121,15.5,-619.9672241210938,4.2835001945495605,0,0.0,0.0,,,,,0,,1
Raw,78802225,78775276000000,,,-1163522538119260160,0.0,260.88859885931015,-0.8216822800576937,33.32088282632639,53,9,0.0,15,570913328131818,1293,11.9,-27.90656852722168,23.458499908447266,0,0.0,0.0,,,,,0,,1
Fix,gps,51.524082,-0.134137,127.000000,0.710000,19.000000,1479566097000
Raw,78803252,78776276000000,,,-1163522538119260160,0.0,283.24767481535673,1.2383996604062342,36.53749917555204,53,2,0.0,15,570914320907870,27,24.7,-410.33978271484375,0.6165000200271606,0,0.0,0.0,,,,,0,,1
Raw,78803254,78776276000000,,,-1163522538119260160,0.0,283.24767481535673,1.2383996604062342,36.53749917555204,53,3,0.0,15,570914315678994,248,13.0,613.44970703125,8.354000091552734,0,0.0,0.0,,,,,0,,1
Raw,78803256,78776276000000,,,-1163522538119260160,0.0,283.24767481535673,1.2383996604062342,36.53749917555204,53,6,0.0,15,570914326396984,272,13.9,53.738929748535156,8.98550033569336,0,0.0,0.0,,,,,0,,1
Raw,78803258,78776276000000,,,-1163522538119260160,0.0,283.24767481535673,1.2383996604062342,36.53749917555204,53,7,0.0,15,570914318247054,151,15.5,-619.9672241210938,5.783500671386719,0,0.0,0.0,,,,,0,,1
Raw,78803260,78776276000000,,,-1163522538119260160,0.0,283.24767481535673,1.2383996604062342,36.53749917555204,53,9,0.0,15,570914328131911,1449,11.9,-27.90656852722168,24.958499908447266,0,0.0,0.0,,,,,0,,1
Fix,gps,51.524087,-0.134109,134.000000,1.190000,18.000000,1479566098000
Raw,78804233,78777276000000,,,-1163522538119260160,0.0,263.22377379983664,3.596594186246799,34.425964040303214,53,2,0.0,15,570915320909238,31,23.9,-410.7013244628906,0.6664999723434448,0,0.0,0.0,,,,,0,,1
Raw,78804234,78777276000000,,,-1163522538119260160,0.0,263.22377379983664,3.596594186246799,34.425964040303214,53,3,0.0,15,570915315676948,303,13.0,613.44970703125,9.854000091552734,0,0.0,0.0,,,,,0,,1
Raw,78804235,78777276000000,,,-1163522538119260160,0.0,263.22377379983664,3.596594186246799,34.425964040303214,53,6,0.0,15,570915326396805,332,13.9,53.738929748535156,10.48550033569336,0,0.0,0.0,,,,,0,,1
Raw,78804235,78777276000000,,,-1163522538119260160,0.0,263.22377379983664,3.596594186246799,34.425964040303214,53,7,0.0,15,570915318249122,190,15.5,-619.9672241210938,7.283500671386719,0,0.0,0.0,,,,,0,,1
Raw,78804236,78777276000000,,,-1163522538119260160,0.0,263.22377379983664,3.596594186246799,34.425964040303214,53,9,0.0,15,570915328132004,1615,11.9,-27.90656852722168,26.458499908447266,0,0.0,0.0,,,,,0,,1
Fix,gps,51.524095,-0.134082,135.000000,1.330000,17.000000,1479566099000
Raw,78805215,78778276000000,,,-1163522538119260160,0.0,251.16530014202,3.021457522210924,35.43237342596376,53,2,0.0,15,570916320910600,27,24.1,-411.1390075683594,0.6664999723434448,0,0.0,0.0,,,,,0,,1
Raw,78805215,78778276000000,,,-1163522538119260160,0.0,251.16530014202,3.021457522210924,35.43237342596376,53,3,0.0,15,570916315674901,368,13.0,613.44970703125,11.354000091552734,0,0.0,0.0,,,,,0,,1
Raw,78805216,78778276000000,,,-1163522538119260160,0.0,251.16530014202,3.021457522210924,35.43237342596376,53,6,0.0,15,570916326396538,98,16.2,54.41447830200195,3.515500068664551,0,0.0,0.0,,,,,0,,1
Raw,78805217,78778276000000,,,-1163522538119260160,0.0,251.16530014202,3.021457522210924,35.43237342596376,53,7,0.0,15,570916318251190,240,15.5,-619.9672241210938,8.783500671386719,0,0.0,0.0,,,,,0,,1
Raw,78805217,78778276000000,,,-1163522538119260160,0.0,251.16530014202,3.021457522210924,35.43237342596376,53,9,0.0,15,570916328132097,1791,11.9,-27.90656852722168,27.958499908447266,0,0.0,0.0,,,,,0,,1
Fix,gps,51.524094,-0.134062,136.000000,0.580000,17.000000,1479566100000
Fix,gps,51.524095,-0.134037,132.000000,0.680000,17.000000,1479566101000
Raw,78806221,78779276000000,,,-1163522538119260160,0.0,250.59981271624565,-0.16369327430131578,35.945325055474704,53,2,0.0,15,570917320911992,31,23.4,-410.7488708496094,0.7264999747276306,0,0.0,0.0,,,,,0,,1
Raw,78806222,78779276000000,,,-1163522538119260160,0.0,250.59981271624565,-0.16369327430131578,35.945325055474704,53,3,0.0,15,570917315672855,444,13.0,613.44970703125,12.854000091552734,0,0.0,0.0,,,,,0,,1
Raw,78806224,78779276000000,,,-1163522538119260160,0.0,250.59981271624565,-0.16369327430131578,35.945325055474704,53,6,0.0,15,570917326396356,123,16.2,54.41447830200195,5.015500068664551,0,0.0,0.0,,,,,0,,1
Raw,78806225,78779276000000,,,-1163522538119260160,0.0,250.59981271624565,-0.16369327430131578,35.945325055474704,53,7,0.0,15,570917318253289,121,15.7,-619.3773803710938,4.2835001945495605,0,0.0,0.0,,,,,0,,1
Raw,78806226,78779276000000,,,-1163522538119260160,0.0,250.59981271624565,-0.16369327430131578,35.945325055474704,53,9,0.0,15,570917328132191,1977,11.9,-27.90656852722168,29.458499908447266,0,0.0,0.0,,,,,0,,1
Fix,gps,51.524094,-0.134023,133.000000,0.560000,14.000000,1479566102000
Raw,78807250,78780276000000,,,-1163522538119260160,0.0,248.2496201992035,1.1588297324245027,34.692659187332396,53,2,0.0,15,570918320913377,35,22.2,-411.34832763671875,0.7864999771118164,0,0.0,0.0,,,,,0,,1
Raw,78807253,78780276000000,,,-1163522538119260160,0.0,248.2496201992035,1.1588297324245027,34.692659187332396,53,3,0.0,15,570918315670809,529,13.0,613.44970703125,14.354000091552734,0,0.0,0.0,,,,,0,,1
Raw,78807256,78780276000000,,,-1163522538119260160,0.0,248.2496201992035,1.1588297324245027,34.692659187332396,53,6,0.0,15,570918326396175,157,16.2,54.41447830200195,6.515500068664551,0,0.0,0.0,,,,,0,,1
Raw,78807260,78780276000000,,,-1163522538119260160,0.0,248.2496201992035,1.1588297324245027,34.692659187332396,53,7,0.0,15,570918318255314,61,18.7,-620.4525146484375,1.0234999656677246,0,0.0,0.0,,,,,0,,1
Raw,78807262,78780276000000,,,-1163522538119260160,0.0,248.2496201992035,1.1588297324245027,34.692659187332396,53,9,0.0,15,570918328132284,2172,11.9,-27.90656852722168,30.958499908447266,0,0.0,0.0,,,,,0,,1
Fix,gps,51.524095,-0.134027,131.000000,0.910000,15.000000,1479566103000
Raw,78808232,78781276000000,,,-1163522538119260160,0.0,209.56367370672524,-1.5959548111531219,29.15426780559109,53,2,0.0,15,570919320914747,31,23.3,-412.0143737792969,0.7264999747276306,0,0.0,0.0,,,,,0,,1
Raw,78808235,78781276000000,,,-1163522538119260160,0.0,209.56367370672524,-1.5959548111531219,29.15426780559109,53,3,0.0,15,570919315668762,625,13.0,613.44970703125,15.85400104522705,0,0.0,0.0,,,,,0,,1
Raw,78808236,78781276000000,,,-1163522538119260160,0.0,209.56367370672524,-1.5959548111531219,29.15426780559109,53,6,0.0,15,570919326396008,79,17.0,53.75796127319336,2.67549991607666,0,0.0,0.0,,,,,0,,1
Raw,78808239,78781276000000,,,-1163522538119260160,0.0,209.56367370672524,-1.5959548111531219,29.15426780559109,53,7,0.0,15,570919318257383,69,18.7,-620.4525146484375,2.5234999656677246,0,0.0,0.0,,,,,0,,1
Raw,78808240,78781276000000,,,-1163522538119260160,0.0,209.56367370672524,-1.5959548111531219,29.15426780559109,53,9,0.0,15,570919328132377,2378,11.9,-27.90656852722168,32.458499908447266,0,0.0,0.0,,,,,0,,1
Fix,gps,51.524090,-0.134046,132.000000,0.160000,14.000000,1479566104000
Raw,78809239,78782276000000,,,-1163522538119260160,0.0,217.69493469037116,-2.175904999391579,29.418675730860027,53,2,0.0,15,570920320916076,35,22.8,-411.65277099609375,0.7264999747276306,0,0.0,0.0,,,,,0,,1
Raw,78809241,78782276000000,,,-1163522538119260160,0.0,217.69493469037116,-2.175904999391579,29.418675730860027,53,3,0.0,15,570920315666716,730,13.0,613.44970703125,17.354001998901367,0,0.0,0.0,,,,,0,,1
Raw,78809244,78782276000000,,,-1163522538119260160,0.0,217.69493469037116,-2.175904999391579,29.418675730860027,53,6,0.0,15,570920326395828,98,17.0,53.75796127319336,4.17549991607666,0,0.0,0.0,,,,,0,,1
Raw,78809245,78782276000000,,,-1163522538119260160,0.0,217.69493469037116,-2.175904999391579,29.418675730860027,53,7,0.0,15,570920318259433,73,17.4,-620.4715576171875,1.94350004196167,0,0.0,0.0,,,,,0,,1
Raw,78809246,78782276000000,,,-1163522538119260160,0.0,217.69493469037116,-2.175904999391579,29.418675730860027,53,9,0.0,15,570920328132470,2594,11.9,-27.90656852722168,33.958499908447266,0,0.0,0.0,,,,,0,,1
Fix,gps,51.524080,-0.134125,134.000000,0.000000,13.000000,1479566105000
Raw,78810265,78783276000000,,,-1163522538119260160,0.0,200.203328859061,-0.30325615027132724,26.57297740283746,53,2,0.0,15,570921320917516,31,23.4,-412.4519958496094,0.7264999747276306,0,0.0,0.0,,,,,0,,1
Raw,78810266,78783276000000,,,-1163522538119260160,0.0,200.203328859061,-0.30325615027132724,26.57297740283746,53,3,0.0,15,570921315664670,846,13.0,613.44970703125,18.854000091552734,0,0.0,0.0,,,,,0,,1
Raw,78810267,78783276000000,,,-1163522538119260160,0.0,200.203328859061,-0.30325615027132724,26.57297740283746,53,6,0.0,15,570921326395649,127,17.0,53.75796127319336,5.675500392913818,0,0.0,0.0,,,,,0,,1
Raw,78810268,78783276000000,,,-1163522538119260160,0.0,200.203328859061,-0.30325615027132724,26.57297740283746,53,7,0.0,15,570921318261503,87,17.4,-620.4715576171875,3.44350004196167,0,0.0,0.0,,,,,0,,1
Raw,78810269,78783276000000,,,-1163522538119260160,0.0,200.203328859061,-0.30325615027132724,26.57297740283746,53,9,0.0,15,570921328132563,2820,11.9,-27.90656852722168,35.458499908447266,0,0.0,0.0,,,,,0,,1
Raw,78810271,78783276000000,,,-1163522538119260160,0.0,200.203328859061,-0.30325615027132724,26.57297740283746,53,23,0.0,15,570921323583081,1024,15.8,363.7273254394531,4.560999870300293,0,0.0,0.0,,,,,0,,1
Fix,gps,51.524076,-0.134172,135.000000,0.000000,13.000000,1479566106000
Raw,78811234,78784276000000,,,-1163522538119260160,0.0,191.42833480145782,-1.7312676179334636,22.17093918710931,53,2,0.0,15,570922320918872,27,24.1,-411.67181396484375,0.6664999723434448,0,0.0,0.0,,,,,0,,1
Raw,78811236,78784276000000,,,-1163522538119260160,0.0,191.42833480145782,-1.7312676179334636,22.17093918710931,53,3,0.0,15,570922315662624,971,13.0,613.44970703125,20.354000091552734,0,0.0,0.0,,,,,0,,1
Raw,78811238,78784276000000,,,-1163522538119260160,0.0,191.42833480145782,-1.7312676179334636,22.17093918710931,53,6,0.0,15,570922326395470,166,17.0,53.75796127319336,7.175500392913818,0,0.0,0.0,,,,,0,,1
Raw,78811240,78784276000000,,,-1163522538119260160,0.0,191.42833480145782,-1.7312676179334636,22.17093918710931,53,7,0.0,15,570922318263572,112,17.4,-620.4715576171875,4.94350004196167,0,0.0,0.0,,,,,0,,1
Raw,78811242,78784276000000,,,-1163522538119260160,0.0,191.42833480145782,-1.7312676179334636,22.17093918710931,53,9,0.0,15,570922328132656,3056,11.9,-27.90656852722168,36.958499908447266,0,0.0,0.0,,,,,0,,1
Raw,78811244,78784276000000,,,-1163522538119260160,0.0,191.42833480145782,-1.7312676179334636,22.17093918710931,53,23,0.0,15,570922323581874,1039,16.0,364.1650085449219,5.310999870300293,0,0.0,0.0,,,,,0,,1
Fix,gps,51.524081,-0.134192,134.000000,0.000000,11.000000,1479566107000
Raw,78812255,78785276000000,,,-1163522538119260160,0.0,184.2706697061658,-0.9293289784777513,22.43287697649948,53,2,0.0,15,570923320920224,31,23.6,-411.5956726074219,0.6664999723434448,0,0.0,0.0,,,,,0,,1
Raw,78812256,78785276000000,,,-1163522538119260160,0.0,184.2706697061658,-0.9293289784777513,22.43287697649948,53,3,0.0,15,570923315660699,224,13.2,613.6970825195312,7.619000434875488,0,0.0,0.0,,,,,0,,1
Raw,78812258,78785276000000,,,-1163522538119260160,0.0,184.2706697061658,-0.9293289784777513,22.43287697649948,53,6,0.0,15,570923326395255,111,15.0,53.91019821166992,3.615499973297119,0,0.0,0.0,,,,,0,,1
Raw,78812259,78785276000000,,,-1163522538119260160,0.0,184.2706697061658,-0.9293289784777513,22.43287697649948,53,7,0.0,15,570923318265492,69,18.7,-619.8435668945312,2.5234999656677246,0,0.0,0.0,,,,,0,,1
Raw,78812260,78785276000000,,,-1163522538119260160,0.0,184.2706697061658,-0.9293289784777513,22.43287697649948,53,23,0.0,15,570923323580655,1055,15.9,364.2601623535156,6.060999870300293,0,0.0,0.0,,,,,0,,1
Raw,78813248,78786276000000,,,-1163522538119260160,0.0,163.31418009940535,1.2591909316810417,21.41001009184499,53,2,0.0,15,570924320921606,40,21.7,-410.9296569824219,0.7864999771118164,0,0.0,0.0,,,,,0,,1
Raw,78813251,78786276000000,,,-1163522538119260160,0.0,163.31418009940535,1.2591909316810417,21.41001009184499,53,3,0.0,15,570924315658652,275,13.2,613.6970825195312,9.119000434875488,0,0.0,0.0,,,,,0,,1
Raw,78813256,78786276000000,,,-1163522538119260160,0.0,163.31418009940535,1.2591909316810417,21.41001009184499,53,6,0.0,15,570924326395075,135,15.0,53.91019821166992,5.115500450134277,0,0.0,0.0,,,,,0,,1
Raw,78813257,78786276000000,,,-1163522538119260160,0.0,163.31418009940535,1.2591909316810417,21.41001009184499,53,7,0.0,15,570924318267646,61,18.7,-621.0519409179688,1.0234999656677246,0,0.0,0.0,,,,,0,,1
Raw,78813258,78786276000000,,,-1163522538119260160,0.0,163.31418009940535,1.2591909316810417,21.41001009184499,53,23,0.0,15,570924323579433,1075,16.0,364.18402099609375,6.810999870300293,0,0.0,0.0,,,,,0,,1
Fix,gps,51.524083,-0.134213,133.000000,0.000000,10.000000,1479566108000
Raw,78814241,78787276000000,,,-1163522538119260160,0.0,160.12159176170826,1.482418327821714,32.80948994321673,53,2,0.0,15,570925320923001,35,22.7,-413.1561279296875,0.7264999747276306,0,0.0,0.0,,,,,0,,1
Raw,78814243,78787276000000,,,-1163522538119260160,0.0,160.12159176170826,1.482418327821714,32.80948994321673,53,3,0.0,15,570925315656604,335,13.2,613.6970825195312,10.619000434875488,0,0.0,0.0,,,,,0,,1
Raw,78814244,78787276000000,,,-1163522538119260160,0.0,160.12159176170826,1.482418327821714,32.80948994321673,53,6,0.0,15,570925326394895,170,15.0,53.91019821166992,6.615500450134277,0,0.0,0.0,,,,,0,,1
Raw,78814246,78787276000000,,,-1163522538119260160,0.0,160.12159176170826,1.482418327821714,32.80948994321673,53,7,0.0,15,570925318269594,61,18.3,-621.2327270507812,1.1034998893737793,0,0.0,0.0,,,,,0,,1
Raw,78814249,78787276000000,,,-1163522538119260160,0.0,160.12159176170826,1.482418327821714,32.80948994321673,53,23,0.0,15,570925323578222,1097,15.7,364.17449951171875,7.560999870300293,0,0.0,0.0,,,,,0,,1
Fix,gps,51.524083,-0.134254,134.000000,0.000000,10.000000,1479566109000
Raw,78815228,78788276000000,,,-1163522538119260160,0.0,146.66853530798107,-7.181868374393673,23.669648403021366,53,2,0.0,15,570926320924320,35,22.5,-413.1370849609375,0.7264999747276306,0,0.0,0.0,,,,,0,,1
Raw,78815231,78788276000000,,,-1163522538119260160,0.0,146.66853530798107,-7.181868374393673,23.669648403021366,53,3,0.0,15,570926315654557,406,13.2,613.6970825195312,12.119000434875488,0,0.0,0.0,,,,,0,,1
Raw,78815232,78788276000000,,,-1163522538119260160,0.0,146.66853530798107,-7.181868374393673,23.669648403021366,53,6,0.0,15,570926326394715,215,15.0,53.91019821166992,8.115500450134277,0,0.0,0.0,,,,,0,,1
Raw,78815233,78788276000000,,,-1163522538119260160,0.0,146.66853530798107,-7.181868374393673,23.669648403021366,53,7,0.0,15,570926318271666,70,18.3,-621.2327270507812,2.6034998893737793,0,0.0,0.0,,,,,0,,1
Raw,78815234,78788276000000,,,-1163522538119260160,0.0,146.66853530798107,-7.181868374393673,23.669648403021366,53,23,0.0,15,570926323577001,1121,15.7,364.117431640625,8.310999870300293,0,0.0,0.0,,,,,0,,1
Fix,gps,51.524080,-0.134266,133.000000,0.000000,9.000000,1479566110000
Fix,gps,51.524077,-0.134272,132.000000,0.000000,9.000000,1479566111000
Raw,78816218,78789276000000,,,-1163522538119260160,0.0,146.220758324489,-6.451893914933997,26.75943846469697,53,2,0.0,15,570927320925707,35,22.3,-413.1656188964844,0.7864999771118164,0,0.0,0.0,,,,,0,,1
Raw,78816220,78789276000000,,,-1163522538119260160,0.0,146.220758324489,-6.451893914933997,26.75943846469697,53,3,0.0,15,570927315652510,486,13.2,613.6970825195312,13.619000434875488,0,0.0,0.0,,,,,0,,1
Raw,78816221,78789276000000,,,-1163522538119260160,0.0,146.220758324489,-6.451893914933997,26.75943846469697,53,6,0.0,15,570927326394535,269,15.0,53.91019821166992,9.615500450134277,0,0.0,0.0,,,,,0,,1
Raw,78816222,78789276000000,,,-1163522538119260160,0.0,146.220758324489,-6.451893914933997,26.75943846469697,53,7,0.0,15,570927318273928,73,17.6,-620.956787109375,1.8535000085830688,0,0.0,0.0,,,,,0,,1
Raw,78816223,78789276000000,,,-1163522538119260160,0.0,146.220758324489,-6.451893914933997,26.75943846469697,53,23,0.0,15,570927323575788,1148,15.8,364.0508117675781,9.06100082397461,0,0.0,0.0,,,,,0,,1
Raw,78817235,78790276000000,,,-1163522538119260160,0.0,136.54649956151843,-6.432451337053718,24.917782772697088,53,2,0.0,15,570928320927140,31,23.1,-412.1380310058594,0.7264999747276306,0,0.0,0.0,,,,,0,,1
Raw,78817237,78790276000000,,,-1163522538119260160,0.0,136.54649956151843,-6.432451337053718,24.917782772697088,53,3,0.0,15,570928315650365,137,14.4,612.793212890625,4.499000072479248,0,0.0,0.0,,,,,0,,1
Raw,78817239,78790276000000,,,-1163522538119260160,0.0,136.54649956151843,-6.432451337053718,24.917782772697088,53,6,0.0,15,570928326394356,334,15.0,53.91019821166992,11.115500450134277,0,0.0,0.0,,,,,0,,1
Raw,78817241,78790276000000,,,-1163522538119260160,0.0,136.54649956151843,-6.432451337053718,24.917782772697088,53,7,0.0,15,570928318276009,70,17.8,-621.5942993164062,1.1034998893737793,0,0.0,0.0,,,,,0,,1
Raw,78817242,78790276000000,,,-1163522538119260160,0.0,136.54649956151843,-6.432451337053718,24.917782772697088,53,23,0.0,15,570928323574571,1177,15.7,364.0888977050781,9.810999870300293,0,0.0,0.0,,,,,0,,1
Fix,gps,51.524075,-0.134280,131.000000,0.000000,8.000000,1479566112000
Raw,78818234,78791276000000,,,-1163522538119260160,0.0,123.41066030785441,-5.840516595888004,21.109851204472356,53,2,0.0,15,570929320928515,40,21.8,-411.0533752441406,0.7864999771118164,0,0.0,0.0,,,,,0,,1
Raw,78818236,78791276000000,,,-1163522538119260160,0.0,123.41066030785441,-5.840516595888004,21.109851204472356,53,3,0.0,15,570929315648321,167,14.4,612.793212890625,5.999000072479248,0,0.0,0.0,,,,,0,,1
Raw,78818238,78791276000000,,,-1163522538119260160,0.0,123.41066030785441,-5.840516595888004,21.109851204472356,53,6,0.0,15,570929326394176,409,15.0,53.91019821166992,12.615500450134277,0,0.0,0.0,,,,,0,,1
Raw,78818240,78791276000000,,,-1163522538119260160,0.0,123.41066030785441,-5.840516595888004,21.109851204472356,53,7,0.0,15,570929318278082,79,17.8,-621.5942993164062,2.6034998893737793,0,0.0,0.0,,,,,0,,1
Raw,78818242,78791276000000,,,-1163522538119260160,0.0,123.41066030785441,-5.840516595888004,21.109851204472356,53,23,0.0,15,570929323573368,328,15.7,364.0793762207031,10.935999870300293,0,0.0,0.0,,,,,0,,1
Fix,gps,51.524074,-0.134299,130.000000,0.000000,8.000000,1479566113000
Fix,gps,51.524072,-0.134319,132.000000,0.000000,8.000000,1479566114000
Raw,78819232,78792276000000,,,-1163522538119260160,0.0,118.95804345840588,-1.4020729036233752,21.56300741336105,53,2,0.0,15,570930320929842,35,22.7,-411.20562744140625,0.7264999747276306,0,0.0,0.0,,,,,0,,1
Raw,78819234,78792276000000,,,-1163522538119260160,0.0,118.95804345840588,-1.4020729036233752,21.56300741336105,53,3,0.0,15,570930315646277,207,14.4,612.793212890625,7.499000549316406,0,0.0,0.0,,,,,0,,1
Raw,78819236,78792276000000,,,-1163522538119260160,0.0,118.95804345840588,-1.4020729036233752,21.56300741336105,53,6,0.0,15,570930326393996,493,15.0,53.91019821166992,14.115500450134277,0,0.0,0.0,,,,,0,,1
Raw,78819242,78792276000000,,,-1163522538119260160,0.0,118.95804345840588,-1.4020729036233752,21.56300741336105,53,7,0.0,15,570930318280156,98,17.8,-621.5942993164062,4.1035003662109375,0,0.0,0.0,,,,,0,,1
Raw,78819245,78792276000000,,,-1163522538119260160,0.0,118.95804345840588,-1.4020729036233752,21.56300741336105,53,23,0.0,15,570930323572084,83,16.7,364.88812255859375,1.8610000610351562,0,0.0,0.0,,,,,0,,1
Raw,78820235,78793276000000,,,-1163522538119260160,0.0,116.11566878855228,-1.1865956979761192,21.458875200967633,53,2,0.0,15,570931320931237,40,21.7,-412.0428771972656,0.7864999771118164,0,0.0,0.0,,,,,0,,1
Raw,78820237,78793276000000,,,-1163522538119260160,0.0,116.11566878855228,-1.1865956979761192,21.458875200967633,53,3,0.0,15,570931315644233,257,14.4,612.793212890625,8.999000549316406,0,0.0,0.0,,,,,0,,1
Raw,78820238,78793276000000,,,-1163522538119260160,0.0,116.11566878855228,-1.1865956979761192,21.458875200967633,53,6,0.0,15,570931326393816,588,15.0,53.91019821166992,15.615500450134277,0,0.0,0.0,,,,,0,,1
Raw,78820239,78793276000000,,,-1163522538119260160,0.0,116.11566878855228,-1.1865956979761192,21.458875200967633,53,7,0.0,15,570931318282171,70,18.3,-620.1956176757812,2.6034998893737793,0,0.0,0.0,,,,,0,,1
Raw,78820240,78793276000000,,,-1163522538119260160,0.0,116.11566878855228,-1.1865956979761192,21.458875200967633,53,23,0.0,15,570931323570958,61,18.2,364.2315979003906,1.0809999704360962,0,0.0,0.0,,,,,0,,1
Fix,gps,51.524069,-0.134346,132.000000,0.000000,7.000000,1479566115000
Raw,78821226,78794276000000,,,-1163522538119260160,0.0,109.4856925192289,-5.656519307677052,21.570716845817188,53,2,0.0,15,570932320932641,40,21.2,-411.8906555175781,0.8464999794960022,0,0.0,0.0,,,,,0,,1
Raw,78821227,78794276000000,,,-1163522538119260160,0.0,109.4856925192289,-5.656519307677052,21.570716845817188,53,3,0.0,15,570932315642319,110,15.5,612.774169921875,3.5290000438690186,0,0.0,0.0,,,,,0,,1
Raw,78821228,78794276000000,,,-1163522538119260160,0.0,109.4856925192289,-5.656519307677052,21.570716845817188,53,6,0.0,15,570932326393636,693,15.0,53.91019821166992,17.11549949645996,0,0.0,0.0,,,,,0,,1
Raw,78821229,78794276000000,,,-1163522538119260160,0.0,109.4856925192289,-5.656519307677052,21.570716845817188,53,7,0.0,15,570932318284309,61,18.1,-619.7579345703125,1.1034998893737793,0,0.0,0.0,,,,,0,,1
Raw,78821230,78794276000000,,,-1163522538119260160,0.0,109.4856925192289,-5.656519307677052,21.570716845817188,53,23,0.0,15,570932323569743,69,18.2,364.2315979003906,2.5809998512268066,0,0.0,0.0,,,,,0,,1
Fix,gps,51.524064,-0.134341,132.000000,0.000000,7.000000,1479566116000
Raw,78822232,78795276000000,,,-1163522538119260160,0.0,103.9040507748723,-3.467454432736892,20.248266855624006,53,2,0.0,15,570933320933994,40,21.2,-412.0428771972656,0.8464999794960022,0,0.0,0.0,,,,,0,,1
Raw,78822234,78795276000000,,,-1163522538119260160,0.0,103.9040507748723,-3.467454432736892,20.248266855624006,53,3,0.0,15,570933315640276,135,15.5,612.774169921875,5.029000282287598,0,0.0,0.0,,,,,0,,1
Raw,78822236,78795276000000,,,-1163522538119260160,0.0,103.9040507748723,-3.467454432736892,20.248266855624006,53,6,0.0,15,570933326393456,808,15.0,53.91019821166992,18.615501403808594,0,0.0,0.0,,,,,0,,1
Raw,78822238,78795276000000,,,-1163522538119260160,0.0,103.9040507748723,-3.467454432736892,20.248266855624006,53,7,0.0,15,570933318286272,53,19.0,-619.7008666992188,1.0234999656677246,0,0.0,0.0,,,,,0,,1
Raw,78822240,78795276000000,,,-1163522538119260160,0.0,103.9040507748723,-3.467454432736892,20.248266855624006,53,23,0.0,15,570933323568583,84,16.8,364.9166564941406,1.9210000038146973,0,0.0,0.0,,,,,0,,1
Fix,gps,51.524063,-0.134340,132.000000,0.000000,6.000000,1479566117000
Fix,gps,51.524061,-0.134336,132.000000,0.000000,6.000000,1479566118000
Raw,78823239,78796276000000,,,-1163522538119260160,0.0,102.30551561107859,-4.614403097884886,23.524780421155256,53,2,0.0,15,570934320935412,40,21.5,-413.3368835449219,0.7864999771118164,0,0.0,0.0,,,,,0,,1
Raw,78823241,78796276000000,,,-1163522538119260160,0.0,102.30551561107859,-4.614403097884886,23.524780421155256,53,3,0.0,15,570934315638232,169,15.5,612.774169921875,6.529000282287598,0,0.0,0.0,,,,,0,,1
Raw,78823243,78796276000000,,,-1163522538119260160,0.0,102.30551561107859,-4.614403097884886,23.524780421155256,53,6,0.0,15,570934326393276,932,15.0,53.91019821166992,20.115501403808594,0,0.0,0.0,,,,,0,,1
Raw,78823245,78796276000000,,,-1163522538119260160,0.0,102.30551561107859,-4.614403097884886,23.524780421155256,53,7,0.0,15,570934318288395,46,20.2,-621.2041625976562,0.9434999823570251,0,0.0,0.0,,,,,0,,1
Raw,78823248,78796276000000,,,-1163522538119260160,0.0,102.30551561107859,-4.614403097884886,23.524780421155256,53,23,0.0,15,570934323567366,98,16.8,364.9166564941406,3.4210000038146973,0,0.0,0.0,,,,,0,,1
Raw,78823249,78796276000000,,,-1163522538119260160,0.0,102.30551561107859,-4.614403097884886,23.524780421155256,53,26,0.0,15,570934311600445,1361,13.8,-188.36219787597656,5.273000240325928,0,0.0,0.0,,,,,0,,1
Raw,78824216,78797276000000,,,-1163522538119260160,0.0,100.66993127111346,-9.188131662762844,22.586702978500306,53,2,0.0,15,570935320936774,35,22.7,-412.4330139160156,0.7264999747276306,0,0.0,0.0,,,,,0,,1
Raw,78824218,78797276000000,,,-1163522538119260160,0.0,100.66993127111346,-9.188131662762844,22.586702978500306,53,3,0.0,15,570935315636045,90,16.4,611.8988037109375,2.7790000438690186,0,0.0,0.0,,,,,0,,1
Raw,78824220,78797276000000,,,-1163522538119260160,0.0,100.66993127111346,-9.188131662762844,22.586702978500306,53,6,0.0,15,570935326393097,1067,15.0,53.91019821166992,21.615501403808594,0,0.0,0.0,,,,,0,,1
Raw,78824222,78797276000000,,,-1163522538119260160,0.0,100.66993127111346,-9.188131662762844,22.586702978500306,53,7,0.0,15,570935318290508,53,19.1,-619.7960205078125,1.0234999656677246,0,0.0,0.0,,,,,0,,1
Raw,78824223,78797276000000,,,-1163522538119260160,0.0,100.66993127111346,-9.188131662762844,22.586702978500306,53,23,0.0,15,570935323565974,73,17.3,363.4894714355469,1.9210000038146973,0,0.0,0.0,,,,,0,,1
Raw,78824224,78797276000000,,,-1163522538119260160,0.0,100.66993127111346,-9.188131662762844,22.586702978500306,53,26,0.0,15,570935311601039,1377,14.2,-188.68568420410156,6.023000240325928,0,0.0,0.0,,,,,0,,1
Fix,gps,51.524057,-0.134332,131.000000,0.000000,6.000000,1479566119000
Raw,78825265,78798276000000,,,-1163522538119260160,0.0,98.59205601969734,-7.976389249884406,20.122463296580108,53,2,0.0,15,570936320938179,53,19.5,-411.938232421875,0.9164999723434448,0,0.0,0.0,,,,,0,,1
Raw,78825265,78798276000000,,,-1163522538119260160,0.0,98.59205601969734,-7.976389249884406,20.122463296580108,53,3,0.0,15,570936315634005,109,16.4,611.8988037109375,4.279000282287598,0,0.0,0.0,,,,,0,,1
Raw,78825266,78798276000000,,,-1163522538119260160,0.0,98.59205601969734,-7.976389249884406,20.122463296580108,53,6,0.0,15,570936326392917,1212,15.0,53.91019821166992,23.115501403808594,0,0.0,0.0,,,,,0,,1
Raw,78825266,78798276000000,,,-1163522538119260160,0.0,98.59205601969734,-7.976389249884406,20.122463296580108,53,7,0.0,15,570936318292420,53,19.4,-620.252685546875,1.0234999656677246,0,0.0,0.0,,,,,0,,1
Raw,78825267,78798276000000,,,-1163522538119260160,0.0,98.59205601969734,-7.976389249884406,20.122463296580108,53,23,0.0,15,570936323564764,61,18.3,363.9556579589844,1.0809999704360962,0,0.0,0.0,,,,,0,,1
Raw,78825267,78798276000000,,,-1163522538119260160,0.0,98.59205601969734,-7.976389249884406,20.122463296580108,53,26,0.0,15,570936311601617,1220,14.6,-188.28607177734375,6.653000354766846,0,0.0,0.0,,,,,0,,1
Fix,gps,51.524058,-0.134335,131.000000,0.000000,6.000000,1479566120000
Fix,gps,51.524059,-0.134344,132.000000,0.000000,6.000000,1479566121000
Raw,78826223,78799276000000,,,-1163522538119260160,0.0,101.11524898093194,-7.377215881298044,21.290056603478554,53,2,0.0,15,570937320939448,40,21.7,-411.1009521484375,0.7864999771118164,0,0.0,0.0,,,,,0,,1
Raw,78826225,78799276000000,,,-1163522538119260160,0.0,101.11524898093194,-7.377215881298044,21.290056603478554,53,3,0.0,15,570937315631920,73,17.2,612.1747436523438,1.9390000104904175,0,0.0,0.0,,,,,0,,1
Raw,78826226,78799276000000,,,-1163522538119260160,0.0,101.11524898093194,-7.377215881298044,21.290056603478554,53,6,0.0,15,570937326392737,1367,15.0,53.91019821166992,24.615501403808594,0,0.0,0.0,,,,,0,,1
Raw,78826228,78799276000000,,,-1163522538119260160,0.0,101.11524898093194,-7.377215881298044,21.290056603478554,53,7,0.0,15,570937318294490,46,20.3,-619.615234375,0.9434999823570251,0,0.0,0.0,,,,,0,,1
Raw,78826229,78799276000000,,,-1163522538119260160,0.0,101.11524898093194,-7.377215881298044,21.290056603478554,53,23,0.0,15,570937323563615,70,17.6,363.54656982421875,1.0809999704360962,0,0.0,0.0,,,,,0,,1
Raw,78826230,78799276000000,,,-1163522538119260160,0.0,101.11524898093194,-7.377215881298044,21.290056603478554,53,26,0.0,15,570937311602231,1242,14.7,-187.9149932861328,7.403000354766846,0,0.0,0.0,,,,,0,,1
Fix,gps,51.524060,-0.134348,132.000000,0.000000,5.000000,1479566122000
Raw,78827248,78800276000000,,,-1163522538119260160,0.0,93.5198477236554,-6.318398419567038,19.97547192038164,53,2,0.0,15,570938320940870,40,21.4,-412.36639404296875,0.8464999794960022,0,0.0,0.0,,,,,0,,1
Raw,78827249,78800276000000,,,-1163522538119260160,0.0,93.5198477236554,-6.318398419567038,19.97547192038164,53,3,0.0,15,570938315629878,87,17.2,612.1747436523438,3.439000129699707,0,0.0,0.0,,,,,0,,1
Raw,78827250,78800276000000,,,-1163522538119260160,0.0,93.5198477236554,-6.318398419567038,19.97547192038164,53,6,0.0,15,570938326392557,1531,15.0,53.91019821166992,26.115501403808594,0,0.0,0.0,,,,,0,,1
Raw,78827252,78800276000000,,,-1163522538119260160,0.0,93.5198477236554,-6.318398419567038,19.97547192038164,53,7,0.0,15,570938318296483,61,18.3,-620.7950439453125,1.1034998893737793,0,0.0,0.0,,,,,0,,1
Raw,78827253,78800276000000,,,-1163522538119260160,0.0,93.5198477236554,-6.318398419567038,19.97547192038164,53,23,0.0,15,570938323562519,61,18.6,362.728271484375,1.0010000467300415,0,0.0,0.0,,,,,0,,1
Raw,78827256,78800276000000,,,-1163522538119260160,0.0,93.5198477236554,-6.318398419567038,19.97547192038164,53,26,0.0,15,570938311602855,1265,14.6,-188.05772399902344,8.152999877929688,0,0.0,0.0,,,,,0,,1
Fix,gps,51.524060,-0.134348,132.000000,0.000000,5.000000,1479566123000
Raw,78828252,78801276000000,,,-1163522538119260160,0.0,90.11923975776881,-9.132849449195326,20.253724058586045,53,2,0.0,15,570939320942278,40,21.9,-412.1285095214844,0.7864999771118164,0,0.0,0.0,,,,,0,,1
Raw,78828257,78801276000000,,,-1163522538119260160,0.0,90.11923975776881,-9.132849449195326,20.253724058586045,53,3,0.0,15,570939315627836,111,17.2,612.1747436523438,4.939000129699707,0,0.0,0.0,,,,,0,,1
Raw,78828263,78801276000000,,,-1163522538119260160,0.0,90.11923975776881,-9.132849449195326,20.253724058586045,53,6,0.0,15,570939326392377,1706,15.0,53.91019821166992,27.615501403808594,0,0.0,0.0,,,,,0,,1
Raw,78828264,78801276000000,,,-1163522538119260160,0.0,90.11923975776881,-9.132849449195326,20.253724058586045,53,7,0.0,15,570939318298756,53,19.7,-620.642822265625,0.9434999823570251,0,0.0,0.0,,,,,0,,1
Raw,78828267,78801276000000,,,-1163522538119260160,0.0,90.11923975776881,-9.132849449195326,20.253724058586045,53,23,0.0,15,570939323561309,69,18.6,362.728271484375,2.500999927520752,0,0.0,0.0,,,,,0,,1
Raw,78828269,78801276000000,,,-1163522538119260160,0.0,90.11923975776881,-9.132849449195326,20.253724058586045,53,26,0.0,15,570939311603480,1291,15.1,-188.11480712890625,8.902999877929688,0,0.0,0.0,,,,,0,,1
Raw,78829263,78802276000000,,,-1163522538119260160,0.0,86.2634988152422,-5.978527286506636,20.23890006219834,53,2,0.0,15,570940320943624,35,22.9,-411.4339599609375,0.7264999747276306,0,0.0,0.0,,,,,0,,1
Raw,78829264,78802276000000,,,-1163522538119260160,0.0,86.2634988152422,-5.978527286506636,20.23890006219834,53,3,0.0,15,570940315625795,90,16.3,612.9454345703125,2.7790000438690186,0,0.0,0.0,,,,,0,,1
Raw,78829265,78802276000000,,,-1163522538119260160,0.0,86.2634988152422,-5.978527286506636,20.23890006219834,53,6,0.0,15,570940326392198,1891,15.0,53.91019821166992,29.115501403808594,0,0.0,0.0,,,,,0,,1
Raw,78829266,78802276000000,,,-1163522538119260160,0.0,86.2634988152422,-5.978527286506636,20.23890006219834,53,7,0.0,15,570940318300811,46,20.0,-620.3764038085938,0.9434999823570251,0,0.0,0.0,,,,,0,,1
Raw,78829267,78802276000000,,,-1163522538119260160,0.0,86.2634988152422,-5.978527286506636,20.23890006219834,53,23,0.0,15,570940323559949,73,17.5,362.5475158691406,1.8309999704360962,0,0.0,0.0,,,,,0,,1
Raw,78829270,78802276000000,,,-1163522538119260160,0.0,86.2634988152422,-5.978527286506636,20.23890006219834,53,26,0.0,15,570940311604107,1320,14.9,-187.90548706054688,9.653000831604004,0,0.0,0.0,,,,,0,,1
Fix,gps,51.524060,-0.134354,132.000000,0.000000,5.000000,1479566124000
Raw,78830245,78803276000000,,,-1163522538119260160,0.0,81.01411367533728,-5.122177064923613,19.428744801246992,53,2,0.0,15,570941320945025,35,22.2,-410.8535461425781,0.7864999771118164,0,0.0,0.0,,,,,0,,1
Raw,78830246,78803276000000,,,-1163522538119260160,0.0,81.01411367533728,-5.122177064923613,19.428744801246992,53,3,0.0,15,570941315623751,109,16.3,612.9454345703125,4.279000282287598,0,0.0,0.0,,,,,0,,1
Raw,78830248,78803276000000,,,-1163522538119260160,0.0,81.01411367533728,-5.122177064923613,19.428744801246992,53,6,0.0,15,570941326392059,166,13.8,54.71894836425781,5.235500335693359,0,0.0,0.0,,,,,0,,1
Raw,78830249,78803276000000,,,-1163522538119260160,0.0,81.01411367533728,-5.122177064923613,19.428744801246992,53,7,0.0,15,570941318302955,46,20.3,-620.661865234375,0.9434999823570251,0,0.0,0.0,,,,,0,,1
Raw,78830250,78803276000000,,,-1163522538119260160,0.0,81.01411367533728,-5.122177064923613,19.428744801246992,53,23,0.0,15,570941323558739,87,17.5,362.5475158691406,3.3310000896453857,0,0.0,0.0,,,,,0,,1
Raw,78830251,78803276000000,,,-1163522538119260160,0.0,81.01411367533728,-5.122177064923613,19.428744801246992,53,26,0.0,15,570941311604717,319,15.0,-187.73422241210938,10.778000831604004,0,0.0,0.0,,,,,0,,1
Fix,gps,51.524060,-0.134355,132.000000,0.000000,5.000000,1479566125000
Fix,gps,51.524062,-0.134357,132.000000,0.000000,9.000000,1479566126000
Raw,78831223,78804276000000,,,-1163522538119260160,0.0,88.01509829936549,-5.533029612232405,25.15265086310417,53,2,0.0,15,570942320946412,40,21.1,-411.6908264160156,0.8464999794960022,0,0.0,0.0,,,,,0,,1
Raw,78831225,78804276000000,,,-1163522538119260160,0.0,88.01509829936549,-5.533029612232405,25.15265086310417,53,3,0.0,15,570942315621686,73,17.5,612.0415649414062,1.8489999771118164,0,0.0,0.0,,,,,0,,1
Raw,78831226,78804276000000,,,-1163522538119260160,0.0,88.01509829936549,-5.533029612232405,25.15265086310417,53,6,0.0,15,570942326391876,201,13.8,54.71894836425781,6.735500335693359,0,0.0,0.0,,,,,0,,1
Raw,78831227,78804276000000,,,-1163522538119260160,0.0,88.01509829936549,-5.533029612232405,25.15265086310417,53,7,0.0,15,570942318304910,46,20.9,-620.0814208984375,0.8734999895095825,0,0.0,0.0,,,,,0,,1
Raw,78831229,78804276000000,,,-1163522538119260160,0.0,88.01509829936549,-5.533029612232405,25.15265086310417,53,23,0.0,15,570942323557530,110,17.5,362.5475158691406,4.831000328063965,0,0.0,0.0,,,,,0,,1
Raw,78831230,78804276000000,,,-1163522538119260160,0.0,88.01509829936549,-5.533029612232405,25.15265086310417,53,26,0.0,15,570942311605326,72,17.7,-187.9816131591797,1.6480000019073486,0,0.0,0.0,,,,,0,,1
Raw,78832247,78805276000000,,,-1163522538119260160,0.0,80.60260734055191,-6.50685563115472,20.435978095719644,53,2,0.0,15,570943320947704,35,22.0,-410.6918029785156,0.7864999771118164,0,0.0,0.0,,,,,0,,1
Raw,78832249,78805276000000,,,-1163522538119260160,0.0,80.60260734055191,-6.50685563115472,20.435978095719644,53,3,0.0,15,570943315619739,61,18.2,612.441162109375,1.0989999771118164,0,0.0,0.0,,,,,0,,1
Raw,78832250,78805276000000,,,-1163522538119260160,0.0,80.60260734055191,-6.50685563115472,20.435978095719644,53,6,0.0,15,570943326391670,96,15.9,54.88069152832031,2.015500068664551,0,0.0,0.0,,,,,0,,1
Raw,78832251,78805276000000,,,-1163522538119260160,0.0,80.60260734055191,-6.50685563115472,20.435978095719644,53,7,0.0,15,570943318307112,53,19.7,-619.8816528320312,0.9434999823570251,0,0.0,0.0,,,,,0,,1
Raw,78832252,78805276000000,,,-1163522538119260160,0.0,80.60260734055191,-6.50685563115472,20.435978095719644,53,23,0.0,15,570943323556364,79,17.0,362.49993896484375,2.6710000038146973,0,0.0,0.0,,,,,0,,1
Raw,78832253,78805276000000,,,-1163522538119260160,0.0,80.60260734055191,-6.50685563115472,20.435978095719644,53,26,0.0,15,570943311605968,70,17.7,-187.6010284423828,1.0929999351501465,0,0.0,0.0,,,,,0,,1
Fix,gps,51.524065,-0.134354,130.000000,0.000000,9.000000,1479566127000
Fix,gps,51.524065,-0.134353,130.000000,0.000000,9.000000,1479566128000
Raw,78833232,78806276000000,,,-1163522538119260160,0.0,75.22845407947898,-5.931263868839185,18.14674905183974,53,2,0.0,15,570944320949032,35,22.8,-410.901123046875,0.7264999747276306,0,0.0,0.0,,,,,0,,1
Raw,78833234,78806276000000,,,-1163522538119260160,0.0,75.22845407947898,-5.931263868839185,18.14674905183974,53,3,0.0,15,570944315617696,70,18.2,612.441162109375,2.5989999771118164,0,0.0,0.0,,,,,0,,1
Raw,78833236,78806276000000,,,-1163522538119260160,0.0,75.22845407947898,-5.931263868839185,18.14674905183974,53,6,0.0,15,570944326391487,110,15.9,54.88069152832031,3.515500068664551,0,0.0,0.0,,,,,0,,1
Raw,78833238,78806276000000,,,-1163522538119260160,0.0,75.22845407947898,-5.931263868839185,18.14674905183974,53,7,0.0,15,570944318309096,40,21.4,-620.4810791015625,0.8734999895095825,0,0.0,0.0,,,,,0,,1
Raw,78833239,78806276000000,,,-1163522538119260160,0.0,75.22845407947898,-5.931263868839185,18.14674905183974,53,23,0.0,15,570944323555155,98,17.0,362.49993896484375,4.171000003814697,0,0.0,0.0,,,,,0,,1
Raw,78833240,78806276000000,,,-1163522538119260160,0.0,75.22845407947898,-5.931263868839185,18.14674905183974,53,26,0.0,15,570944311606594,79,17.7,-187.6010284423828,2.5929999351501465,0,0.0,0.0,,,,,0,,1
Raw,78834230,78807276000000,,,-1163522538119260160,0.0,75.15400648117065,-5.027812864098435,19.2882603959951,53,2,0.0,15,570945320950438,35,22.3,-411.7003479003906,0.7864999771118164,0,0.0,0.0,,,,,0,,1
Raw,78834232,78807276000000,,,-1163522538119260160,0.0,75.15400648117065,-5.027812864098435,19.2882603959951,53,3,0.0,15,570945315615549,84,16.9,611.6609497070312,1.9390000104904175,0,0.0,0.0,,,,,0,,1
Raw,78834233,78807276000000,,,-1163522538119260160,0.0,75.15400648117065,-5.027812864098435,19.2882603959951,53,6,0.0,15,570945326391304,135,15.9,54.88069152832031,5.015500068664551,0,0.0,0.0,,,,,0,,1
Raw,78834235,78807276000000,,,-1163522538119260160,0.0,75.15400648117065,-5.027812864098435,19.2882603959951,53,7,0.0,15,570945318311143,40,21.1,-621.0805053710938,0.8734999895095825,0,0.0,0.0,,,,,0,,1
Raw,78834236,78807276000000,,,-1163522538119260160,0.0,75.15400648117065,-5.027812864098435,19.2882603959951,53,23,0.0,15,570945323553946,127,17.0,362.49993896484375,5.6710004806518555,0,0.0,0.0,,,,,0,,1
Raw,78834237,78807276000000,,,-1163522538119260160,0.0,75.15400648117065,-5.027812864098435,19.2882603959951,53,26,0.0,15,570945311607219,97,17.7,-187.6010284423828,4.093000411987305,0,0.0,0.0,,,,,0,,1
Fix,gps,51.524066,-0.134358,131.000000,0.000000,9.000000,1479566129000
Raw,78835257,78808276000000,,,-1163522538119260160,0.0,72.50006456160918,-8.143567982537032,19.335143670407547,53,2,0.0,15,570946320951815,40,21.6,-410.47296142578125,0.7864999771118164,0,0.0,0.0,,,,,0,,1
Raw,78835259,78808276000000,,,-1163522538119260160,0.0,72.50006456160918,-8.143567982537032,19.335143670407547,53,3,0.0,15,570946315613509,98,16.9,611.6609497070312,3.439000129699707,0,0.0,0.0,,,,,0,,1
Raw,78835260,78808276000000,,,-1163522538119260160,0.0,72.50006456160918,-8.143567982537032,19.335143670407547,53,6,0.0,15,570946326391074,102,15.2,54.81409454345703,2.865499973297119,0,0.0,0.0,,,,,0,,1
Raw,78835261,78808276000000,,,-1163522538119260160,0.0,72.50006456160918,-8.143567982537032,19.335143670407547,53,7,0.0,15,570946318313166,46,20.1,-619.9482421875,0.9434999823570251,0,0.0,0.0,,,,,0,,1
Raw,78835262,78808276000000,,,-1163522538119260160,0.0,72.50006456160918,-8.143567982537032,19.335143670407547,53,23,0.0,15,570946323552736,166,17.0,362.49993896484375,7.1710004806518555,0,0.0,0.0,,,,,0,,1
Raw,78835263,78808276000000,,,-1163522538119260160,0.0,72.50006456160918,-8.143567982537032,19.335143670407547,53,26,0.0,15,570946311607806,102,15.8,-187.20140075683594,2.7730002403259277,0,0.0,0.0,,,,,0,,1
Fix,gps,51.524067,-0.134358,130.000000,0.000000,9.000000,1479566130000
Fix,gps,51.524067,-0.134362,130.000000,0.000000,9.000000,1479566131000
Raw,78836232,78809276000000,,,-1163522538119260160,0.0,68.44503514003009,-6.217549515601016,19.11704482827466,53,2,0.0,15,570947320953185,35,22.2,-410.4349060058594,0.7864999771118164,0,0.0,0.0,,,,,0,,1
Raw,78836234,78809276000000,,,-1163522538119260160,0.0,68.44503514003009,-6.217549515601016,19.11704482827466,53,3,0.0,15,570947315611456,84,16.7,612.4506225585938,1.9390000104904175,0,0.0,0.0,,,,,0,,1
Raw,78836235,78809276000000,,,-1163522538119260160,0.0,68.44503514003009,-6.217549515601016,19.11704482827466,53,6,0.0,15,570947326390891,122,15.2,54.81409454345703,4.365499973297119,0,0.0,0.0,,,,,0,,1
Raw,78836237,78809276000000,,,-1163522538119260160,0.0,68.44503514003009,-6.217549515601016,19.11704482827466,53,7,0.0,15,570947318315304,46,20.9,-619.6818237304688,0.8734999895095825,0,0.0,0.0,,,,,0,,1
Raw,78836238,78809276000000,,,-1163522538119260160,0.0,68.44503514003009,-6.217549515601016,19.11704482827466,53,23,0.0,15,570947323551527,215,17.0,362.49993896484375,8.671000480651855,0,0.0,0.0,,,,,0,,1
Raw,78836240,78809276000000,,,-1163522538119260160,0.0,68.44503514003009,-6.217549515601016,19.11704482827466,53,26,0.0,15,570947311608430,121,15.8,-187.20140075683594,4.273000240325928,0,0.0,0.0,,,,,0,,1
Fix,gps,51.524068,-0.134362,130.000000,0.000000,9.000000,1479566132000
Raw,78837239,78810276000000,,,-1163522538119260160,0.0,67.02625978505239,-2.6166323927466815,19.307405937252483,53,2,0.0,15,570948320954581,35,22.4,-409.3978271484375,0.7864999771118164,0,0.0,0.0,,,,,0,,1
Raw,78837241,78810276000000,,,-1163522538119260160,0.0,67.02625978505239,-2.6166323927466815,19.307405937252483,53,3,0.0,15,570948315609413,98,16.7,612.4506225585938,3.439000129699707,0,0.0,0.0,,,,,0,,1
Raw,78837242,78810276000000,,,-1163522538119260160,0.0,67.02625978505239,-2.6166323927466815,19.307405937252483,53,6,0.0,15,570948326390708,151,15.2,54.81409454345703,5.865500450134277,0,0.0,0.0,,,,,0,,1
Raw,78837246,78810276000000,,,-1163522538119260160,0.0,67.02625978505239,-2.6166323927466815,19.307405937252483,53,7,0.0,15,570948318317338,61,18.8,-618.901611328125,1.0234999656677246,0,0.0,0.0,,,,,0,,1
Raw,78837248,78810276000000,,,-1163522538119260160,0.0,67.02625978505239,-2.6166323927466815,19.307405937252483,53,23,0.0,15,570948323550314,122,15.4,365.1735534667969,4.361000061035156,0,0.0,0.0,,,,,0,,1
Raw,78837251,78810276000000,,,-1163522538119260160,0.0,67.02625978505239,-2.6166323927466815,19.307405937252483,53,26,0.0,15,570948311609190,84,16.7,-184.5182647705078,1.933000087738037,0,0.0,0.0,,,,,0,,1
Fix,gps,51.524069,-0.134363,130.000000,0.000000,9.000000,1479566133000
Raw,78838260,78811276000000,,,-1163522538119260160,0.0,66.65276305284351,-1.5155149476001135,18.918497119575008,53,2,0.0,15,570949320955863,40,21.3,-410.235107421875,0.8464999794960022,0,0.0,0.0,,,,,0,,1
Raw,78838262,78811276000000,,,-1163522538119260160,0.0,66.65276305284351,-1.5155149476001135,18.918497119575008,53,3,0.0,15,570949315607370,122,16.7,612.4506225585938,4.939000129699707,0,0.0,0.0,,,,,0,,1
Raw,78838264,78811276000000,,,-1163522538119260160,0.0,66.65276305284351,-1.5155149476001135,18.918497119575008,53,6,0.0,15,570949326390525,191,15.2,54.81409454345703,7.365500450134277,0,0.0,0.0,,,,,0,,1
Raw,78838265,78811276000000,,,-1163522538119260160,0.0,66.65276305284351,-1.5155149476001135,18.918497119575008,53,7,0.0,15,570949318319473,53,19.6,-618.5210571289062,0.9434999823570251,0,0.0,0.0,,,,,0,,1
Raw,78838266,78811276000000,,,-1163522538119260160,0.0,66.65276305284351,-1.5155149476001135,18.918497119575008,53,23,0.0,15,570949323549096,151,15.4,365.1735534667969,5.8610005378723145,0,0.0,0.0,,,,,0,,1
Raw,78838267,78811276000000,,,-1163522538119260160,0.0,66.65276305284351,-1.5155149476001135,18.918497119575008,53,26,0.0,15,570949311609805,98,16.7,-184.5182647705078,3.433000087738037,0,0.0,0.0,,,,,0,,1
Raw,78839234,78812276000000,,,-1163522538119260160,0.0,72.70574860740453,-2.7936149245124753,22.69637828396359,53,2,0.0,15,570950320957312,40,21.9,-410.4158630371094,0.7864999771118164,0,0.0,0.0,,,,,0,,1
Raw,78839235,78812276000000,,,-1163522538119260160,0.0,72.70574860740453,-2.7936149245124753,22.69637828396359,53,3,0.0,15,570950315605337,102,15.8,613.7542114257812,2.7790000438690186,0,0.0,0.0,,,,,0,,1
Raw,78839236,78812276000000,,,-1163522538119260160,0.0,72.70574860740453,-2.7936149245124753,22.69637828396359,53,6,0.0,15,570950326390342,241,15.2,54.81409454345703,8.865500450134277,0,0.0,0.0,,,,,0,,1
Raw,78839238,78812276000000,,,-1163522538119260160,0.0,72.70574860740453,-2.7936149245124753,22.69637828396359,53,7,0.0,15,570950318321421,46,20.1,-620.1099853515625,0.9434999823570251,0,0.0,0.0,,,,,0,,1
Raw,78839239,78812276000000,,,-1163522538119260160,0.0,72.70574860740453,-2.7936149245124753,22.69637828396359,53,23,0.0,15,570950323547878,191,15.4,365.1735534667969,7.3610005378723145,0,0.0,0.0,,,,,0,,1
Raw,78839240,78812276000000,,,-1163522538119260160,0.0,72.70574860740453,-2.7936149245124753,22.69637828396359,53,26,0.0,15,570950311610421,122,16.7,-184.5182647705078,4.933000087738037,0,0.0,0.0,,,,,0,,1
Fix,gps,51.524069,-0.134364,130.000000,0.000000,9.000000,1479566134000
Raw,78840257,78813276000000,,,-1163522538119260160,0.0,71.19982910808176,-5.9985142327092005,21.7872998866027,53,2,0.0,15,570951320958626,35,22.1,-409.79742431640625,0.7864999771118164,0,0.0,0.0,,,,,0,,1
Raw,78840259,78813276000000,,,-1163522538119260160,0.0,71.19982910808176,-5.9985142327092005,21.7872998866027,53,3,0.0,15,570951315603290,121,15.8,613.7542114257812,4.279000282287598,0,0.0,0.0,,,,,0,,1
Raw,78840260,78813276000000,,,-1163522538119260160,0.0,71.19982910808176,-5.9985142327092005,21.7872998866027,53,6,0.0,15,570951326390159,300,15.2,54.81409454345703,10.365500450134277,0,0.0,0.0,,,,,0,,1
Raw,78840261,78813276000000,,,-1163522538119260160,0.0,71.19982910808176,-5.9985142327092005,21.7872998866027,53,7,0.0,15,570951318323599,53,19.4,-618.9111328125,1.0234999656677246,0,0.0,0.0,,,,,0,,1
Raw,78840262,78813276000000,,,-1163522538119260160,0.0,71.19982910808176,-5.9985142327092005,21.7872998866027,53,23,0.0,15,570951323546411,90,16.4,366.1916198730469,2.761000156402588,0,0.0,0.0,,,,,0,,1
Raw,78840263,78813276000000,,,-1163522538119260160,0.0,71.19982910808176,-5.9985142327092005,21.7872998866027,53,26,0.0,15,570951311610856,102,15.6,-184.28990173339844,2.7730002403259277,0,0.0,0.0,,,,,0,,1
Fix,gps,51.524069,-0.134365,130.000000,0.000000,9.000000,1479566135000
Fix,gps,51.524069,-0.134366,130.000000,0.000000,9.000000,1479566136000
Raw,78841225,78814276000000,,,-1163522538119260160,0.0,70.53164881654084,-4.030873658104455,19.616952295298958,53,2,0.0,15,570952320959988,40,21.8,-408.7888488769531,0.7864999771118164,0,0.0,0.0,,,,,0,,1
Raw,78841227,78814276000000,,,-1163522538119260160,0.0,70.53164881654084,-4.030873658104455,19.616952295298958,53,3,0.0,15,570952315601219,84,16.9,613.15478515625,1.9390000104904175,0,0.0,0.0,,,,,0,,1
Raw,78841230,78814276000000,,,-1163522538119260160,0.0,70.53164881654084,-4.030873658104455,19.616952295298958,53,6,0.0,15,570952326389976,370,15.2,54.81409454345703,11.865500450134277,0,0.0,0.0,,,,,0,,1
Raw,78841232,78814276000000,,,-1163522538119260160,0.0,70.53164881654084,-4.030873658104455,19.616952295298958,53,7,0.0,15,570952318325526,46,20.3,-618.4259033203125,0.9434999823570251,0,0.0,0.0,,,,,0,,1
Raw,78841233,78814276000000,,,-1163522538119260160,0.0,70.53164881654084,-4.030873658104455,19.616952295298958,53,23,0.0,15,570952323545190,109,16.4,366.1916198730469,4.261000156402588,0,0.0,0.0,,,,,0,,1
Raw,78841235,78814276000000,,,-1163522538119260160,0.0,70.53164881654084,-4.030873658104455,19.616952295298958,53,26,0.0,15,570952311611471,121,15.6,-184.28990173339844,4.273000240325928,0,0.0,0.0,,,,,0,,1
Raw,78842230,78815276000000,,,-1163522538119260160,0.0,71.74642814788967,-1.9445267910739972,19.306042829430137,53,2,0.0,15,570953320961323,35,22.3,-409.0362548828125,0.7864999771118164,0,0.0,0.0,,,,,0,,1
Raw,78842231,78815276000000,,,-1163522538119260160,0.0,71.74642814788967,-1.9445267910739972,19.306042829430137,53,3,0.0,15,570953315599174,98,16.9,613.15478515625,3.439000129699707,0,0.0,0.0,,,,,0,,1
Raw,78842233,78815276000000,,,-1163522538119260160,0.0,71.74642814788967,-1.9445267910739972,19.306042829430137,53,6,0.0,15,570953326389794,450,15.2,54.81409454345703,13.365500450134277,0,0.0,0.0,,,,,0,,1
Raw,78842234,78815276000000,,,-1163522538119260160,0.0,71.74642814788967,-1.9445267910739972,19.306042829430137,53,7,0.0,15,570953318327672,40,21.4,-618.26416015625,0.8734999895095825,0,0.0,0.0,,,,,0,,1
Raw,78842236,78815276000000,,,-1163522538119260160,0.0,71.74642814788967,-1.9445267910739972,19.306042829430137,53,23,0.0,15,570953323543985,84,16.0,367.44757080078125,2.011000156402588,0,0.0,0.0,,,,,0,,1
Raw,78842238,78815276000000,,,-1163522538119260160,0.0,71.74642814788967,-1.9445267910739972,19.306042829430137,53,26,0.0,15,570953311612086,151,15.6,-184.28990173339844,5.7729997634887695,0,0.0,0.0,,,,,0,,1
Fix,gps,51.524069,-0.134366,130.000000,0.000000,9.000000,1479566137000
Raw,78843226,78816276000000,,,-1163522538119260160,0.0,74.11477417917922,-0.15054765163955164,19.459875193661173,53,2,0.0,15,570954320962729,40,21.3,-408.3702087402344,0.8464999794960022,0,0.0,0.0,,,,,0,,1
Raw,78843227,78816276000000,,,-1163522538119260160,0.0,74.11477417917922,-0.15054765163955164,19.459875193661173,53,3,0.0,15,570954315597129,122,16.9,613.15478515625,4.939000129699707,0,0.0,0.0,,,,,0,,1
