# 
# Header Description:
# 
# Version: 1.4.0.0, Platform: N
# 
# Raw,ElapsedRealtimeMillis,TimeNanos,LeapSecond,TimeUncertaintyNanos,FullBiasNanos,BiasNanos,BiasUncertaintyNanos,DriftNanosPerSecond,DriftUncertaintyNanosPerSecond,HardwareClockDiscontinuityCount, Svid,TimeOffsetNanos,State,ReceivedSvTimeNanos,ReceivedSvTimeUncertaintyNanos,Cn0DbHz,PseudorangeRateMetersPerSecond,PseudorangeRateUncertaintyMetersPerSecond,AccumulatedDeltaRangeState,AccumulatedDeltaRangeMeters,AccumulatedDeltaRangeUncertaintyMeters,CarrierFrequencyHz,CarrierCycles,CarrierPhase,CarrierPhaseUncertainty,MultipathIndicator,SnrInDb,ConstellationType
# 
# Fix,Provider,Latitude,Longitude,Altitude,Speed,Accuracy,(UTC)TimeInMs
# 
# Nav,Svid,Type,Status,MessageId,Sub-messageId,Data(Bytes)
# 
Raw,69547584,69552293000000,,,-1168647039304731904,0.0,1.500285530090332E7,3.9062498951249975,316.8858904382445,10,25,0.0,15,242991522582830,14,30.2,-442.0647888183594,0.02879999950528145,0,0.0,0.0,,,,,0,,1
Raw,69548597,69553293000000,,,-1168647039304732160,0.0,1.5002843856811523E7,-0.9765624737812494,316.8858904382445,10,25,0.0,15,242992522584323,13,31.3,-445.80078125,0.028200000524520874,0,0.0,0.0,,,,,0,,1
Raw,69549609,69554293000000,,,-1168647039304732160,0.0,1.5003157615661621E7,3.9062498951249975,316.8858904382445,10,25,0.0,15,242993522585804,12,32.6,-443.9598693847656,0.026900000870227814,0,0.0,0.0,,,,,0,,1
Raw,69550614,69555293000000,,,-1168647039304732160,0.0,1.5003471374511719E7,4.882812468316094,316.8858904382445,10,25,0.0,15,242994522587269,11,33.8,-442.7755432128906,0.02590000070631504,0,0.0,0.0,,,,,0,,1
Raw,69551601,69556293000000,,,-1168647039304731392,0.0,1.5002835273742676E7,7.812499790249995,316.8858904382445,10,25,0.0,15,242995522588728,10,34.0,-441.1856384277344,0.025100000202655792,0,0.0,0.0,,,,,0,,1
Raw,69552605,69557293000000,,,-1168647039304731392,0.0,1.5003149032592773E7,6.835937217058899,316.8858904382445,10,25,0.0,15,242996522590207,10,34.5,-441.88226318359375,0.025100000202655792,0,0.0,0.0,,,,,0,,1
Raw,69553595,69558293000000,,,-1168647039304732160,0.0,1.5003137588500977E7,5.8593746438678025,316.8858904382445,10,25,0.0,15,242997522591694,10,34.7,-441.525634765625,0.025100000202655792,0,0.0,0.0,,,,,0,,1
Raw,69553596,69558293000000,,,-1168647039304732160,0.0,1.5003137588500977E7,5.8593746438678025,316.8858904382445,10,32,0.0,1,143203,9,37.7,-193.2622528076172,0.9300000071525574,0,0.0,0.0,,,,,0,,1
Raw,69554605,69559293000000,,,-1168647039304732160,0.0,1.5003451347351074E7,3.9062498951249975,316.8858904382445,10,25,0.0,15,242998522593163,10,34.8,-442.8719177246094,0.025100000202655792,0,0.0,0.0,,,,,0,,1
Raw,69554609,69559293000000,,,-1168647039304732160,0.0,1.5003451347351074E7,3.9062498951249975,316.8858904382445,10,32,0.0,3,1143846,7,38.2,-194.22323608398438,0.47699999809265137,0,0.0,0.0,,,,,0,,1
Raw,69555614,69560293000000,,,-1168647039304732160,0.0,1.5003765106201172E7,2.9296873219339012,316.8858904382445,10,25,0.0,15,242999522594656,10,34.9,-442.8030700683594,0.025100000202655792,0,0.0,0.0,,,,,0,,1
Raw,69555616,69560293000000,,,-1168647039304732160,0.0,1.5003765106201172E7,2.9296873219339012,316.8858904382445,10,32,0.0,3,1144500,6,38.2,-194.17376708984375,0.02160000056028366,0,0.0,0.0,,,,,0,,1
Raw,69556628,69561293000000,,,-1168647039304731136,0.0,1.5003129005432129E7,0.0,316.8858904382445,10,25,0.0,15,243000522596119,11,33.6,-442.4671936035156,0.02590000070631504,0,0.0,0.0,,,,,0,,1
Raw,69556629,69561293000000,,,-1168647039304731136,0.0,1.5003129005432129E7,0.0,316.8858904382445,10,32,0.0,3,1145145,7,37.8,-193.74363708496094,0.022100001573562622,0,0.0,0.0,,,,,0,,1
Raw,69557610,69562293000000,,,-1168647039304731136,0.0,1.5003442764282227E7,0.0,316.8858904382445,10,25,0.0,15,243001522597606,10,34.1,-443.0072021484375,0.025100000202655792,0,0.0,0.0,,,,,0,,1
Raw,69557612,69562293000000,,,-1168647039304731136,0.0,1.5003442764282227E7,0.0,316.8858904382445,10,32,0.0,15,243001521145796,7,37.7,-194.2711181640625,0.022100001573562622,0,0.0,0.0,,,,,0,,1
Raw,69558615,69563293000000,,,-1168647039304731648,0.0,1.5003438949584961E7,0.0,316.8858904382445,10,25,0.0,15,243002522599078,10,34.6,-443.38079833984375,0.025100000202655792,0,0.0,0.0,,,,,0,,1
Raw,69558617,69563293000000,,,-1168647039304731648,0.0,1.5003438949584961E7,0.0,316.8858904382445,10,32,0.0,15,243002521146438,7,37.9,-194.56216430664062,0.022100001573562622,0,0.0,0.0,,,,,0,,1
Raw,69559610,69564293000000,,,-1168647039304731648,0.0,1.5003752708435059E7,0.0,316.8858904382445,10,25,0.0,15,243003522600562,10,34.9,-442.9333190917969,0.025100000202655792,0,0.0,0.0,,,,,0,,1
Raw,69559612,69564293000000,,,-1168647039304731648,0.0,1.5003752708435059E7,0.0,316.8858904382445,10,32,0.0,15,243003521147098,6,38.3,-194.05783081054688,0.02160000056028366,0,0.0,0.0,,,,,0,,1
Raw,69560608,69565293000000,,,-1168647039304731648,0.0,1.5004066467285156E7,-0.9765624737812494,316.8858904382445,10,25,0.0,15,243004522602046,10,34.3,-444.5473937988281,0.025100000202655792,0,0.0,0.0,,,,,0,,1
Raw,69560609,69565293000000,,,-1168647039304731648,0.0,1.5004066467285156E7,-0.9765624737812494,316.8858904382445,10,32,0.0,15,243004521147746,7,37.8,-195.64585876464844,0.022100001573562622,0,0.0,0.0,,,,,0,,1
Raw,69561616,69566293000000,,,-1168647039304731136,0.0,1.5003419876098633E7,2.9296873219339012,316.8858904382445,10,25,0.0,15,243005522603510,10,34.4,-443.281005859375,0.025100000202655792,0,0.0,0.0,,,,,0,,1
Raw,69561618,69566293000000,,,-1168647039304731136,0.0,1.5003419876098633E7,2.9296873219339012,316.8858904382445,10,32,0.0,15,243005521148394,6,38.2,-194.26113891601562,0.02160000056028366,0,0.0,0.0,,,,,0,,1
Raw,69562614,69567293000000,,,-1168647039304731136,0.0,1.500373363494873E7,2.9296873219339012,316.8858904382445,10,25,0.0,15,243006522605003,10,34.7,-443.02899169921875,0.025100000202655792,0,0.0,0.0,,,,,0,,1
Raw,69562615,69567293000000,,,-1168647039304731136,0.0,1.500373363494873E7,2.9296873219339012,316.8858904382445,10,32,0.0,15,243006521149048,6,38.2,-193.99949645996094,0.02160000056028366,0,0.0,0.0,,,,,0,,1
Raw,69563618,69568293000000,,,-1168647039304732160,0.0,1.5003725051879883E7,2.9296873219339012,316.8858904382445,10,25,0.0,15,243007522606477,10,34.4,-442.9040222167969,0.025100000202655792,0,0.0,0.0,,,,,0,,1
Raw,69563621,69568293000000,,,-1168647039304732160,0.0,1.5003725051879883E7,2.9296873219339012,316.8858904382445,10,32,0.0,15,243007521149691,7,37.8,-193.8310546875,0.022100001573562622,0,0.0,0.0,,,,,0,,1
Raw,69564607,69569293000000,,,-1168647039304732160,0.0,1.500403881072998E7,2.9296873219339012,316.8858904382445,10,25,0.0,15,243008522607958,10,34.7,-444.6592102050781,0.025100000202655792,0,0.0,0.0,,,,,0,,1
Raw,69564608,69569293000000,,,-1168647039304732160,0.0,1.500403881072998E7,2.9296873219339012,316.8858904382445,10,32,0.0,15,243008521150335,7,37.9,-195.5214080810547,0.022100001573562622,0,0.0,0.0,,,,,0,,1
Raw,69565609,69570293000000,,,-1168647039304732160,0.0,1.5004352569580078E7,2.9296873219339012,316.8858904382445,10,25,0.0,15,243009522609442,10,34.9,-443.5506591796875,0.025100000202655792,0,0.0,0.0,,,,,0,,1
Raw,69565611,69570293000000,,,-1168647039304732160,0.0,1.5004352569580078E7,2.9296873219339012,316.8858904382445,10,32,0.0,15,243009521150986,6,38.2,-194.37416076660156,0.02160000056028366,0,0.0,0.0,,,,,0,,1
Raw,69566611,69571293000000,,,-1168647039304731648,0.0,1.5003713607788086E7,0.9765624737812494,316.8858904382445,10,25,0.0,15,243010522610919,10,34.0,-443.5439758300781,0.025100000202655792,0,0.0,0.0,,,,,0,,1
Raw,69566612,69571293000000,,,-1168647039304731648,0.0,1.5003713607788086E7,0.9765624737812494,316.8858904382445,10,32,0.0,15,243010521151639,7,37.8,-194.344482421875,0.022100001573562622,0,0.0,0.0,,,,,0,,1
Raw,69567611,69572293000000,,,-1168647039304731648,0.0,1.5004027366638184E7,-2.9296873219339012,316.8858904382445,10,25,0.0,15,243011522612405,11,33.1,-444.142578125,0.02590000070631504,0,0.0,0.0,,,,,0,,1
Raw,69567612,69572293000000,,,-1168647039304731648,0.0,1.5004027366638184E7,-2.9296873219339012,316.8858904382445,10,32,0.0,15,243011521152294,8,36.3,-194.8522186279297,0.022700000554323196,0,0.0,0.0,,,,,0,,1
Raw,69568615,69573293000000,,,-1168647039304731648,0.0,1.5004341125488281E7,-5.8593746438678025,316.8858904382445,10,25,0.0,15,243012522613904,11,33.4,-447.7215270996094,0.02590000070631504,0,0.0,0.0,,,,,0,,1
Raw,69568618,69573293000000,,,-1168647039304731648,0.0,1.5004341125488281E7,-5.8593746438678025,316.8858904382445,10,32,0.0,15,243012521152956,8,36.1,-198.44415283203125,0.022700000554323196,0,0.0,0.0,,,,,0,,1
Raw,69569611,69574293000000,,,-1168647039304732416,0.0,1.5003705024719238E7,-5.8593746438678025,316.8858904382445,10,25,0.0,15,243013522615378,10,34.6,-446.9626159667969,0.025100000202655792,0,0.0,0.0,,,,,0,,1
Raw,69569612,69574293000000,,,-1168647039304732416,0.0,1.5003705024719238E7,-5.8593746438678025,316.8858904382445,10,32,0.0,15,243013521153618,7,37.1,-197.55740356445312,0.022100001573562622,0,0.0,0.0,,,,,0,,1
Raw,69570614,69575293000000,,,-1168647039304732416,0.0,1.5004018783569336E7,-4.882812468316094,316.8858904382445,10,25,0.0,15,243014522616871,10,34.6,-445.1629943847656,0.025100000202655792,0,0.0,0.0,,,,,0,,1
Raw,69570616,69575293000000,,,-1168647039304732416,0.0,1.5004018783569336E7,-4.882812468316094,316.8858904382445,10,32,0.0,15,243014521154260,7,37.0,-195.8137664794922,0.022100001573562622,0,0.0,0.0,,,,,0,,1
Raw,69571617,69576293000000,,,-1168647039304732160,0.0,1.5004007339477539E7,-0.9765624737812494,316.8858904382445,10,25,0.0,15,243015522618348,10,34.4,-443.8281555175781,0.025100000202655792,0,0.0,0.0,,,,,0,,1
Raw,69571619,69576293000000,,,-1168647039304732160,0.0,1.5004007339477539E7,-0.9765624737812494,316.8858904382445,10,32,0.0,15,243015521154928,8,36.7,-194.3725128173828,0.022700000554323196,0,0.0,0.0,,,,,0,,1
Raw,69572611,69577293000000,,,-1168647039304732160,0.0,1.5004321098327637E7,0.0,316.8858904382445,10,25,0.0,15,243016522619830,10,34.9,-443.33880615234375,0.025100000202655792,0,0.0,0.0,,,,,0,,1
Raw,69572613,69577293000000,,,-1168647039304732160,0.0,1.5004321098327637E7,0.0,316.8858904382445,10,32,0.0,15,243016521155573,8,36.6,-193.86776733398438,0.022700000554323196,0,0.0,0.0,,,,,0,,1
Raw,69573614,69578293000000,,,-1168647039304732160,0.0,1.5004634857177734E7,0.9765624737812494,316.8858904382445,10,25,0.0,15,243017522621302,9,35.2,-442.8199768066406,0.02460000105202198,0,0.0,0.0,,,,,0,,1
Raw,69573616,69578293000000,,,-1168647039304732160,0.0,1.5004634857177734E7,0.9765624737812494,316.8858904382445,10,32,0.0,15,243017521156219,8,36.2,-193.25323486328125,0.022700000554323196,0,0.0,0.0,,,,,0,,1
Raw,69574627,69579293000000,,,-1168647039304730880,0.0,1.5003998756408691E7,2.9296873219339012,316.8858904382445,10,25,0.0,15,243018522622771,9,35.7,-442.6669006347656,0.02460000105202198,0,0.0,0.0,,,,,0,,1
Raw,69574629,69579293000000,,,-1168647039304730880,0.0,1.5003998756408691E7,2.9296873219339012,316.8858904382445,10,32,0.0,15,243018521156865,8,36.3,-193.06393432617188,0.022700000554323196,0,0.0,0.0,,,,,0,,1
Raw,69575607,69580293000000,,,-1168647039304730880,0.0,1.5004312515258789E7,0.9765624737812494,316.8858904382445,10,25,0.0,15,243019522624250,8,36.5,-442.82269287109375,0.02419999986886978,0,0.0,0.0,,,,,0,,1
Raw,69575610,69580293000000,,,-1168647039304730880,0.0,1.5004312515258789E7,0.9765624737812494,316.8858904382445,10,32,0.0,15,243019521157516,8,36.4,-193.13681030273438,0.022700000554323196,0,0.0,0.0,,,,,0,,1
Raw,69576607,69581293000000,,,-1168647039304731904,0.0,1.5004300117492676E7,-0.9765624737812494,316.8858904382445,10,25,0.0,15,243020522625725,8,36.4,-443.3433532714844,0.02419999986886978,0,0.0,0.0,,,,,0,,1
Raw,69576609,69581293000000,,,-1168647039304731904,0.0,1.5004300117492676E7,-0.9765624737812494,316.8858904382445,10,32,0.0,15,243020521158150,8,36.5,-193.6260223388672,0.022700000554323196,0,0.0,0.0,,,,,0,,1
Raw,69577612,69582293000000,,,-1168647039304731904,0.0,1.5004613876342773E7,-0.9765624737812494,316.8858904382445,10,25,0.0,15,243021522627217,8,36.7,-443.4791564941406,0.02419999986886978,0,0.0,0.0,,,,,0,,1
Raw,69577614,69582293000000,,,-1168647039304731904,0.0,1.5004613876342773E7,-0.9765624737812494,316.8858904382445,10,32,0.0,15,243021521158804,8,36.4,-193.67227172851562,0.022700000554323196,0,0.0,0.0,,,,,0,,1
Raw,69578775,69583293000000,,,-1168647039304731904,0.0,1.5004927635192871E7,-2.9296873219339012,316.8858904382445,10,25,0.0,15,243022522628704,8,36.6,-444.95404052734375,0.02419999986886978,0,0.0,0.0,,,,,0,,1
Raw,69578777,69583293000000,,,-1168647039304731904,0.0,1.5004927635192871E7,-2.9296873219339012,316.8858904382445,10,32,0.0,15,243022521159451,8,36.1,-195.1137237548828,0.022700000554323196,0,0.0,0.0,,,,,0,,1
Raw,69583818,69584293000000,,,-1168647039304731136,0.0,1.5004288673400879E7,-3.9062498951249975,316.8858904382445,10,25,0.0,15,243023522630177,8,36.5,-443.2372131347656,0.02419999986886978,0,0.0,0.0,,,,,0,,1
Raw,69583820,69584293000000,,,-1168647039304731136,0.0,1.5004288673400879E7,-3.9062498951249975,316.8858904382445,10,32,0.0,15,243023521160093,9,35.8,-193.39654541015625,0.023100001737475395,0,0.0,0.0,,,,,0,,1
Raw,69583832,69585293000000,,,-1168647039304731136,0.0,1.5004602432250977E7,-2.9296873219339012,316.8858904382445,10,25,0.0,15,243024522631669,8,36.7,-443.2355041503906,0.02419999986886978,0,0.0,0.0,,,,,0,,1
Raw,69583834,69585293000000,,,-1168647039304731136,0.0,1.5004602432250977E7,-2.9296873219339012,316.8858904382445,10,32,0.0,15,243024521160748,8,36.6,-193.3270263671875,0.022700000554323196,0,0.0,0.0,,,,,0,,1
Raw,69583846,69586293000000,,,-1168647039304729856,0.0,1.5004593849182129E7,-1.9531249475624988,316.8858904382445,10,25,0.0,15,243025522633157,10,34.8,-443.05340576171875,0.025100000202655792,0,0.0,0.0,,,,,0,,1
Raw,69583848,69586293000000,,,-1168647039304729856,0.0,1.5004593849182129E7,-1.9531249475624988,316.8858904382445,10,32,0.0,15,243025521161392,8,36.2,-193.1461181640625,0.022700000554323196,0,0.0,0.0,,,,,0,,1
Raw,69583858,69587293000000,,,-1168647039304729856,0.0,1.5004907608032227E7,-0.9765624737812494,316.8858904382445,10,25,0.0,15,243026522634629,10,34.7,-443.5886535644531,0.025100000202655792,0,0.0,0.0,,,,,0,,1
Raw,69583859,69587293000000,,,-1168647039304729856,0.0,1.5004907608032227E7,-0.9765624737812494,316.8858904382445,10,32,0.0,15,243026521162035,8,36.4,-193.5612030029297,0.022700000554323196,0,0.0,0.0,,,,,0,,1
Raw,69583868,69588293000000,,,-1168647039304729856,0.0,1.5005221366882324E7,0.0,316.8858904382445,10,25,0.0,15,243027522636108,10,34.0,-442.2332458496094,0.025100000202655792,0,0.0,0.0,,,,,0,,1
Raw,69583869,69588293000000,,,-1168647039304729856,0.0,1.5005221366882324E7,0.0,316.8858904382445,10,32,0.0,15,243027521162670,8,36.8,-192.1188507080078,0.022700000554323196,0,0.0,0.0,,,,,0,,1
Raw,69584612,69589293000000,,,-1168647039304731648,0.0,1.5004582405090332E7,-0.9765624737812494,316.8858904382445,10,25,0.0,15,243028522637571,11,33.8,-441.8169250488281,0.02590000070631504,0,0.0,0.0,,,,,0,,1
Raw,69584615,69589293000000,,,-1168647039304731648,0.0,1.5004582405090332E7,-0.9765624737812494,316.8858904382445,10,32,0.0,15,243028521163322,8,36.8,-191.6915740966797,0.022700000554323196,0,0.0,0.0,,,,,0,,1
Raw,69585608,69590293000000,,,-1168647039304731648,0.0,1.500489616394043E7,-1.9531249475624988,316.8858904382445,10,25,0.0,15,243029522639063,10,34.2,-444.1496887207031,0.025100000202655792,0,0.0,0.0,,,,,0,,1
Raw,69585610,69590293000000,,,-1168647039304731648,0.0,1.500489616394043E7,-1.9531249475624988,316.8858904382445,10,32,0.0,15,243029521163958,7,37.0,-193.99334716796875,0.022100001573562622,0,0.0,0.0,,,,,0,,1
Raw,69586617,69591293000000,,,-1168647039304732416,0.0,1.5004887580871582E7,-3.9062498951249975,316.8858904382445,10,25,0.0,15,243030522640539,10,34.3,-443.4359130859375,0.025100000202655792,0,0.0,0.0,,,,,0,,1
Raw,69586619,69591293000000,,,-1168647039304732416,0.0,1.5004887580871582E7,-3.9062498951249975,316.8858904382445,10,32,0.0,15,243030521164601,7,37.2,-193.2187957763672,0.022100001573562622,0,0.0,0.0,,,,,0,,1
Raw,69587615,69592293000000,,,-1168647039304732416,0.0,1.500520133972168E7,-1.9531249475624988,316.8858904382445,10,25,0.0,15,243031522642015,10,34.1,-442.67083740234375,0.025100000202655792,0,0.0,0.0,,,,,0,,1
Raw,69587616,69592293000000,,,-1168647039304732416,0.0,1.500520133972168E7,-1.9531249475624988,316.8858904382445,10,32,0.0,15,243031521165236,7,37.1,-192.39617919921875,0.022100001573562622,0,0.0,0.0,,,,,0,,1
Raw,69588615,69593293000000,,,-1168647039304732416,0.0,1.5005515098571777E7,-1.9531249475624988,316.8858904382445,10,25,0.0,15,243032522643506,11,33.7,-442.46636962890625,0.02590000070631504,0,0.0,0.0,,,,,0,,1
Raw,69588617,69593293000000,,,-1168647039304732416,0.0,1.5005515098571777E7,-1.9531249475624988,316.8858904382445,10,32,0.0,15,243032521165894,7,37.1,-192.1333465576172,0.022100001573562622,0,0.0,0.0,,,,,0,,1
Raw,69589617,69594293000000,,,-1168647039304732160,0.0,1.5004876136779785E7,-0.9765624737812494,316.8858904382445,10,25,0.0,15,243033522644979,11,33.6,-443.48907470703125,0.02590000070631504,0,0.0,0.0,,,,,0,,1
Raw,69589619,69594293000000,,,-1168647039304732160,0.0,1.5004876136779785E7,-0.9765624737812494,316.8858904382445,10,32,0.0,15,243033521166536,7,37.2,-193.09832763671875,0.022100001573562622,0,0.0,0.0,,,,,0,,1
Raw,69590609,69595293000000,,,-1168647039304732160,0.0,1.5005189895629883E7,0.0,316.8858904382445,10,25,0.0,15,243034522646462,10,34.0,-442.3532409667969,0.025100000202655792,0,0.0,0.0,,,,,0,,1
Raw,69590611,69595293000000,,,-1168647039304732160,0.0,1.5005189895629883E7,0.0,316.8858904382445,10,32,0.0,15,243034521167174,7,37.0,-191.9422149658203,0.022100001573562622,0,0.0,0.0,,,,,0,,1
Raw,69591614,69596293000000,,,-1168647039304732160,0.0,1.500550365447998E7,-1.9531249475624988,316.8858904382445,10,25,0.0,15,243035522647930,10,34.2,-442.3966979980469,0.025100000202655792,0,0.0,0.0,,,,,0,,1
Raw,69591616,69596293000000,,,-1168647039304732160,0.0,1.500550365447998E7,-1.9531249475624988,316.8858904382445,10,32,0.0,15,243035521167818,8,36.7,-191.96165466308594,0.022700000554323196,0,0.0,0.0,,,,,0,,1
Raw,69592607,69597293000000,,,-1168647039304731904,0.0,1.5004867553710938E7,-0.9765624737812494,316.8858904382445,10,25,0.0,15,243036522649399,10,34.4,-442.6312561035156,0.025100000202655792,0,0.0,0.0,,,,,0,,1
Raw,69592609,69597293000000,,,-1168647039304731904,0.0,1.5004867553710938E7,-0.9765624737812494,316.8858904382445,10,32,0.0,15,243036521168473,7,37.1,-192.11651611328125,0.022100001573562622,0,0.0,0.0,,,,,0,,1
Raw,69593608,69598293000000,,,-1168647039304731904,0.0,1.5005181312561035E7,0.9765624737812494,316.8858904382445,10,25,0.0,15,243037522650891,10,34.4,-441.8644104003906,0.025100000202655792,0,0.0,0.0,,,,,0,,1
Raw,69593610,69598293000000,,,-1168647039304731904,0.0,1.5005181312561035E7,0.9765624737812494,316.8858904382445,10,32,0.0,15,243037521169106,7,37.2,-191.3100128173828,0.022100001573562622,0,0.0,0.0,,,,,0,,1
Raw,69594606,69599293000000,,,-1168647039304732672,0.0,1.5005169868469238E7,0.0,316.8858904382445,10,25,0.0,15,243038522652343,10,34.1,-441.7427673339844,0.025100000202655792,0,0.0,0.0,,,,,0,,1
Raw,69594608,69599293000000,,,-1168647039304732672,0.0,1.5005169868469238E7,0.0,316.8858904382445,10,32,0.0,15,243038521169752,8,36.8,-191.1388702392578,0.022700000554323196,0,0.0,0.0,,,,,0,,1
Raw,69595607,69600293000000,,,-1168647039304732672,0.0,1.5005483627319336E7,0.0,316.8858904382445,10,25,0.0,15,243039522653822,10,34.9,-442.0968017578125,0.025100000202655792,0,0.0,0.0,,,,,0,,1
Raw,69595609,69600293000000,,,-1168647039304732672,0.0,1.5005483627319336E7,0.0,316.8858904382445,10,32,0.0,15,243039521170372,7,37.4,-191.42808532714844,0.022100001573562622,0,0.0,0.0,,,,,0,,1
Raw,69596612,69601293000000,,,-1168647039304732672,0.0,1.5005797386169434E7,-1.9531249475624988,316.8858904382445,10,25,0.0,15,243040522655304,10,34.5,-442.5014953613281,0.025100000202655792,0,0.0,0.0,,,,,0,,1
Raw,69596614,69601293000000,,,-1168647039304732672,0.0,1.5005797386169434E7,-1.9531249475624988,316.8858904382445,10,32,0.0,15,243040521171019,7,37.3,-191.7420654296875,0.022100001573562622,0,0.0,0.0,,,,,0,,1
Raw,69597608,69602293000000,,,-1168647039304730624,0.0,1.500516128540039E7,-1.9531249475624988,316.8858904382445,10,25,0.0,15,243041522656790,10,34.1,-442.1666564941406,0.025100000202655792,0,0.0,0.0,,,,,0,,1
Raw,69597609,69602293000000,,,-1168647039304730624,0.0,1.500516128540039E7,-1.9531249475624988,316.8858904382445,10,32,0.0,15,243041521171662,7,37.0,-191.43362426757812,0.022100001573562622,0,0.0,0.0,,,,,0,,1
Raw,69598613,69603293000000,,,-1168647039304730624,0.0,1.5005475044250488E7,-1.9531249475624988,316.8858904382445,10,25,0.0,15,243042522658265,10,34.8,-442.47772216796875,0.025100000202655792,0,0.0,0.0,,,,,0,,1
Raw,69598615,69603293000000,,,-1168647039304730624,0.0,1.5005475044250488E7,-1.9531249475624988,316.8858904382445,10,32,0.0,15,243042521172303,7,37.3,-191.64993286132812,0.022100001573562622,0,0.0,0.0,,,,,0,,1
Raw,69599607,69604293000000,,,-1168647039304731648,0.0,1.5005463600158691E7,-1.9531249475624988,316.8858904382445,10,25,0.0,15,243043522659739,10,34.9,-441.68267822265625,0.025100000202655792,0,0.0,0.0,,,,,0,,1
Raw,69599609,69604293000000,,,-1168647039304731648,0.0,1.5005463600158691E7,-1.9531249475624988,316.8858904382445,10,32,0.0,15,243043521172942,8,36.8,-190.787109375,0.022700000554323196,0,0.0,0.0,,,,,0,,1
Raw,69600616,69605293000000,,,-1168647039304731648,0.0,1.5005777359008789E7,-2.9296873219339012,316.8858904382445,10,25,0.0,15,243044522661222,10,34.6,-442.9409484863281,0.025100000202655792,0,0.0,0.0,,,,,0,,1
Raw,69600619,69605293000000,,,-1168647039304731648,0.0,1.5005777359008789E7,-2.9296873219339012,316.8858904382445,10,32,0.0,15,243044521173578,8,36.6,-192.03431701660156,0.022700000554323196,0,0.0,0.0,,,,,0,,1
Raw,69601606,69606293000000,,,-1168647039304731648,0.0,1.5006091117858887E7,-1.9531249475624988,316.8858904382445,10,25,0.0,15,243045522662696,10,34.5,-441.66680908203125,0.025100000202655792,0,0.0,0.0,,,,,0,,1
Raw,69601608,69606293000000,,,-1168647039304731648,0.0,1.5006091117858887E7,-1.9531249475624988,316.8858904382445,10,32,0.0,15,243045521174223,8,36.7,-190.7222442626953,0.022700000554323196,0,0.0,0.0,,,,,0,,1
Raw,69602610,69607293000000,,,-1168647039304732416,0.0,1.5005459785461426E7,-4.882812468316094,316.8858904382445,10,25,0.0,15,243046522664165,10,34.5,-441.95263671875,0.025100000202655792,0,0.0,0.0,,,,,0,,1
Raw,69602612,69607293000000,,,-1168647039304732416,0.0,1.5005459785461426E7,-4.882812468316094,316.8858904382445,10,32,0.0,15,243046521174856,8,36.6,-190.97055053710938,0.022700000554323196,0,0.0,0.0,,,,,0,,1
Raw,69603619,69608293000000,,,-1168647039304732416,0.0,1.5005773544311523E7,-2.9296873219339012,316.8858904382445,10,25,0.0,15,243047522665640,10,34.3,-441.1829528808594,0.025100000202655792,0,0.0,0.0,,,,,0,,1
Raw,69603620,69608293000000,,,-1168647039304732416,0.0,1.5005773544311523E7,-2.9296873219339012,316.8858904382445,10,32,0.0,15,243047521175483,8,36.6,-190.09779357910156,0.022700000554323196,0,0.0,0.0,,,,,0,,1
Raw,69604608,69609293000000,,,-1168647039304730368,0.0,1.5005757331848145E7,-1.9531249475624988,316.8858904382445,10,25,0.0,15,243048522667111,10,34.5,-440.979736328125,0.025100000202655792,0,0.0,0.0,,,,,0,,1
Raw,69604610,69609293000000,,,-1168647039304730368,0.0,1.5005757331848145E7,-1.9531249475624988,316.8858904382445,10,32,0.0,15,243048521176131,8,36.7,-189.83468627929688,0.022700000554323196,0,0.0,0.0,,,,,0,,1
Raw,69605604,69610293000000,,,-1168647039304730368,0.0,1.5006071090698242E7,0.0,316.8858904382445,10,25,0.0,15,243049522668570,9,35.2,-440.87945556640625,0.02460000105202198,0,0.0,0.0,,,,,0,,1
Raw,69605608,69610293000000,,,-1168647039304730368,0.0,1.5006071090698242E7,0.0,316.8858904382445,10,32,0.0,15,243049521176754,8,36.5,-189.74026489257812,0.022700000554323196,0,0.0,0.0,,,,,0,,1
Raw,69606608,69611293000000,,,-1168647039304730368,0.0,1.500638484954834E7,-0.9765624737812494,316.8858904382445,10,25,0.0,15,243050522670044,10,34.6,-440.6728515625,0.025100000202655792,0,0.0,0.0,,,,,0,,1
Raw,69606609,69611293000000,,,-1168647039304730368,0.0,1.500638484954834E7,-0.9765624737812494,316.8858904382445,10,32,0.0,15,243050521177387,8,36.5,-189.4258575439453,0.022700000554323196,0,0.0,0.0,,,,,0,,1
Raw,69607608,69612293000000,,,-1168647039304730624,0.0,1.5005745887756348E7,-0.9765624737812494,316.8858904382445,10,25,0.0,15,243051522671515,9,35.3,-440.90313720703125,0.02460000105202198,0,0.0,0.0,,,,,0,,1
Raw,69607610,69612293000000,,,-1168647039304730624,0.0,1.5005745887756348E7,-0.9765624737812494,316.8858904382445,10,32,0.0,15,243051521178028,8,36.4,-189.62025451660156,0.022700000554323196,0,0.0,0.0,,,,,0,,1
Raw,69608621,69613293000000,,,-1168647039304730624,0.0,1.5006059646606445E7,0.9765624737812494,316.8858904382445,10,25,0.0,15,243052522672972,9,35.9,-440.60186767578125,0.02460000105202198,0,0.0,0.0,,,,,0,,1
Raw,69608624,69613293000000,,,-1168647039304730624,0.0,1.5006059646606445E7,0.9765624737812494,316.8858904382445,10,32,0.0,15,243052521178670,8,36.4,-189.31851196289062,0.022700000554323196,0,0.0,0.0,,,,,0,,1
Raw,69609608,69614293000000,,,-1168647039304730624,0.0,1.5006373405456543E7,0.0,316.8858904382445,10,25,0.0,15,243053522674460,9,35.1,-440.40704345703125,0.02460000105202198,0,0.0,0.0,,,,,0,,1
Raw,69609611,69614293000000,,,-1168647039304730624,0.0,1.5006373405456543E7,0.0,316.8858904382445,10,32,0.0,15,243053521179292,9,35.5,-189.0023956298828,0.023100001737475395,0,0.0,0.0,,,,,0,,1
Raw,69610607,69615293000000,,,-1168647039304731904,0.0,1.5005743026733398E7,-2.9296873219339012,316.8858904382445,10,25,0.0,15,243054522675930,9,35.9,-440.9974060058594,0.02460000105202198,0,0.0,0.0,,,,,0,,1
Raw,69610608,69615293000000,,,-1168647039304731904,0.0,1.5005743026733398E7,-2.9296873219339012,316.8858904382445,10,32,0.0,15,243054521179924,8,36.0,-189.61546325683594,0.022700000554323196,0,0.0,0.0,,,,,0,,1
Raw,69611606,69616293000000,,,-1168647039304731904,0.0,1.5006056785583496E7,-1.9531249475624988,316.8858904382445,10,25,0.0,15,243055522677389,6,38.0,-440.6077880859375,0.023099999874830246,0,0.0,0.0,,,,,0,,1
Raw,69611609,69616293000000,,,-1168647039304731904,0.0,1.5006056785583496E7,-1.9531249475624988,316.8858904382445,10,32,0.0,15,243055521180540,8,36.2,-189.1436767578125,0.022700000554323196,0,0.0,0.0,,,,,0,,1
Raw,69612609,69617293000000,,,-1168647039304732160,0.0,1.5006038665771484E7,-0.9765624737812494,316.8858904382445,10,25,0.0,15,243056522678863,7,37.5,-440.5064697265625,0.023600000888109207,0,0.0,0.0,,,,,0,,1
Raw,69612612,69617293000000,,,-1168647039304732160,0.0,1.5006038665771484E7,-0.9765624737812494,316.8858904382445,10,32,0.0,15,243056521181194,8,36.0,-188.98060607910156,0.022700000554323196,0,0.0,0.0,,,,,0,,1
Raw,69613615,69618293000000,,,-1168647039304732160,0.0,1.5006352424621582E7,-1.9531249475624988,316.8858904382445,10,25,0.0,15,243057522680330,7,37.6,-440.6461181640625,0.023600000888109207,0,0.0,0.0,,,,,0,,1
Raw,69613616,69618293000000,,,-1168647039304732160,0.0,1.5006352424621582E7,-1.9531249475624988,316.8858904382445,10,32,0.0,15,243057521181816,8,36.2,-189.02871704101562,0.022700000554323196,0,0.0,0.0,,,,,0,,1
Raw,69614616,69619293000000,,,-1168647039304732160,0.0,1.500666618347168E7,-0.9765624737812494,316.8858904382445,10,25,0.0,15,243058522681797,7,37.5,-440.2716369628906,0.023600000888109207,0,0.0,0.0,,,,,0,,1
Raw,69614617,69619293000000,,,-1168647039304732160,0.0,1.500666618347168E7,-0.9765624737812494,316.8858904382445,10,32,0.0,15,243058521182453,8,36.4,-188.6607208251953,0.022700000554323196,0,0.0,0.0,,,,,0,,1
Raw,69615607,69620293000000,,,-1168647039304731136,0.0,1.5006031036376953E7,1.9531249475624988,316.8858904382445,10,25,0.0,15,243059522683272,7,37.4,-439.80267333984375,0.023600000888109207,0,0.0,0.0,,,,,0,,1
Raw,69615609,69620293000000,,,-1168647039304731136,0.0,1.5006031036376953E7,1.9531249475624988,316.8858904382445,10,32,0.0,15,243059521183074,9,35.9,-188.22283935546875,0.023100001737475395,0,0.0,0.0,,,,,0,,1
Raw,69616607,69621293000000,,,-1168647039304731136,0.0,1.500634479522705E7,-0.9765624737812494,316.8858904382445,10,25,0.0,15,243060522684741,7,37.5,-440.4385070800781,0.023600000888109207,0,0.0,0.0,,,,,0,,1
Raw,69616609,69621293000000,,,-1168647039304731136,0.0,1.500634479522705E7,-0.9765624737812494,316.8858904382445,10,32,0.0,15,243060521183696,8,36.3,-188.68443298339844,0.022700000554323196,0,0.0,0.0,,,,,0,,1
Raw,69617608,69622293000000,,,-1168647039304731904,0.0,1.5006332397460938E7,-2.9296873219339012,316.8858904382445,10,25,0.0,15,243061522686218,7,37.2,-440.74517822265625,0.023600000888109207,0,0.0,0.0,,,,,0,,1
Raw,69617611,69622293000000,,,-1168647039304731904,0.0,1.5006332397460938E7,-2.9296873219339012,316.8858904382445,10,32,0.0,15,243061521184332,8,36.0,-189.00367736816406,0.022700000554323196,0,0.0,0.0,,,,,0,,1
Raw,69618608,69623293000000,,,-1168647039304731904,0.0,1.5006646156311035E7,-0.9765624737812494,316.8858904382445,10,25,0.0,15,243062522687687,7,37.2,-440.7958984375,0.023600000888109207,0,0.0,0.0,,,,,0,,1
Raw,69618610,69623293000000,,,-1168647039304731904,0.0,1.5006646156311035E7,-0.9765624737812494,316.8858904382445,10,32,0.0,15,243062521184963,8,36.0,-188.9772491455078,0.022700000554323196,0,0.0,0.0,,,,,0,,1
Raw,69619615,69624293000000,,,-1168647039304731904,0.0,1.5006959915161133E7,-0.9765624737812494,316.8858904382445,10,25,0.0,15,243063522689153,8,36.7,-439.7096252441406,0.02419999986886978,0,0.0,0.0,,,,,0,,1
Raw,69619617,69624293000000,,,-1168647039304731904,0.0,1.5006959915161133E7,-0.9765624737812494,316.8858904382445,10,32,0.0,15,243063521185584,9,35.7,-187.86221313476562,0.023100001737475395,0,0.0,0.0,,,,,0,,1
Raw,69620611,69625293000000,,,-1168647039304732160,0.0,1.500632095336914E7,0.0,316.8858904382445,10,25,0.0,15,243064522690612,7,37.4,-439.3773498535156,0.023600000888109207,0,0.0,0.0,,,,,0,,1
Raw,69620614,69625293000000,,,-1168647039304732160,0.0,1.500632095336914E7,0.0,316.8858904382445,10,32,0.0,15,243064521186207,8,36.6,-187.4585723876953,0.022700000554323196,0,0.0,0.0,,,,,0,,1
Raw,69621616,69626293000000,,,-1168647039304732160,0.0,1.5006634712219238E7,0.9765624737812494,316.8858904382445,10,25,0.0,15,243065522692088,8,36.6,-439.10455322265625,0.02419999986886978,0,0.0,0.0,,,,,0,,1
Raw,69621618,69626293000000,,,-1168647039304732160,0.0,1.5006634712219238E7,0.9765624737812494,316.8858904382445,10,32,0.0,15,243065521186843,8,36.2,-187.12216186523438,0.022700000554323196,0,0.0,0.0,,,,,0,,1
Raw,69622610,69627293000000,,,-1168647039304732928,0.0,1.500662612915039E7,-1.9531249475624988,316.8858904382445,10,25,0.0,15,243066522693550,8,36.9,-439.41534423828125,0.02419999986886978,0,0.0,0.0,,,,,0,,1
Raw,69622613,69627293000000,,,-1168647039304732928,0.0,1.500662612915039E7,-1.9531249475624988,316.8858904382445,10,32,0.0,15,243066521187469,8,36.1,-187.4224853515625,0.022700000554323196,0,0.0,0.0,,,,,0,,1
Raw,69623599,69628293000000,,,-1168647039304732928,0.0,1.5006939888000488E7,-4.882812468316094,316.8858904382445,10,25,0.0,15,243067522695028,7,37.2,-439.7022705078125,0.023600000888109207,0,0.0,0.0,,,,,0,,1
Raw,69623601,69628293000000,,,-1168647039304732928,0.0,1.5006939888000488E7,-4.882812468316094,316.8858904382445,10,32,0.0,15,243067521188093,8,36.2,-187.64707946777344,0.022700000554323196,0,0.0,0.0,,,,,0,,1
Raw,69624621,69629293000000,,,-1168647039304732928,0.0,1.5007253646850586E7,-2.9296873219339012,316.8858904382445,10,25,0.0,15,243068522696483,8,36.9,-439.5817565917969,0.02419999986886978,0,0.0,0.0,,,,,0,,1
Raw,69624624,69629293000000,,,-1168647039304732928,0.0,1.5007253646850586E7,-2.9296873219339012,316.8858904382445,10,32,0.0,15,243068521188717,8,36.0,-187.4861602783203,0.022700000554323196,0,0.0,0.0,,,,,0,,1
Raw,69625607,69630293000000,,,-1168647039304733696,0.0,1.5006614685058594E7,-2.9296873219339012,316.8858904382445,10,25,0.0,15,243069522697949,7,37.1,-439.51806640625,0.023600000888109207,0,0.0,0.0,,,,,0,,1
Raw,69625609,69630293000000,,,-1168647039304733696,0.0,1.5006614685058594E7,-2.9296873219339012,316.8858904382445,10,32,0.0,15,243069521189339,8,36.0,-187.3750457763672,0.022700000554323196,0,0.0,0.0,,,,,0,,1
Raw,69626620,69631293000000,,,-1168647039304733696,0.0,1.5006928443908691E7,-3.9062498951249975,316.8858904382445,10,25,0.0,15,243070522699421,7,37.1,-440.4859924316406,0.023600000888109207,0,0.0,0.0,,,,,0,,1
Raw,69626622,69631293000000,,,-1168647039304733696,0.0,1.5006928443908691E7,-3.9062498951249975,316.8858904382445,10,32,0.0,15,243070521189975,8,36.4,-188.30763244628906,0.022700000554323196,0,0.0,0.0,,,,,0,,1
Raw,69627606,69632293000000,,,-1168647039304732160,0.0,1.5006919860839844E7,-1.9531249475624988,316.8858904382445,10,25,0.0,15,243071522700888,8,36.7,-438.9266052246094,0.02419999986886978,0,0.0,0.0,,,,,0,,1
Raw,69627608,69632293000000,,,-1168647039304732160,0.0,1.5006919860839844E7,-1.9531249475624988,316.8858904382445,10,32,0.0,15,243071521190599,8,36.5,-186.64773559570312,0.022700000554323196,0,0.0,0.0,,,,,0,,1
Raw,69628600,69633293000000,,,-1168647039304732160,0.0,1.5007233619689941E7,-1.9531249475624988,316.8858904382445,10,25,0.0,15,243072522702338,9,35.8,-438.0630798339844,0.02460000105202198,0,0.0,0.0,,,,,0,,1
Raw,69628601,69633293000000,,,-1168647039304732160,0.0,1.5007233619689941E7,-1.9531249475624988,316.8858904382445,10,32,0.0,15,243072521191213,9,35.5,-185.8054656982422,0.023100001737475395,0,0.0,0.0,,,,,0,,1
Raw,69629614,69634293000000,,,-1168647039304732160,0.0,1.5007547378540039E7,-5.8593746438678025,316.8858904382445,10,25,0.0,15,243073522703813,11,33.1,-439.2215881347656,0.02590000070631504,0,0.0,0.0,,,,,0,,1
Raw,69629616,69634293000000,,,-1168647039304732160,0.0,1.5007547378540039E7,-5.8593746438678025,316.8858904382445,10,32,0.0,15,243073521191850,10,34.6,-186.84832763671875,0.023600000888109207,0,0.0,0.0,,,,,0,,1
Raw,69630616,69635293000000,,,-1168647039304732416,0.0,1.5006908416748047E7,-8.789062363441092,316.8858904382445,10,25,0.0,15,243074522705291,11,33.8,-441.9953308105469,0.02590000070631504,0,0.0,0.0,,,,,0,,1
Raw,69630619,69635293000000,,,-1168647039304732416,0.0,1.5006908416748047E7,-8.789062363441092,316.8858904382445,10,32,0.0,15,243074521192475,9,35.4,-189.63172912597656,0.023100001737475395,0,0.0,0.0,,,,,0,,1
Raw,69631612,69636293000000,,,-1168647039304732416,0.0,1.5007222175598145E7,-5.8593746438678025,316.8858904382445,10,25,0.0,15,243075522706757,10,34.5,-439.7230529785156,0.025100000202655792,0,0.0,0.0,,,,,0,,1
Raw,69631613,69636293000000,,,-1168647039304732416,0.0,1.5007222175598145E7,-5.8593746438678025,316.8858904382445,10,32,0.0,15,243075521193092,8,36.0,-187.29403686523438,0.022700000554323196,0,0.0,0.0,,,,,0,,1
Raw,69632617,69637293000000,,,-1168647039304732416,0.0,1.5007535934448242E7,-8.789062363441092,316.8858904382445,10,25,0.0,15,243076522708217,10,34.4,-440.4832458496094,0.025100000202655792,0,0.0,0.0,,,,,0,,1
Raw,69632619,69637293000000,,,-1168647039304732416,0.0,1.5007535934448242E7,-8.789062363441092,316.8858904382445,10,32,0.0,15,243076521193739,8,36.0,-187.98719787597656,0.022700000554323196,0,0.0,0.0,,,,,0,,1
Raw,69633625,69638293000000,,,-1168647039304732672,0.0,1.50068998336792E7,0.0,316.8858904382445,10,25,0.0,15,243077522709684,10,34.9,-438.2613220214844,0.025100000202655792,0,0.0,0.0,,,,,0,,1
Raw,69633628,69638293000000,,,-1168647039304732672,0.0,1.50068998336792E7,0.0,316.8858904382445,10,32,0.0,15,243077521194351,8,36.3,-185.68048095703125,0.022700000554323196,0,0.0,0.0,,,,,0,,1
Raw,69634616,69639293000000,,,-1168647039304732672,0.0,1.5007213592529297E7,0.0,316.8858904382445,10,25,0.0,15,243078522711149,9,35.3,-435.88470458984375,0.02460000105202198,0,0.0,0.0,,,,,0,,1
Raw,69634619,69639293000000,,,-1168647039304732672,0.0,1.5007213592529297E7,0.0,316.8858904382445,10,32,0.0,15,243078521194971,8,36.2,-183.1962127685547,0.022700000554323196,0,0.0,0.0,,,,,0,,1
Raw,69635617,69640293000000,,,-1168647039304732416,0.0,1.50072021484375E7,2.9296873219339012,316.8858904382445,10,25,0.0,15,243079522712611,9,35.0,-436.01544189453125,0.02460000105202198,0,0.0,0.0,,,,,0,,1
Raw,69635618,69640293000000,,,-1168647039304732416,0.0,1.50072021484375E7,2.9296873219339012,316.8858904382445,10,32,0.0,15,243079521195590,8,36.4,-183.35008239746094,0.022700000554323196,0,0.0,0.0,,,,,0,,1
Raw,69636607,69641293000000,,,-1168647039304732416,0.0,1.5007515907287598E7,0.9765624737812494,316.8858904382445,10,25,0.0,15,243080522714058,9,35.6,-436.2919006347656,0.02460000105202198,0,0.0,0.0,,,,,0,,1
Raw,69636609,69641293000000,,,-1168647039304732416,0.0,1.5007515907287598E7,0.9765624737812494,316.8858904382445,10,32,0.0,15,243080521196194,8,36.7,-183.55340576171875,0.022700000554323196,0,0.0,0.0,,,,,0,,1
Raw,69637616,69642293000000,,,-1168647039304732416,0.0,1.5007829666137695E7,-1.9531249475624988,316.8858904382445,10,25,0.0,15,243081522715520,9,35.1,-437.513916015625,0.02460000105202198,0,0.0,0.0,,,,,0,,1
Raw,69637618,69642293000000,,,-1168647039304732416,0.0,1.5007829666137695E7,-1.9531249475624988,316.8858904382445,10,32,0.0,15,243081521196805,8,36.2,-184.71766662597656,0.022700000554323196,0,0.0,0.0,,,,,0,,1
Raw,69638606,69643293000000,,,-1168647039304732928,0.0,1.5007193565368652E7,-3.9062498951249975,316.8858904382445,10,25,0.0,15,243082522716988,10,34.9,-437.78839111328125,0.025100000202655792,0,0.0,0.0,,,,,0,,1
Raw,69638608,69643293000000,,,-1168647039304732928,0.0,1.5007193565368652E7,-3.9062498951249975,316.8858904382445,10,32,0.0,15,243082521197412,8,36.0,-185.0108184814453,0.022700000554323196,0,0.0,0.0,,,,,0,,1
Raw,69639607,69644293000000,,,-1168647039304732928,0.0,1.500750732421875E7,-2.9296873219339012,316.8858904382445,10,25,0.0,15,243083522718440,9,35.3,-436.52911376953125,0.02460000105202198,0,0.0,0.0,,,,,0,,1
Raw,69639609,69644293000000,,,-1168647039304732928,0.0,1.500750732421875E7,-2.9296873219339012,316.8858904382445,10,32,0.0,15,243083521198050,10,34.9,-183.73724365234375,0.023600000888109207,0,0.0,0.0,,,,,0,,1
Raw,69640608,69645293000000,,,-1168647039304729600,0.0,1.5007495880126953E7,-0.9765624737812494,316.8858904382445,10,25,0.0,15,243084522719896,10,34.9,-437.35321044921875,0.025100000202655792,0,0.0,0.0,,,,,0,,1
Raw,69640609,69645293000000,,,-1168647039304729600,0.0,1.5007495880126953E7,-0.9765624737812494,316.8858904382445,10,32,0.0,15,243084521198657,10,34.4,-184.4640350341797,0.023600000888109207,0,0.0,0.0,,,,,0,,1
Raw,69641615,69646293000000,,,-1168647039304729600,0.0,1.500780963897705E7,-1.9531249475624988,316.8858904382445,10,25,0.0,15,243085522721357,9,35.4,-436.7607727050781,0.02460000105202198,0,0.0,0.0,,,,,0,,1
Raw,69641616,69646293000000,,,-1168647039304729600,0.0,1.500780963897705E7,-1.9531249475624988,316.8858904382445,10,32,0.0,15,243085521199269,9,35.5,-183.80975341796875,0.023100001737475395,0,0.0,0.0,,,,,0,,1
Raw,69642615,69647293000000,,,-1168647039304729600,0.0,1.5008123397827148E7,0.9765624737812494,316.8858904382445,10,25,0.0,15,243086522722827,9,35.9,-436.5701904296875,0.02460000105202198,0,0.0,0.0,,,,,0,,1
Raw,69642617,69647293000000,,,-1168647039304729600,0.0,1.5008123397827148E7,0.9765624737812494,316.8858904382445,10,32,0.0,15,243086521199889,9,35.6,-183.51661682128906,0.023100001737475395,0,0.0,0.0,,,,,0,,1
Raw,69643606,69648293000000,,,-1168647039304732416,0.0,1.500748348236084E7,0.9765624737812494,316.8858904382445,10,25,0.0,15,243087522724276,9,35.6,-435.80584716796875,0.02460000105202198,0,0.0,0.0,,,,,0,,1
Raw,69643608,69648293000000,,,-1168647039304732416,0.0,1.500748348236084E7,0.9765624737812494,316.8858904382445,10,32,0.0,15,243087521200490,10,34.9,-182.80487060546875,0.023600000888109207,0,0.0,0.0,,,,,0,,1
Raw,69644616,69649293000000,,,-1168647039304732416,0.0,1.5007797241210938E7,0.9765624737812494,316.8858904382445,10,25,0.0,15,243088522725723,9,35.8,-436.353759765625,0.02460000105202198,0,0.0,0.0,,,,,0,,1
Raw,69644619,69649293000000,,,-1168647039304732416,0.0,1.5007797241210938E7,0.9765624737812494,316.8858904382445,10,32,0.0,15,243088521201106,9,35.4,-183.19908142089844,0.023100001737475395,0,0.0,0.0,,,,,0,,1
Raw,69645617,69650293000000,,,-1168647039304732160,0.0,1.500778865814209E7,-0.9765624737812494,316.8858904382445,10,25,0.0,15,243089522727182,9,35.5,-436.62310791015625,0.02460000105202198,0,0.0,0.0,,,,,0,,1
Raw,69645619,69650293000000,,,-1168647039304732160,0.0,1.500778865814209E7,-0.9765624737812494,316.8858904382445,10,32,0.0,15,243089521201717,9,35.2,-183.4338836669922,0.023100001737475395,0,0.0,0.0,,,,,0,,1
Raw,69646619,69651293000000,,,-1168647039304732160,0.0,1.5008102416992188E7,-2.9296873219339012,316.8858904382445,10,25,0.0,15,243090522728637,9,35.5,-437.73431396484375,0.02460000105202198,0,0.0,0.0,,,,,0,,1
Raw,69646621,69651293000000,,,-1168647039304732160,0.0,1.5008102416992188E7,-2.9296873219339012,316.8858904382445,10,32,0.0,15,243090521202334,9,35.3,-184.50314331054688,0.023100001737475395,0,0.0,0.0,,,,,0,,1
Raw,69647606,69652293000000,,,-1168647039304732160,0.0,1.5008416175842285E7,-2.9296873219339012,316.8858904382445,10,25,0.0,15,243091522730105,10,34.8,-437.1220397949219,0.025100000202655792,0,0.0,0.0,,,,,0,,1
Raw,69647609,69652293000000,,,-1168647039304732160,0.0,1.5008416175842285E7,-2.9296873219339012,316.8858904382445,10,32,0.0,15,243091521202959,10,34.9,-183.85958862304688,0.023600000888109207,0,0.0,0.0,,,,,0,,1
Raw,69648607,69653293000000,,,-1168647039304731904,0.0,1.5007777214050293E7,-0.9765624737812494,316.8858904382445,10,25,0.0,15,243092522731564,9,35.0,-436.77459716796875,0.02460000105202198,0,0.0,0.0,,,,,0,,1
Raw,69648609,69653293000000,,,-1168647039304731904,0.0,1.5007777214050293E7,-0.9765624737812494,316.8858904382445,10,32,0.0,15,243092521203559,9,35.1,-183.42630004882812,0.023100001737475395,0,0.0,0.0,,,,,0,,1
Raw,69649605,69654293000000,,,-1168647039304731904,0.0,1.500809097290039E7,-1.9531249475624988,316.8858904382445,10,25,0.0,15,243093522733017,9,35.2,-436.5329895019531,0.02460000105202198,0,0.0,0.0,,,,,0,,1
Raw,69649607,69654293000000,,,-1168647039304731904,0.0,1.500809097290039E7,-1.9531249475624988,316.8858904382445,10,32,0.0,15,243093521204170,9,35.0,-183.1442413330078,0.023100001737475395,0,0.0,0.0,,,,,0,,1
Raw,69650614,69655293000000,,,-1168647039304732160,0.0,1.5008082389831543E7,-0.9765624737812494,316.8858904382445,10,25,0.0,15,243094522734484,10,34.4,-436.89959716796875,0.025100000202655792,0,0.0,0.0,,,,,0,,1
Raw,69650616,69655293000000,,,-1168647039304732160,0.0,1.5008082389831543E7,-0.9765624737812494,316.8858904382445,10,32,0.0,15,243094521204779,10,34.7,-183.45359802246094,0.023600000888109207,0,0.0,0.0,,,,,0,,1
Raw,69651614,69656293000000,,,-1168647039304732160,0.0,1.500839614868164E7,-0.9765624737812494,316.8858904382445,10,25,0.0,15,243095522735929,10,34.6,-436.8700866699219,0.025100000202655792,0,0.0,0.0,,,,,0,,1
Raw,69651616,69656293000000,,,-1168647039304732160,0.0,1.500839614868164E7,-0.9765624737812494,316.8858904382445,10,32,0.0,15,243095521205401,9,35.1,-183.40609741210938,0.023100001737475395,0,0.0,0.0,,,,,0,,1
Raw,69652612,69657293000000,,,-1168647039304732160,0.0,1.5008709907531738E7,-1.9531249475624988,316.8858904382445,10,25,0.0,15,243096522737386,10,34.3,-436.92816162109375,0.025100000202655792,0,0.0,0.0,,,,,0,,1
Raw,69652614,69657293000000,,,-1168647039304732160,0.0,1.5008709907531738E7,-1.9531249475624988,316.8858904382445,10,32,0.0,15,243096521206001,9,35.1,-183.4335479736328,0.023100001737475395,0,0.0,0.0,,,,,0,,1
Raw,69653607,69658293000000,,,-1168647039304731904,0.0,1.5008070945739746E7,-2.9296873219339012,316.8858904382445,10,25,0.0,15,243097522738848,10,34.2,-437.2728271484375,0.025100000202655792,0,0.0,0.0,,,,,0,,1
Raw,69653609,69658293000000,,,-1168647039304731904,0.0,1.5008070945739746E7,-2.9296873219339012,316.8858904382445,10,32,0.0,15,243097521206613,10,34.9,-183.75257873535156,0.023600000888109207,0,0.0,0.0,,,,,0,,1
Raw,69654608,69659293000000,,,-1168647039304731904,0.0,1.5008384704589844E7,-4.882812468316094,316.8858904382445,10,25,0.0,15,243098522740312,10,34.0,-436.530517578125,0.025100000202655792,0,0.0,0.0,,,,,0,,1
Raw,69654611,69659293000000,,,-1168647039304731904,0.0,1.5008384704589844E7,-4.882812468316094,316.8858904382445,10,32,0.0,15,243098521207240,9,35.2,-182.88995361328125,0.023100001737475395,0,0.0,0.0,,,,,0,,1
Raw,69655609,69660293000000,,,-1168647039304731904,0.0,1.5008698463439941E7,-2.9296873219339012,316.8858904382445,10,25,0.0,15,243099522741766,10,34.0,-436.6409912109375,0.025100000202655792,0,0.0,0.0,,,,,0,,1
Raw,69655613,69660293000000,,,-1168647039304731904,0.0,1.5008698463439941E7,-2.9296873219339012,316.8858904382445,10,32,0.0,15,243099521207844,10,34.9,-182.94256591796875,0.023600000888109207,0,0.0,0.0,,,,,0,,1
Raw,69656617,69661293000000,,,-1168647039304731392,0.0,1.5008063316345215E7,-0.9765624737812494,316.8858904382445,10,25,0.0,15,243100522743231,11,33.7,-436.0616760253906,0.02590000070631504,0,0.0,0.0,,,,,0,,1
Raw,69656618,69661293000000,,,-1168647039304731392,0.0,1.5008063316345215E7,-0.9765624737812494,316.8858904382445,10,32,0.0,15,243100521208456,9,35.1,-182.40603637695312,0.023100001737475395,0,0.0,0.0,,,,,0,,1
Raw,69657611,69662293000000,,,-1168647039304731392,0.0,1.5008377075195312E7,0.0,316.8858904382445,10,25,0.0,15,243101522744685,11,33.3,-435.99969482421875,0.02590000070631504,0,0.0,0.0,,,,,0,,1
Raw,69657613,69662293000000,,,-1168647039304731392,0.0,1.5008377075195312E7,0.0,316.8858904382445,10,32,0.0,15,243101521209052,10,34.9,-182.22784423828125,0.023600000888109207,0,0.0,0.0,,,,,0,,1
Raw,69658618,69663293000000,,,-1168647039304732160,0.0,1.50083646774292E7,0.0,316.8858904382445,10,25,0.0,15,243102522746133,10,34.3,-436.0542297363281,0.025100000202655792,0,0.0,0.0,,,,,0,,1
Raw,69658619,69663293000000,,,-1168647039304732160,0.0,1.50083646774292E7,0.0,316.8858904382445,10,32,0.0,15,243102521209671,9,35.2,-182.25094604492188,0.023100001737475395,0,0.0,0.0,,,,,0,,1
Raw,69659608,69664293000000,,,-1168647039304732160,0.0,1.5008678436279297E7,0.9765624737812494,316.8858904382445,10,25,0.0,15,243103522747582,11,33.1,-435.4759521484375,0.02590000070631504,0,0.0,0.0,,,,,0,,1
Raw,69659610,69664293000000,,,-1168647039304732160,0.0,1.5008678436279297E7,0.9765624737812494,316.8858904382445,10,32,0.0,15,243103521210274,10,34.7,-181.61671447753906,0.023600000888109207,0,0.0,0.0,,,,,0,,1
Raw,69660606,69665293000000,,,-1168647039304732160,0.0,1.5008992195129395E7,1.9531249475624988,316.8858904382445,10,25,0.0,15,243104522749047,12,32.9,-435.69720458984375,0.026900000870227814,0,0.0,0.0,,,,,0,,1
Raw,69660608,69665293000000,,,-1168647039304732160,0.0,1.5008992195129395E7,1.9531249475624988,316.8858904382445,10,32,0.0,15,243104521210873,9,35.2,-181.81893920898438,0.023100001737475395,0,0.0,0.0,,,,,0,,1
Raw,69661616,69666293000000,,,-1168647039304732416,0.0,1.5008353233337402E7,3.9062498951249975,316.8858904382445,10,25,0.0,15,243105522750508,11,33.3,-435.4198303222656,0.02590000070631504,0,0.0,0.0,,,,,0,,1
Raw,69661618,69666293000000,,,-1168647039304732416,0.0,1.5008353233337402E7,3.9062498951249975,316.8858904382445,10,32,0.0,15,243105521211489,9,35.3,-181.42501831054688,0.023100001737475395,0,0.0,0.0,,,,,0,,1
Raw,69662608,69667293000000,,,-1168647039304732416,0.0,1.50086669921875E7,0.9765624737812494,316.8858904382445,10,25,0.0,15,243106522751956,12,32.9,-435.324462890625,0.026900000870227814,0,0.0,0.0,,,,,0,,1
Raw,69662611,69667293000000,,,-1168647039304732416,0.0,1.50086669921875E7,0.9765624737812494,316.8858904382445,10,32,0.0,15,243106521212082,9,35.3,-181.3240203857422,0.023100001737475395,0,0.0,0.0,,,,,0,,1
Raw,69663618,69668293000000,,,-1168647039304732928,0.0,1.5008658409118652E7,1.9531249475624988,316.8858904382445,10,25,0.0,15,243107522753419,12,32.7,-435.8622741699219,0.026900000870227814,0,0.0,0.0,,,,,0,,1
Raw,69663620,69668293000000,,,-1168647039304732928,0.0,1.5008658409118652E7,1.9531249475624988,316.8858904382445,10,32,0.0,15,243107521212688,9,35.8,-181.76844787597656,0.023100001737475395,0,0.0,0.0,,,,,0,,1
Raw,69664609,69669293000000,,,-1168647039304732928,0.0,1.500897216796875E7,0.9765624737812494,316.8858904382445,10,25,0.0,15,243108522754889,12,32.7,-435.93798828125,0.026900000870227814,0,0.0,0.0,,,,,0,,1
Raw,69664612,69669293000000,,,-1168647039304732928,0.0,1.500897216796875E7,0.9765624737812494,316.8858904382445,10,32,0.0,15,243108521213304,9,35.3,-181.74559020996094,0.023100001737475395,0,0.0,0.0,,,,,0,,1
Raw,69665607,69670293000000,,,-1168647039304732928,0.0,1.5009285926818848E7,0.0,316.8858904382445,10,25,0.0,15,243109522756334,12,32.4,-435.8630065917969,0.026900000870227814,0,0.0,0.0,,,,,0,,1
Raw,69665608,69670293000000,,,-1168647039304732928,0.0,1.5009285926818848E7,0.0,316.8858904382445,10,32,0.0,15,243109521213929,9,35.5,-181.64002990722656,0.023100001737475395,0,0.0,0.0,,,,,0,,1
Raw,69666615,69671293000000,,,-1168647039304731392,0.0,1.5008646965026855E7,-0.9765624737812494,316.8858904382445,10,25,0.0,15,243110522757791,12,32.8,-436.4349060058594,0.026900000870227814,0,0.0,0.0,,,,,0,,1
Raw,69666617,69671293000000,,,-1168647039304731392,0.0,1.5008646965026855E7,-0.9765624737812494,316.8858904382445,10,32,0.0,15,243110521214519,9,35.4,-182.19960021972656,0.023100001737475395,0,0.0,0.0,,,,,0,,1
Raw,69667607,69672293000000,,,-1168647039304731392,0.0,1.5008960723876953E7,-0.9765624737812494,316.8858904382445,10,25,0.0,15,243111522759238,11,33.5,-436.14141845703125,0.02590000070631504,0,0.0,0.0,,,,,0,,1
Raw,69667611,69672293000000,,,-1168647039304731392,0.0,1.5008960723876953E7,-0.9765624737812494,316.8858904382445,10,32,0.0,15,243111521215131,9,35.1,-181.8793487548828,0.023100001737475395,0,0.0,0.0,,,,,0,,1
Raw,69668609,69673293000000,,,-1168647039304733184,0.0,1.5008952140808105E7,0.0,316.8858904382445,10,25,0.0,15,243112522760687,11,33.1,-435.88006591796875,0.02590000070631504,0,0.0,0.0,,,,,0,,1
Raw,69668611,69673293000000,,,-1168647039304733184,0.0,1.5008952140808105E7,0.0,316.8858904382445,10,32,0.0,15,243112521215748,10,34.7,-181.51849365234375,0.023600000888109207,0,0.0,0.0,,,,,0,,1
Raw,69669607,69674293000000,,,-1168647039304733184,0.0,1.5009265899658203E7,-0.9765624737812494,316.8858904382445,10,25,0.0,15,243113522762134,12,32.7,-436.1642761230469,0.026900000870227814,0,0.0,0.0,,,,,0,,1
Raw,69669609,69674293000000,,,-1168647039304733184,0.0,1.5009265899658203E7,-0.9765624737812494,316.8858904382445,10,32,0.0,15,243113521216344,9,35.3,-181.84169006347656,0.023100001737475395,0,0.0,0.0,,,,,0,,1
Raw,69670615,69675293000000,,,-1168647039304733184,0.0,1.50095796585083E7,-0.9765624737812494,316.8858904382445,10,25,0.0,15,243114522763604,12,32.1,-436.2439270019531,0.026900000870227814,0,0.0,0.0,,,,,0,,1
Raw,69670617,69675293000000,,,-1168647039304733184,0.0,1.50095796585083E7,-0.9765624737812494,316.8858904382445,10,32,0.0,15,243114521216951,9,35.4,-181.8480682373047,0.023100001737475395,0,0.0,0.0,,,,,0,,1
Raw,69671606,69676293000000,,,-1168647039304733696,0.0,1.5008940696716309E7,-0.9765624737812494,316.8858904382445,10,25,0.0,15,243115522765062,12,32.0,-436.1209411621094,0.026900000870227814,0,0.0,0.0,,,,,0,,1
Raw,69671609,69676293000000,,,-1168647039304733696,0.0,1.5008940696716309E7,-0.9765624737812494,316.8858904382445,10,32,0.0,15,243115521217558,9,35.0,-181.63011169433594,0.023100001737475395,0,0.0,0.0,,,,,0,,1
Raw,69672614,69677293000000,,,-1168647039304733696,0.0,1.5009254455566406E7,-3.9062498951249975,316.8858904382445,10,25,0.0,15,243116522766491,13,31.5,-435.78125,0.028200000524520874,0,0.0,0.0,,,,,0,,1
Raw,69672616,69677293000000,,,-1168647039304733696,0.0,1.5009254455566406E7,-3.9062498951249975,316.8858904382445,10,32,0.0,15,243116521218166,9,35.4,-181.2348175048828,0.023100001737475395,0,0.0,0.0,,,,,0,,1
Raw,69673606,69678293000000,,,-1168647039304733696,0.0,1.5009568214416504E7,-3.9062498951249975,316.8858904382445,10,25,0.0,15,243117522767984,13,31.4,-437.0346374511719,0.028200000524520874,0,0.0,0.0,,,,,0,,1
Raw,69673608,69678293000000,,,-1168647039304733696,0.0,1.5009568214416504E7,-3.9062498951249975,316.8858904382445,10,32,0.0,15,243117521218754,9,35.3,-182.39944458007812,0.023100001737475395,0,0.0,0.0,,,,,0,,1
Raw,69674608,69679293000000,,,-1168647039304732672,0.0,1.5008932113647461E7,-1.9531249475624988,316.8858904382445,10,25,0.0,15,243118522769437,14,30.9,-436.06048583984375,0.02879999950528145,0,0.0,0.0,,,,,0,,1
Raw,69674610,69679293000000,,,-1168647039304732672,0.0,1.5008932113647461E7,-1.9531249475624988,316.8858904382445,10,32,0.0,15,243118521219385,9,35.2,-181.41665649414062,0.023100001737475395,0,0.0,0.0,,,,,0,,1
Raw,69675607,69680293000000,,,-1168647039304732672,0.0,1.5009245872497559E7,0.0,316.8858904382445,10,25,0.0,15,243119522770904,13,31.7,-435.5805358886719,0.028200000524520874,0,0.0,0.0,,,,,0,,1
Raw,69675609,69680293000000,,,-1168647039304732672,0.0,1.5009245872497559E7,0.0,316.8858904382445,10,32,0.0,15,243119521219982,9,35.2,-180.87338256835938,0.023100001737475395,0,0.0,0.0,,,,,0,,1
Raw,69676609,69681293000000,,,-1168647039304732160,0.0,1.5009234428405762E7,2.9296873219339012,316.8858904382445,10,25,0.0,15,243120522772337,13,31.2,-434.1905822753906,0.028200000524520874,0,0.0,0.0,,,,,0,,1
Raw,69676611,69681293000000,,,-1168647039304732160,0.0,1.5009234428405762E7,2.9296873219339012,316.8858904382445,10,32,0.0,15,243120521220586,9,35.7,-179.44297790527344,0.023100001737475395,0,0.0,0.0,,,,,0,,1
Raw,69677614,69682293000000,,,-1168647039304732160,0.0,1.500954818725586E7,1.9531249475624988,316.8858904382445,10,25,0.0,15,243121522773799,13,31.3,-434.2115478515625,0.028200000524520874,0,0.0,0.0,,,,,0,,1
Raw,69677616,69682293000000,,,-1168647039304732160,0.0,1.500954818725586E7,1.9531249475624988,316.8858904382445,10,32,0.0,15,243121521221188,9,35.3,-179.4478759765625,0.023100001737475395,0,0.0,0.0,,,,,0,,1
Raw,69678622,69683293000000,,,-1168647039304732160,0.0,1.5009861946105957E7,0.0,316.8858904382445,10,25,0.0,15,243122522775225,13,31.0,-435.2412109375,0.028200000524520874,0,0.0,0.0,,,,,0,,1
Raw,69678625,69683293000000,,,-1168647039304732160,0.0,1.5009861946105957E7,0.0,316.8858904382445,10,32,0.0,15,243122521221778,9,35.3,-180.4475555419922,0.023100001737475395,0,0.0,0.0,,,,,0,,1
Raw,69679606,69684293000000,,,-1168647039304730368,0.0,1.5009225845336914E7,-1.9531249475624988,316.8858904382445,10,25,0.0,15,243123522776685,13,31.7,-435.05975341796875,0.028200000524520874,0,0.0,0.0,,,,,0,,1
Raw,69679608,69684293000000,,,-1168647039304730368,0.0,1.5009225845336914E7,-1.9531249475624988,316.8858904382445,10,32,0.0,15,243123521222379,9,35.4,-180.17417907714844,0.023100001737475395,0,0.0,0.0,,,,,0,,1
Raw,69680620,69685293000000,,,-1168647039304730368,0.0,1.5009539604187012E7,-0.9765624737812494,316.8858904382445,10,25,0.0,15,243124522778126,13,31.8,-434.95965576171875,0.028200000524520874,0,0.0,0.0,,,,,0,,1
Raw,69680622,69685293000000,,,-1168647039304730368,0.0,1.5009539604187012E7,-0.9765624737812494,316.8858904382445,10,32,0.0,15,243124521222988,9,35.5,-179.99365234375,0.023100001737475395,0,0.0,0.0,,,,,0,,1
Raw,69681615,69686293000000,,,-1168647039304731904,0.0,1.5009527206420898E7,0.9765624737812494,316.8858904382445,10,25,0.0,15,243125522779573,12,32.0,-435.3399353027344,0.026900000870227814,0,0.0,0.0,,,,,0,,1
Raw,69681617,69686293000000,,,-1168647039304731904,0.0,1.5009527206420898E7,0.9765624737812494,316.8858904382445,10,32,0.0,15,243125521223596,9,35.2,-180.4022216796875,0.023100001737475395,0,0.0,0.0,,,,,0,,1
Raw,69682617,69687293000000,,,-1168647039304731904,0.0,1.5009840965270996E7,-1.9531249475624988,316.8858904382445,10,25,0.0,15,243126522781031,12,32.6,-436.7411193847656,0.026900000870227814,0,0.0,0.0,,,,,0,,1
Raw,69682618,69687293000000,,,-1168647039304731904,0.0,1.5009840965270996E7,-1.9531249475624988,316.8858904382445,10,32,0.0,15,243126521224209,9,35.4,-181.69247436523438,0.023100001737475395,0,0.0,0.0,,,,,0,,1
Raw,69683598,69688293000000,,,-1168647039304731904,0.0,1.5010154724121094E7,0.9765624737812494,316.8858904382445,10,25,0.0,15,243127522782477,12,32.6,-434.9319763183594,0.026900000870227814,0,0.0,0.0,,,,,0,,1
Raw,69683600,69688293000000,,,-1168647039304731904,0.0,1.5010154724121094E7,0.9765624737812494,316.8858904382445,10,32,0.0,15,243127521224798,9,35.4,-179.828857421875,0.023100001737475395,0,0.0,0.0,,,,,0,,1
Raw,69684618,69689293000000,,,-1168647039304732160,0.0,1.5009515762329102E7,1.9531249475624988,316.8858904382445,10,25,0.0,15,243128522783952,12,32.4,-434.50006103515625,0.026900000870227814,0,0.0,0.0,,,,,0,,1
Raw,69684620,69689293000000,,,-1168647039304732160,0.0,1.5009515762329102E7,1.9531249475624988,316.8858904382445,10,32,0.0,15,243128521225410,9,35.0,-179.43907165527344,0.023100001737475395,0,0.0,0.0,,,,,0,,1
Raw,69685615,69690293000000,,,-1168647039304732160,0.0,1.50098295211792E7,1.9531249475624988,316.8858904382445,10,25,0.0,15,243129522785385,11,33.1,-435.9613952636719,0.02590000070631504,0,0.0,0.0,,,,,0,,1
Raw,69685616,69690293000000,,,-1168647039304732160,0.0,1.50098295211792E7,1.9531249475624988,316.8858904382445,10,32,0.0,15,243129521226008,9,35.4,-180.70376586914062,0.023100001737475395,0,0.0,0.0,,,,,0,,1
Raw,69686606,69691293000000,,,-1168647039304732416,0.0,1.5009820938110352E7,0.0,316.8858904382445,10,25,0.0,15,243130522786845,11,33.4,-434.58673095703125,0.02590000070631504,0,0.0,0.0,,,,,0,,1
Raw,69686608,69691293000000,,,-1168647039304732416,0.0,1.5009820938110352E7,0.0,316.8858904382445,10,32,0.0,15,243130521226607,9,35.3,-179.35853576660156,0.023100001737475395,0,0.0,0.0,,,,,0,,1
Raw,69687608,69692293000000,,,-1168647039304732416,0.0,1.501013469696045E7,-0.9765624737812494,316.8858904382445,10,25,0.0,15,243131522788293,12,32.9,-434.2358093261719,0.026900000870227814,0,0.0,0.0,,,,,0,,1
Raw,69687611,69692293000000,,,-1168647039304732416,0.0,1.501013469696045E7,-0.9765624737812494,316.8858904382445,10,32,0.0,15,243131521227200,10,34.9,-178.995361328125,0.023600000888109207,0,0.0,0.0,,,,,0,,1
Raw,69688617,69693293000000,,,-1168647039304732416,0.0,1.5010448455810547E7,-2.9296873219339012,316.8858904382445,10,25,0.0,15,243132522789741,11,33.3,-434.7406005859375,0.02590000070631504,0,0.0,0.0,,,,,0,,1
Raw,69688619,69693293000000,,,-1168647039304732416,0.0,1.5010448455810547E7,-2.9296873219339012,316.8858904382445,10,32,0.0,15,243132521227804,9,35.2,-179.45114135742188,0.023100001737475395,0,0.0,0.0,,,,,0,,1
Raw,69689616,69694293000000,,,-1168647039304732672,0.0,1.5009809494018555E7,-0.9765624737812494,316.8858904382445,10,25,0.0,15,243133522791191,11,33.8,-434.8708801269531,0.02590000070631504,0,0.0,0.0,,,,,0,,1
Raw,69689619,69694293000000,,,-1168647039304732672,0.0,1.5009809494018555E7,-0.9765624737812494,316.8858904382445,10,32,0.0,15,243133521228404,9,35.2,-179.46475219726562,0.023100001737475395,0,0.0,0.0,,,,,0,,1
Raw,69690608,69695293000000,,,-1168647039304732672,0.0,1.5010123252868652E7,-2.9296873219339012,316.8858904382445,10,25,0.0,15,243134522792644,11,33.9,-434.8705139160156,0.02590000070631504,0,0.0,0.0,,,,,0,,1
Raw,69690610,69695293000000,,,-1168647039304732672,0.0,1.5010123252868652E7,-2.9296873219339012,316.8858904382445,10,32,0.0,15,243134521229006,10,34.9,-179.40313720703125,0.023600000888109207,0,0.0,0.0,,,,,0,,1
Raw,69691616,69696293000000,,,-1168647039304732160,0.0,1.5010114669799805E7,-0.9765624737812494,316.8858904382445,10,25,0.0,15,243135522794079,10,34.0,-435.2040710449219,0.025100000202655792,0,0.0,0.0,,,,,0,,1
Raw,69691618,69696293000000,,,-1168647039304732160,0.0,1.5010114669799805E7,-0.9765624737812494,316.8858904382445,10,32,0.0,15,243135521229612,9,35.0,-179.6917724609375,0.023100001737475395,0,0.0,0.0,,,,,0,,1
Raw,69692609,69697293000000,,,-1168647039304732160,0.0,1.5010428428649902E7,-2.9296873219339012,316.8858904382445,10,25,0.0,15,243136522795553,10,34.0,-434.66131591796875,0.025100000202655792,0,0.0,0.0,,,,,0,,1
Raw,69692612,69697293000000,,,-1168647039304732160,0.0,1.5010428428649902E7,-2.9296873219339012,316.8858904382445,10,32,0.0,15,243136521230220,10,34.9,-179.14068603515625,0.023600000888109207,0,0.0,0.0,,,,,0,,1
