# 
# Header Description:
# 
# Version: 1.4.0.0, Platform: N
# 
# Raw,ElapsedRealtimeMillis,TimeNanos,LeapSecond,TimeUncertaintyNanos,FullBiasNanos,BiasNanos,BiasUncertaintyNanos,DriftNanosPerSecond,DriftUncertaintyNanosPerSecond,HardwareClockDiscontinuityCount, Svid,TimeOffsetNanos,State,ReceivedSvTimeNanos,ReceivedSvTimeUncertaintyNanos,Cn0DbHz,PseudorangeRateMetersPerSecond,PseudorangeRateUncertaintyMetersPerSecond,AccumulatedDeltaRangeState,AccumulatedDeltaRangeMeters,AccumulatedDeltaRangeUncertaintyMeters,CarrierFrequencyHz,CarrierCycles,CarrierPhase,CarrierPhaseUncertainty,MultipathIndicator,SnrInDb,ConstellationType
# 
# Fix,Provider,Latitude,Longitude,Altitude,Speed,Accuracy,(UTC)TimeInMs
# 
# Nav,Svid,Type,Status,MessageId,Sub-messageId,Data(Bytes)
# 
Raw,17917110,17921907000000,,,-1163849822484620800,0.0,229.44323427509516,-2.3619580832389158,12.532930249851898,783,2,0.0,15,232544316720618,61,18.1,448.4175109863281,1.1004999876022339,0,0.0,0.0,,,,,0,,1
Raw,17917111,17921907000000,,,-1163849822484620800,0.0,229.44323427509516,-2.3619580832389158,12.532930249851898,783,5,0.0,15,232544321834790,13,31.5,-305.34906005859375,0.02670000120997429,0,0.0,0.0,,,,,0,,1
Raw,17917112,17921907000000,,,-1163849822484620800,0.0,229.44323427509516,-2.3619580832389158,12.532930249851898,783,7,0.0,15,232544321966615,14,30.7,150.31190490722656,0.027300000190734863,0,0.0,0.0,,,,,0,,1
Raw,17917112,17921907000000,,,-1163849822484620800,0.0,229.44323427509516,-2.3619580832389158,12.532930249851898,783,9,0.0,15,232544316387090,11,33.1,542.2575073242188,0.04690000042319298,0,0.0,0.0,,,,,0,,1
Raw,17917113,17921907000000,,,-1163849822484620800,0.0,229.44323427509516,-2.3619580832389158,12.532930249851898,783,30,0.0,15,232544322454727,61,18.4,-286.0684814453125,1.0794999599456787,0,0.0,0.0,,,,,0,,1
Fix,gps,51.513801,-0.079214,97.000000,0.000000,46.000000,1479832528000
Raw,17918119,17922907000000,,,-1163849822484620800,0.0,230.14657199382782,-9.30759684996071,11.519838931914018,783,2,0.0,15,232545316719135,40,21.3,446.1910705566406,0.8704999685287476,0,0.0,0.0,,,,,0,,1
Raw,17918121,17922907000000,,,-1163849822484620800,0.0,230.14657199382782,-9.30759684996071,11.519838931914018,783,5,0.0,15,232545321835805,11,33.1,-306.7154846191406,0.024400001391768456,0,0.0,0.0,,,,,0,,1
Raw,17918121,17922907000000,,,-1163849822484620800,0.0,230.14657199382782,-9.30759684996071,11.519838931914018,783,7,0.0,15,232545321966118,12,32.1,148.91995239257812,0.02540000155568123,0,0.0,0.0,,,,,0,,1
Raw,17918122,17922907000000,,,-1163849822484620800,0.0,230.14657199382782,-9.30759684996071,11.519838931914018,783,9,0.0,15,232545316385239,10,34.4,540.7858276367188,0.04609999805688858,0,0.0,0.0,,,,,0,,1
Raw,17918124,17922907000000,,,-1163849822484620800,0.0,230.14657199382782,-9.30759684996071,11.519838931914018,783,30,0.0,15,232545322455649,46,20.1,-287.4671325683594,0.9194999933242798,0,0.0,0.0,,,,,0,,1
Fix,gps,51.513772,-0.079220,96.000000,0.000000,41.000000,1479832529000
Fix,gps,51.513738,-0.079226,95.000000,0.000000,37.000000,1479832530000
Raw,17919114,17923907000000,,,-1163849822484621056,0.0,221.1567189078778,-14.61239338261557,11.43653029899569,783,2,0.0,15,232546316717627,31,23.9,447.1711120605469,0.6904999613761902,0,0.0,0.0,,,,,0,,1
Raw,17919114,17923907000000,,,-1163849822484621056,0.0,221.1567189078778,-14.61239338261557,11.43653029899569,783,5,0.0,15,232546321836787,11,33.4,-305.9656677246094,0.024400001391768456,0,0.0,0.0,,,,,0,,1
Raw,17919115,17923907000000,,,-1163849822484621056,0.0,221.1567189078778,-14.61239338261557,11.43653029899569,783,7,0.0,15,232546321965617,13,31.9,149.58074951171875,0.02670000120997429,0,0.0,0.0,,,,,0,,1
Raw,17919116,17923907000000,,,-1163849822484621056,0.0,221.1567189078778,-14.61239338261557,11.43653029899569,783,9,0.0,15,232546316383379,11,33.8,541.5144653320312,0.04690000042319298,0,0.0,0.0,,,,,0,,1
Raw,17919117,17923907000000,,,-1163849822484621056,0.0,221.1567189078778,-14.61239338261557,11.43653029899569,783,30,0.0,15,232546322456576,53,19.8,-286.6393737792969,0.9194999933242798,0,0.0,0.0,,,,,0,,1
Fix,gps,51.513729,-0.079229,94.000000,0.000000,39.000000,1479832531000
Raw,17920154,17924907000000,,,-1163849822484621056,0.0,220.15656577423215,-13.047303837814624,10.343042659017797,783,2,0.0,15,232547316716142,35,22.1,451.3385314941406,0.8104999661445618,0,0.0,0.0,,,,,0,,1
Raw,17920155,17924907000000,,,-1163849822484621056,0.0,220.15656577423215,-13.047303837814624,10.343042659017797,783,5,0.0,15,232547321837829,10,34.0,-301.53131103515625,0.023600000888109207,0,0.0,0.0,,,,,0,,1
Raw,17920157,17924907000000,,,-1163849822484621056,0.0,220.15656577423215,-13.047303837814624,10.343042659017797,783,7,0.0,15,232547321965101,12,32.3,154.175537109375,0.02540000155568123,0,0.0,0.0,,,,,0,,1
Raw,17920159,17924907000000,,,-1163849822484621056,0.0,220.15656577423215,-13.047303837814624,10.343042659017797,783,9,0.0,15,232547316381536,10,34.3,545.81982421875,0.04609999805688858,0,0.0,0.0,,,,,0,,1
Raw,17920160,17924907000000,,,-1163849822484621056,0.0,220.15656577423215,-13.047303837814624,10.343042659017797,783,30,0.0,15,232547322457653,40,21.1,-282.70025634765625,0.8495000004768372,0,0.0,0.0,,,,,0,,1
Fix,gps,51.513726,-0.079230,94.000000,0.000000,40.000000,1479832532000
Raw,17921172,17925907000000,,,-1163849822484621056,0.0,235.01813120674342,-6.169763599777625,15.908685063303153,783,2,0.0,15,232548316714634,40,21.8,452.575439453125,0.8104999661445618,0,0.0,0.0,,,,,0,,1
Raw,17921174,17925907000000,,,-1163849822484621056,0.0,235.01813120674342,-6.169763599777625,15.908685063303153,783,5,0.0,15,232548321838836,10,34.7,-299.09307861328125,0.023600000888109207,0,0.0,0.0,,,,,0,,1
Raw,17921175,17925907000000,,,-1163849822484621056,0.0,235.01813120674342,-6.169763599777625,15.908685063303153,783,7,0.0,15,232548321964610,12,32.0,156.6124725341797,0.02540000155568123,0,0.0,0.0,,,,,0,,1
Raw,17921175,17925907000000,,,-1163849822484621056,0.0,235.01813120674342,-6.169763599777625,15.908685063303153,783,9,0.0,15,232548316379717,10,34.5,548.31640625,0.04609999805688858,0,0.0,0.0,,,,,0,,1
Raw,17921176,17925907000000,,,-1163849822484621056,0.0,235.01813120674342,-6.169763599777625,15.908685063303153,783,30,0.0,15,232548322458464,46,20.2,-280.3121032714844,0.9194999933242798,0,0.0,0.0,,,,,0,,1
Raw,17922144,17926907000000,,,-1163849822484621056,0.0,234.8803827771917,7.908687962948306,11.67940287028487,783,2,0.0,15,232549316713183,35,22.6,453.7742919921875,0.750499963760376,0,0.0,0.0,,,,,0,,1
Raw,17922146,17926907000000,,,-1163849822484621056,0.0,234.8803827771917,7.908687962948306,11.67940287028487,783,5,0.0,15,232549321839819,9,35.4,-299.3722229003906,0.023100001737475395,0,0.0,0.0,,,,,0,,1
Raw,17922147,17926907000000,,,-1163849822484621056,0.0,234.8803827771917,7.908687962948306,11.67940287028487,783,7,0.0,15,232549321964080,12,32.1,156.32589721679688,0.02540000155568123,0,0.0,0.0,,,,,0,,1
Raw,17922148,17926907000000,,,-1163849822484621056,0.0,234.8803827771917,7.908687962948306,11.67940287028487,783,9,0.0,15,232549316377947,10,34.5,547.8846435546875,0.04609999805688858,0,0.0,0.0,,,,,0,,1
Raw,17922150,17926907000000,,,-1163849822484621056,0.0,234.8803827771917,7.908687962948306,11.67940287028487,783,30,0.0,15,232549322459622,70,17.3,-280.2550048828125,1.1694999933242798,0,0.0,0.0,,,,,0,,1
Fix,gps,51.513725,-0.079231,92.000000,0.000000,39.000000,1479832533000
Raw,17923114,17927907000000,,,-1163849822484620800,0.0,217.34784240834415,6.978546607200702,10.649706131500677,783,2,0.0,15,232550316711672,35,22.7,453.20343017578125,0.750499963760376,0,0.0,0.0,,,,,0,,1
Raw,17923115,17927907000000,,,-1163849822484620800,0.0,217.34784240834415,6.978546607200702,10.649706131500677,783,5,0.0,15,232550321840802,9,35.6,-299.0589904785156,0.023100001737475395,0,0.0,0.0,,,,,0,,1
Raw,17923116,17927907000000,,,-1163849822484620800,0.0,217.34784240834415,6.978546607200702,10.649706131500677,783,7,0.0,15,232550321963568,12,32.7,156.70855712890625,0.02540000155568123,0,0.0,0.0,,,,,0,,1
Raw,17923119,17927907000000,,,-1163849822484620800,0.0,217.34784240834415,6.978546607200702,10.649706131500677,783,9,0.0,15,232550316376173,10,34.0,548.2918090820312,0.04609999805688858,0,0.0,0.0,,,,,0,,1
Raw,17923121,17927907000000,,,-1163849822484620800,0.0,217.34784240834415,6.978546607200702,10.649706131500677,783,13,0.0,15,232550313400285,651,18.6,-604.3536987304688,2.0360000133514404,0,0.0,0.0,,,,,0,,1
Raw,17923122,17927907000000,,,-1163849822484620800,0.0,217.34784240834415,6.978546607200702,10.649706131500677,783,30,0.0,15,232550322460557,79,17.3,-280.2550048828125,2.6694998741149902,0,0.0,0.0,,,,,0,,1
Fix,gps,51.513724,-0.079231,90.000000,0.000000,39.000000,1479832534000
Raw,17924128,17928907000000,,,-1163849822484620800,0.0,202.1283289650455,7.911376800490517,10.656321260360812,783,2,0.0,15,232551316710089,40,21.1,452.7467041015625,0.8704999685287476,0,0.0,0.0,,,,,0,,1
Raw,17924129,17928907000000,,,-1163849822484620800,0.0,202.1283289650455,7.911376800490517,10.656321260360812,783,5,0.0,15,232551321841787,9,35.2,-300.24346923828125,0.023100001737475395,0,0.0,0.0,,,,,0,,1
Raw,17924130,17928907000000,,,-1163849822484620800,0.0,202.1283289650455,7.911376800490517,10.656321260360812,783,7,0.0,15,232551321963048,13,31.6,155.4906005859375,0.02670000120997429,0,0.0,0.0,,,,,0,,1
Raw,17924131,17928907000000,,,-1163849822484620800,0.0,202.1283289650455,7.911376800490517,10.656321260360812,783,9,0.0,15,232551316374364,11,33.3,546.9616088867188,0.04690000042319298,0,0.0,0.0,,,,,0,,1
Raw,17924132,17928907000000,,,-1163849822484620800,0.0,202.1283289650455,7.911376800490517,10.656321260360812,783,13,0.0,15,232551313402302,658,18.8,-604.63916015625,2.7860002517700195,0,0.0,0.0,,,,,0,,1
Raw,17924133,17928907000000,,,-1163849822484620800,0.0,202.1283289650455,7.911376800490517,10.656321260360812,783,30,0.0,15,232551322461492,98,17.3,-280.2550048828125,4.169500350952148,0,0.0,0.0,,,,,0,,1
Fix,gps,51.513724,-0.079231,90.000000,0.000000,40.000000,1479832535000
Fix,gps,51.513723,-0.079231,88.000000,0.000000,39.000000,1479832536000
Raw,17925162,17929907000000,,,-1163849822484620800,0.0,200.54876222275198,3.875242373281735,10.668710908414678,783,2,0.0,15,232552316708435,40,21.2,452.5373840332031,0.8704999685287476,0,0.0,0.0,,,,,0,,1
Raw,17925164,17929907000000,,,-1163849822484620800,0.0,200.54876222275198,3.875242373281735,10.668710908414678,783,5,0.0,15,232552321842797,9,35.2,-300.6016540527344,0.023100001737475395,0,0.0,0.0,,,,,0,,1
Raw,17925166,17929907000000,,,-1163849822484620800,0.0,200.54876222275198,3.875242373281735,10.668710908414678,783,7,0.0,15,232552321962523,13,31.2,155.23899841308594,0.02670000120997429,0,0.0,0.0,,,,,0,,1
Raw,17925168,17929907000000,,,-1163849822484620800,0.0,200.54876222275198,3.875242373281735,10.668710908414678,783,9,0.0,15,232552316372512,12,32.9,546.572265625,0.0478999987244606,0,0.0,0.0,,,,,0,,1
Raw,17925169,17929907000000,,,-1163849822484620800,0.0,200.54876222275198,3.875242373281735,10.668710908414678,783,13,0.0,15,232552313404284,667,18.7,-604.8103637695312,3.5360002517700195,0,0.0,0.0,,,,,0,,1
Raw,17925174,17929907000000,,,-1163849822484620800,0.0,200.54876222275198,3.875242373281735,10.668710908414678,783,30,0.0,15,232552322462427,127,17.3,-280.2550048828125,5.669500350952148,0,0.0,0.0,,,,,0,,1
Raw,17926151,17930907000000,,,-1163849822484620800,0.0,190.09294919669628,2.3504183893770763,10.674910901753655,783,2,0.0,15,232553316706586,40,21.4,452.9750671386719,0.8704999685287476,0,0.0,0.0,,,,,0,,1
Raw,17926153,17930907000000,,,-1163849822484620800,0.0,190.09294919669628,2.3504183893770763,10.674910901753655,783,5,0.0,15,232553321843796,9,35.6,-299.3044128417969,0.023100001737475395,0,0.0,0.0,,,,,0,,1
Raw,17926155,17930907000000,,,-1163849822484620800,0.0,190.09294919669628,2.3504183893770763,10.674910901753655,783,7,0.0,15,232553321962005,14,30.8,156.52972412109375,0.027300000190734863,0,0.0,0.0,,,,,0,,1
Raw,17926156,17930907000000,,,-1163849822484620800,0.0,190.09294919669628,2.3504183893770763,10.674910901753655,783,9,0.0,15,232553316370630,11,33.0,547.7465209960938,0.04690000042319298,0,0.0,0.0,,,,,0,,1
Raw,17926158,17930907000000,,,-1163849822484620800,0.0,190.09294919669628,2.3504183893770763,10.674910901753655,783,13,0.0,15,232553313406291,678,18.9,-604.7723388671875,4.2860002517700195,0,0.0,0.0,,,,,0,,1
Raw,17926160,17930907000000,,,-1163849822484620800,0.0,190.09294919669628,2.3504183893770763,10.674910901753655,783,30,0.0,15,232553322463279,98,16.4,-280.9020080566406,3.509500026702881,0,0.0,0.0,,,,,0,,1
Fix,gps,51.513723,-0.079232,87.000000,0.000000,36.000000,1479832537000
Fix,gps,51.513722,-0.079232,133.000000,0.000000,35.000000,1479832538000
Raw,17927157,17931907000000,,,-1163849822484620800,0.0,182.57510964758694,5.7291696144372235,13.589510592385555,783,2,0.0,15,232554316705034,31,23.3,453.8313903808594,0.750499963760376,0,0.0,0.0,,,,,0,,1
Raw,17927158,17931907000000,,,-1163849822484620800,0.0,182.57510964758694,5.7291696144372235,13.589510592385555,783,5,0.0,15,232554321844789,9,35.6,-298.9302062988281,0.023100001737475395,0,0.0,0.0,,,,,0,,1
Raw,17927160,17931907000000,,,-1163849822484620800,0.0,182.57510964758694,5.7291696144372235,13.589510592385555,783,7,0.0,15,232554321961495,14,30.8,156.89755249023438,0.027300000190734863,0,0.0,0.0,,,,,0,,1
Raw,17927161,17931907000000,,,-1163849822484620800,0.0,182.57510964758694,5.7291696144372235,13.589510592385555,783,9,0.0,15,232554316368772,11,33.6,548.038330078125,0.04690000042319298,0,0.0,0.0,,,,,0,,1
Raw,17927162,17931907000000,,,-1163849822484620800,0.0,182.57510964758694,5.7291696144372235,13.589510592385555,783,13,0.0,15,232554313408303,98,19.2,-604.7913208007812,5.0360002517700195,0,0.0,0.0,,,,,0,,1
Raw,17927163,17931907000000,,,-1163849822484620800,0.0,182.57510964758694,5.7291696144372235,13.589510592385555,783,30,0.0,15,232554322464119,46,20.6,-279.6841125488281,0.8495000004768372,0,0.0,0.0,,,,,0,,1
Fix,gps,51.513722,-0.079232,127.000000,0.000000,34.000000,1479832539000
Raw,17928185,17932907000000,,,-1163849822484620800,0.0,174.73289335612208,6.618042761571491,10.649354618281611,783,2,0.0,15,232555316703503,27,24.8,453.3841857910156,0.640500009059906,0,0.0,0.0,,,,,0,,1
Raw,17928186,17932907000000,,,-1163849822484620800,0.0,174.73289335612208,6.618042761571491,10.649354618281611,783,5,0.0,15,232555321845796,8,36.0,-298.9933776855469,0.022700000554323196,0,0.0,0.0,,,,,0,,1
Raw,17928186,17932907000000,,,-1163849822484620800,0.0,174.73289335612208,6.618042761571491,10.649354618281611,783,7,0.0,15,232555321960944,14,30.8,156.78717041015625,0.027300000190734863,0,0.0,0.0,,,,,0,,1
Raw,17928187,17932907000000,,,-1163849822484620800,0.0,174.73289335612208,6.618042761571491,10.649354618281611,783,9,0.0,15,232555316366950,11,33.4,547.8621215820312,0.04690000042319298,0,0.0,0.0,,,,,0,,1
Raw,17928188,17932907000000,,,-1163849822484620800,0.0,174.73289335612208,6.618042761571491,10.649354618281611,783,13,0.0,15,232555313410199,62,18.9,-604.1919555664062,1.2860000133514404,0,0.0,0.0,,,,,0,,1
Raw,17928189,17932907000000,,,-1163849822484620800,0.0,174.73289335612208,6.618042761571491,10.649354618281611,783,30,0.0,15,232555322465133,40,21.8,-280.35968017578125,0.7894999980926514,0,0.0,0.0,,,,,0,,1
Raw,17929185,17933907000000,,,-1163849822484620800,0.0,170.25724810082465,6.324143115806661,11.618066994673189,783,2,0.0,15,232556316702074,24,25.6,453.44622802734375,0.4057999849319458,0,0.0,0.0,,,,,0,,1
Raw,17929186,17933907000000,,,-1163849822484620800,0.0,170.25724810082465,6.324143115806661,11.618066994673189,783,5,0.0,15,232556321846799,8,36.1,-299.21234130859375,0.022700000554323196,0,0.0,0.0,,,,,0,,1
Raw,17929187,17933907000000,,,-1163849822484620800,0.0,170.25724810082465,6.324143115806661,11.618066994673189,783,7,0.0,15,232556321960435,13,31.4,156.60781860351562,0.02670000120997429,0,0.0,0.0,,,,,0,,1
Raw,17929189,17933907000000,,,-1163849822484620800,0.0,170.25724810082465,6.324143115806661,11.618066994673189,783,9,0.0,15,232556316365163,11,33.3,547.6718139648438,0.04690000042319298,0,0.0,0.0,,,,,0,,1
Raw,17929190,17933907000000,,,-1163849822484620800,0.0,170.25724810082465,6.324143115806661,11.618066994673189,783,13,0.0,15,232556313412156,53,19.1,-603.7542114257812,1.0160000324249268,0,0.0,0.0,,,,,0,,1
Raw,17929192,17933907000000,,,-1163849822484620800,0.0,170.25724810082465,6.324143115806661,11.618066994673189,783,30,0.0,15,232556322466094,35,22.0,-280.416748046875,0.7894999980926514,0,0.0,0.0,,,,,0,,1
Fix,gps,51.513722,-0.079232,119.000000,0.000000,32.000000,1479832540000
Raw,17930163,17934907000000,,,-1163849822484620800,0.0,152.24893286358565,5.706162199442787,9.656115049154348,783,2,0.0,15,232557316700580,19,27.4,452.7349853515625,0.06530000269412994,0,0.0,0.0,,,,,0,,1
Raw,17930164,17934907000000,,,-1163849822484620800,0.0,152.24893286358565,5.706162199442787,9.656115049154348,783,5,0.0,15,232557321847805,8,36.0,-299.9768371582031,0.022700000554323196,0,0.0,0.0,,,,,0,,1
Raw,17930165,17934907000000,,,-1163849822484620800,0.0,152.24893286358565,5.706162199442787,9.656115049154348,783,7,0.0,15,232557321959925,13,31.1,155.83746337890625,0.02670000120997429,0,0.0,0.0,,,,,0,,1
Raw,17930166,17934907000000,,,-1163849822484620800,0.0,152.24893286358565,5.706162199442787,9.656115049154348,783,9,0.0,15,232557316363382,12,32.8,546.8917236328125,0.0478999987244606,0,0.0,0.0,,,,,0,,1
Raw,17930167,17934907000000,,,-1163849822484620800,0.0,152.24893286358565,5.706162199442787,9.656115049154348,783,13,0.0,15,232557313414028,61,18.6,-605.6952514648438,1.0160000324249268,0,0.0,0.0,,,,,0,,1
Raw,17930168,17934907000000,,,-1163849822484620800,0.0,152.24893286358565,5.706162199442787,9.656115049154348,783,30,0.0,15,232557322466984,40,21.2,-281.2540588378906,0.8495000004768372,0,0.0,0.0,,,,,0,,1
Fix,gps,51.513722,-0.079232,112.000000,0.000000,29.000000,1479832541000
Raw,17931146,17935907000000,,,-1163849822484620800,0.0,140.15371561981738,3.3466993033640873,10.377302473416183,783,2,0.0,15,232558316699119,17,28.5,452.5988464355469,0.05730000138282776,0,0.0,0.0,,,,,0,,1
Raw,17931149,17935907000000,,,-1163849822484620800,0.0,140.15371561981738,3.3466993033640873,10.377302473416183,783,5,0.0,15,232558321848811,9,35.7,-300.11798095703125,0.023100001737475395,0,0.0,0.0,,,,,0,,1
Raw,17931151,17935907000000,,,-1163849822484620800,0.0,140.15371561981738,3.3466993033640873,10.377302473416183,783,7,0.0,15,232558321959410,11,33.5,155.7862548828125,0.024400001391768456,0,0.0,0.0,,,,,0,,1
Raw,17931152,17935907000000,,,-1163849822484620800,0.0,140.15371561981738,3.3466993033640873,10.377302473416183,783,9,0.0,15,232558316361526,10,34.9,546.6694946289062,0.04609999805688858,0,0.0,0.0,,,,,0,,1
Raw,17931154,17935907000000,,,-1163849822484620800,0.0,140.15371561981738,3.3466993033640873,10.377302473416183,783,13,0.0,15,232558313416049,69,18.6,-605.6952514648438,2.5160000324249268,0,0.0,0.0,,,,,0,,1
Raw,17931155,17935907000000,,,-1163849822484620800,0.0,140.15371561981738,3.3466993033640873,10.377302473416183,783,30,0.0,15,232558322467901,40,21.2,-282.05328369140625,0.8495000004768372,0,0.0,0.0,,,,,0,,1
Fix,gps,51.513721,-0.079233,105.000000,0.000000,25.000000,1479832542000
Raw,17932110,17936907000000,,,-1163849822484620800,0.0,128.53078078478575,2.3942342735498547,13.145764121976438,783,2,0.0,15,232559316697567,21,26.9,452.3866882324219,0.13519999384880066,0,0.0,0.0,,,,,0,,1
Raw,17932111,17936907000000,,,-1163849822484620800,0.0,128.53078078478575,2.3942342735498547,13.145764121976438,783,5,0.0,15,232559321849825,11,33.1,-300.2784729003906,0.024400001391768456,0,0.0,0.0,,,,,0,,1
Raw,17932112,17936907000000,,,-1163849822484620800,0.0,128.53078078478575,2.3942342735498547,13.145764121976438,783,7,0.0,15,232559321958895,9,35.2,155.5578155517578,0.023100001737475395,0,0.0,0.0,,,,,0,,1
Raw,17932112,17936907000000,,,-1163849822484620800,0.0,128.53078078478575,2.3942342735498547,13.145764121976438,783,9,0.0,15,232559316359676,9,35.8,546.4264526367188,0.04560000076889992,0,0.0,0.0,,,,,0,,1
Raw,17932113,17936907000000,,,-1163849822484620800,0.0,128.53078078478575,2.3942342735498547,13.145764121976438,783,30,0.0,15,232559322468956,70,17.8,-281.90106201171875,1.0794999599456787,0,0.0,0.0,,,,,0,,1
Fix,gps,51.513721,-0.079233,99.000000,0.000000,23.000000,1479832543000
Raw,17933115,17937907000000,,,-1163849822484620800,0.0,114.75906649138778,1.5108663443337385,10.365819443167146,783,2,0.0,15,232560316696070,19,27.3,450.2987060546875,0.06530000269412994,0,0.0,0.0,,,,,0,,1
Raw,17933116,17937907000000,,,-1163849822484620800,0.0,114.75906649138778,1.5108663443337385,10.365819443167146,783,5,0.0,15,232560321850807,9,35.4,-302.2876281738281,0.023100001737475395,0,0.0,0.0,,,,,0,,1
Raw,17933117,17937907000000,,,-1163849822484620800,0.0,114.75906649138778,1.5108663443337385,10.365819443167146,783,7,0.0,15,232560321958386,13,31.6,153.55067443847656,0.02670000120997429,0,0.0,0.0,,,,,0,,1
Raw,17933118,17937907000000,,,-1163849822484620800,0.0,114.75906649138778,1.5108663443337385,10.365819443167146,783,9,0.0,15,232560316357855,11,33.7,544.3961181640625,0.04690000042319298,0,0.0,0.0,,,,,0,,1
Raw,17933118,17937907000000,,,-1163849822484620800,0.0,114.75906649138778,1.5108663443337385,10.365819443167146,783,30,0.0,15,232560322469897,79,17.8,-281.90106201171875,2.5794999599456787,0,0.0,0.0,,,,,0,,1
Fix,gps,51.513721,-0.079233,94.000000,0.000000,21.000000,1479832544000
Fix,gps,51.513721,-0.079233,92.000000,0.000000,20.000000,1479832545000
Raw,17934177,17938907000000,,,-1163849822484620800,0.0,105.66884157015011,-4.843192872605747,11.230751915663147,783,2,0.0,15,232561316694520,17,28.9,449.383056640625,0.05730000138282776,0,0.0,0.0,,,,,0,,1
Raw,17934179,17938907000000,,,-1163849822484620800,0.0,105.66884157015011,-4.843192872605747,11.230751915663147,783,5,0.0,15,232561321851824,8,36.5,-303.0740661621094,0.022700000554323196,0,0.0,0.0,,,,,0,,1
Raw,17934181,17938907000000,,,-1163849822484620800,0.0,105.66884157015011,-4.843192872605747,11.230751915663147,783,7,0.0,15,232561321957846,12,32.4,152.77989196777344,0.02540000155568123,0,0.0,0.0,,,,,0,,1
Raw,17934182,17938907000000,,,-1163849822484620800,0.0,105.66884157015011,-4.843192872605747,11.230751915663147,783,9,0.0,15,232561316356025,11,33.3,543.4514770507812,0.04690000042319298,0,0.0,0.0,,,,,0,,1
Raw,17934183,17938907000000,,,-1163849822484620800,0.0,105.66884157015011,-4.843192872605747,11.230751915663147,783,13,0.0,15,232561313422088,864,17.2,-609.034912109375,2.2059998512268066,0,0.0,0.0,,,,,0,,1
Raw,17934185,17938907000000,,,-1163849822484620800,0.0,105.66884157015011,-4.843192872605747,11.230751915663147,783,30,0.0,15,232561322470837,97,17.8,-281.90106201171875,4.079500198364258,0,0.0,0.0,,,,,0,,1
Fix,gps,51.513721,-0.079233,90.000000,0.000000,19.000000,1479832546000
Raw,17935142,17939907000000,,,-1163849822484620800,0.0,102.65628225170076,-7.972680069672375,10.162253525389891,783,2,0.0,15,232562316692834,24,25.2,451.69049072265625,0.4057999849319458,0,0.0,0.0,,,,,0,,1
Raw,17935144,17939907000000,,,-1163849822484620800,0.0,102.65628225170076,-7.972680069672375,10.162253525389891,783,5,0.0,15,232562321852837,9,35.7,-300.8855285644531,0.023100001737475395,0,0.0,0.0,,,,,0,,1
Raw,17935146,17939907000000,,,-1163849822484620800,0.0,102.65628225170076,-7.972680069672375,10.162253525389891,783,7,0.0,15,232562321957367,13,31.4,155.09266662597656,0.02670000120997429,0,0.0,0.0,,,,,0,,1
Raw,17935148,17939907000000,,,-1163849822484620800,0.0,102.65628225170076,-7.972680069672375,10.162253525389891,783,9,0.0,15,232562316354233,11,33.5,545.6526489257812,0.04690000042319298,0,0.0,0.0,,,,,0,,1
Raw,17935149,17939907000000,,,-1163849822484620800,0.0,102.65628225170076,-7.972680069672375,10.162253525389891,783,13,0.0,15,232562313424276,871,17.3,-608.5020751953125,2.9560000896453857,0,0.0,0.0,,,,,0,,1
Raw,17935151,17939907000000,,,-1163849822484620800,0.0,102.65628225170076,-7.972680069672375,10.162253525389891,783,30,0.0,15,232562322471777,126,17.8,-281.90106201171875,5.579500198364258,0,0.0,0.0,,,,,0,,1
Fix,gps,51.513721,-0.079233,88.000000,0.000000,18.000000,1479832547000
Raw,17936184,17940907000000,,,-1163849822484620800,0.0,94.46059993933886,-1.5680009609906365,10.3406202398656,783,2,0.0,15,232563316691288,31,23.0,453.1463317871094,0.750499963760376,0,0.0,0.0,,,,,0,,1
Raw,17936185,17940907000000,,,-1163849822484620800,0.0,94.46059993933886,-1.5680009609906365,10.3406202398656,783,5,0.0,15,232563321853846,10,34.2,-299.5456237792969,0.023600000888109207,0,0.0,0.0,,,,,0,,1
Raw,17936186,17940907000000,,,-1163849822484620800,0.0,94.46059993933886,-1.5680009609906365,10.3406202398656,783,7,0.0,15,232563321956873,13,31.4,156.37281799316406,0.02670000120997429,0,0.0,0.0,,,,,0,,1
Raw,17936189,17940907000000,,,-1163849822484620800,0.0,94.46059993933886,-1.5680009609906365,10.3406202398656,783,9,0.0,15,232563316352430,10,34.6,546.9508666992188,0.04609999805688858,0,0.0,0.0,,,,,0,,1
Raw,17936211,17940907000000,,,-1163849822484620800,0.0,94.46059993933886,-1.5680009609906365,10.3406202398656,783,30,0.0,15,232563322472878,110,15.7,-281.111328125,3.509500026702881,0,0.0,0.0,,,,,0,,1
Raw,17937145,17941907000000,,,-1163849822484620800,0.0,93.78653339808807,2.533590178218369,15.319663428294529,783,2,0.0,15,232564316689683,40,21.4,454.21197509765625,0.8704999685287476,0,0.0,0.0,,,,,0,,1
Raw,17937148,17941907000000,,,-1163849822484620800,0.0,93.78653339808807,2.533590178218369,15.319663428294529,783,5,0.0,15,232564321854827,10,34.1,-299.08203125,0.023600000888109207,0,0.0,0.0,,,,,0,,1
Raw,17937151,17941907000000,,,-1163849822484620800,0.0,93.78653339808807,2.533590178218369,15.319663428294529,783,7,0.0,15,232564321956325,17,28.2,156.82936096191406,0.03480000048875809,0,0.0,0.0,,,,,0,,1
Raw,17937154,17941907000000,,,-1163849822484620800,0.0,93.78653339808807,2.533590178218369,15.319663428294529,783,9,0.0,15,232564316350597,12,32.8,547.3646240234375,0.0478999987244606,0,0.0,0.0,,,,,0,,1
Raw,17937158,17941907000000,,,-1163849822484620800,0.0,93.78653339808807,2.533590178218369,15.319663428294529,783,30,0.0,15,232564322473633,80,16.8,-280.0456848144531,1.1694999933242798,0,0.0,0.0,,,,,0,,1
Fix,gps,51.513721,-0.079233,88.000000,0.000000,19.000000,1479832548000
Fix,gps,51.513721,-0.079234,88.000000,0.000000,20.000000,1479832549000
Raw,17938185,17942907000000,,,-1163849822484620800,0.0,93.31985347671434,3.9259783757253084,10.508423266357516,783,2,0.0,15,232565316688128,40,21.5,452.8608703613281,0.8104999661445618,0,0.0,0.0,,,,,0,,1
Raw,17938188,17942907000000,,,-1163849822484620800,0.0,93.31985347671434,3.9259783757253084,10.508423266357516,783,5,0.0,15,232565321855818,9,35.8,-299.50152587890625,0.023100001737475395,0,0.0,0.0,,,,,0,,1
Raw,17938189,17942907000000,,,-1163849822484620800,0.0,93.31985347671434,3.9259783757253084,10.508423266357516,783,7,0.0,15,232565321955749,14,30.3,156.42213439941406,0.027300000190734863,0,0.0,0.0,,,,,0,,1
Raw,17938191,17942907000000,,,-1163849822484620800,0.0,93.31985347671434,3.9259783757253084,10.508423266357516,783,9,0.0,15,232565316348764,11,33.8,546.9052124023438,0.04690000042319298,0,0.0,0.0,,,,,0,,1
Raw,17938194,17942907000000,,,-1163849822484620800,0.0,93.31985347671434,3.9259783757253084,10.508423266357516,783,30,0.0,15,232565322474620,53,19.0,-280.4072570800781,0.999500036239624,0,0.0,0.0,,,,,0,,1
Fix,gps,51.513721,-0.079234,88.000000,0.000000,21.000000,1479832550000
Raw,17939169,17943907000000,,,-1163849822484620800,0.0,96.45534009905532,2.801767923706019,10.543699447031841,783,2,0.0,15,232566316686593,61,18.8,453.0797119140625,1.0205000638961792,0,0.0,0.0,,,,,0,,1
Raw,17939173,17943907000000,,,-1163849822484620800,0.0,96.45534009905532,2.801767923706019,10.543699447031841,783,5,0.0,15,232566321856820,7,37.6,-299.6598205566406,0.022100001573562622,0,0.0,0.0,,,,,0,,1
Raw,17939174,17943907000000,,,-1163849822484620800,0.0,96.45534009905532,2.801767923706019,10.543699447031841,783,7,0.0,15,232566321955253,13,31.0,156.32386779785156,0.02670000120997429,0,0.0,0.0,,,,,0,,1
Raw,17939176,17943907000000,,,-1163849822484620800,0.0,96.45534009905532,2.801767923706019,10.543699447031841,783,9,0.0,15,232566316346875,13,31.8,546.6229858398438,0.04919999837875366,0,0.0,0.0,,,,,0,,1
Raw,17939177,17943907000000,,,-1163849822484620800,0.0,96.45534009905532,2.801767923706019,10.543699447031841,783,30,0.0,15,232566322475509,46,20.2,-280.5880126953125,0.9194999933242798,0,0.0,0.0,,,,,0,,1
Raw,17940142,17944907000000,,,-1163849822484620800,0.0,105.84678966552019,1.8345705533830348,12.527056320811148,783,2,0.0,15,232567316685125,53,19.3,452.2804870605469,1.0205000638961792,0,0.0,0.0,,,,,0,,1
Raw,17940143,17944907000000,,,-1163849822484620800,0.0,105.84678966552019,1.8345705533830348,12.527056320811148,783,5,0.0,15,232567321857809,7,37.7,-299.8289794921875,0.022100001573562622,0,0.0,0.0,,,,,0,,1
Raw,17940144,17944907000000,,,-1163849822484620800,0.0,105.84678966552019,1.8345705533830348,12.527056320811148,783,7,0.0,15,232567321954711,13,31.2,156.0655517578125,0.02670000120997429,0,0.0,0.0,,,,,0,,1
Raw,17940146,17944907000000,,,-1163849822484620800,0.0,105.84678966552019,1.8345705533830348,12.527056320811148,783,9,0.0,15,232567316344984,12,32.0,546.4644165039062,0.0478999987244606,0,0.0,0.0,,,,,0,,1
Raw,17940147,17944907000000,,,-1163849822484620800,0.0,105.84678966552019,1.8345705533830348,12.527056320811148,783,30,0.0,15,232567322476484,46,20.1,-281.21600341796875,0.9194999933242798,0,0.0,0.0,,,,,0,,1
Fix,gps,51.513721,-0.079234,89.000000,0.000000,24.000000,1479832551000
Fix,gps,51.513721,-0.079234,89.000000,0.000000,26.000000,1479832552000
Raw,17941140,17945907000000,,,-1163849822484620800,0.0,117.57433821912855,1.0920051409292764,10.595274866223656,783,2,0.0,15,232568316683885,53,19.9,451.2053527832031,0.9404999613761902,0,0.0,0.0,,,,,0,,1
Raw,17941142,17945907000000,,,-1163849822484620800,0.0,117.57433821912855,1.0920051409292764,10.595274866223656,783,5,0.0,15,232568321858798,6,38.1,-300.7117614746094,0.02160000056028366,0,0.0,0.0,,,,,0,,1
Raw,17941144,17945907000000,,,-1163849822484620800,0.0,117.57433821912855,1.0920051409292764,10.595274866223656,783,7,0.0,15,232568321954188,14,30.8,155.28794860839844,0.027300000190734863,0,0.0,0.0,,,,,0,,1
Raw,17941145,17945907000000,,,-1163849822484620800,0.0,117.57433821912855,1.0920051409292764,10.595274866223656,783,9,0.0,15,232568316343198,10,34.8,545.4864501953125,0.04609999805688858,0,0.0,0.0,,,,,0,,1
Raw,17941146,17945907000000,,,-1163849822484620800,0.0,117.57433821912855,1.0920051409292764,10.595274866223656,783,30,0.0,15,232568322477337,70,17.7,-282.1769714355469,1.0794999599456787,0,0.0,0.0,,,,,0,,1
Fix,gps,51.513721,-0.079234,89.000000,0.000000,28.000000,1479832553000
Raw,17942180,17946907000000,,,-1163849822484620800,0.0,127.29391164612025,-1.9203759640191302,10.60028750834982,783,2,0.0,15,232569316682427,46,20.2,451.2148742675781,0.9404999613761902,0,0.0,0.0,,,,,0,,1
Raw,17942182,17946907000000,,,-1163849822484620800,0.0,127.29391164612025,-1.9203759640191302,10.60028750834982,783,5,0.0,15,232569321859799,7,37.1,-299.9098815917969,0.022100001573562622,0,0.0,0.0,,,,,0,,1
Raw,17942183,17946907000000,,,-1163849822484620800,0.0,127.29391164612025,-1.9203759640191302,10.60028750834982,783,7,0.0,15,232569321953668,14,30.9,156.1016082763672,0.027300000190734863,0,0.0,0.0,,,,,0,,1
Raw,17942184,17946907000000,,,-1163849822484620800,0.0,127.29391164612025,-1.9203759640191302,10.60028750834982,783,9,0.0,15,232569316341413,9,35.4,546.1787719726562,0.04560000076889992,0,0.0,0.0,,,,,0,,1
Raw,17942185,17946907000000,,,-1163849822484620800,0.0,127.29391164612025,-1.9203759640191302,10.60028750834982,783,30,0.0,15,232569322478278,79,17.7,-282.1769714355469,2.5794999599456787,0,0.0,0.0,,,,,0,,1
Fix,gps,51.513721,-0.079234,88.000000,0.000000,27.000000,1479832554000
Raw,17943145,17947907000000,,,-1163849822484620800,0.0,131.2324166065082,-0.06285434859868876,10.614758400960907,783,2,0.0,15,232570316681001,40,21.3,452.9465026855469,0.8704999685287476,0,0.0,0.0,,,,,0,,1
Raw,17943146,17947907000000,,,-1163849822484620800,0.0,131.2324166065082,-0.06285434859868876,10.614758400960907,783,5,0.0,15,232570321860785,7,37.7,-299.6009216308594,0.022100001573562622,0,0.0,0.0,,,,,0,,1
Raw,17943147,17947907000000,,,-1163849822484620800,0.0,131.2324166065082,-0.06285434859868876,10.614758400960907,783,7,0.0,15,232570321953106,14,30.1,156.39125061035156,0.027300000190734863,0,0.0,0.0,,,,,0,,1
Raw,17943148,17947907000000,,,-1163849822484620800,0.0,131.2324166065082,-0.06285434859868876,10.614758400960907,783,9,0.0,15,232570316339630,8,36.0,546.4578857421875,0.04520000144839287,0,0.0,0.0,,,,,0,,1
Raw,17943149,17947907000000,,,-1163849822484620800,0.0,131.2324166065082,-0.06285434859868876,10.614758400960907,783,30,0.0,15,232570322479290,96,15.4,-280.8734436035156,2.109499931335449,0,0.0,0.0,,,,,0,,1
Fix,gps,51.513721,-0.079234,87.000000,0.000000,26.000000,1479832555000
Raw,17944168,17948907000000,,,-1163849822484620800,0.0,123.85222362354398,0.6835506573601606,10.607627931453818,783,2,0.0,15,232571316679579,35,22.0,452.32806396484375,0.8104999661445618,0,0.0,0.0,,,,,0,,1
Raw,17944170,17948907000000,,,-1163849822484620800,0.0,123.85222362354398,0.6835506573601606,10.607627931453818,783,5,0.0,15,232571321861790,6,38.2,-300.076171875,0.02160000056028366,0,0.0,0.0,,,,,0,,1
Raw,17944171,17948907000000,,,-1163849822484620800,0.0,123.85222362354398,0.6835506573601606,10.607627931453818,783,7,0.0,15,232571321952623,14,30.4,155.94720458984375,0.027300000190734863,0,0.0,0.0,,,,,0,,1
Raw,17944172,17948907000000,,,-1163849822484620800,0.0,123.85222362354398,0.6835506573601606,10.607627931453818,783,9,0.0,15,232571316337859,11,33.6,545.962646484375,0.04690000042319298,0,0.0,0.0,,,,,0,,1
Raw,17944173,17948907000000,,,-1163849822484620800,0.0,123.85222362354398,0.6835506573601606,10.607627931453818,783,30,0.0,15,232571322480120,80,16.9,-281.4443359375,1.1694999933242798,0,0.0,0.0,,,,,0,,1
Raw,17945176,17949907000000,,,-1163849822484620800,0.0,121.60386540926993,-0.9298616164380874,12.560074705039943,783,2,0.0,15,232572316678030,35,22.6,452.15679931640625,0.750499963760376,0,0.0,0.0,,,,,0,,1
Raw,17945177,17949907000000,,,-1163849822484620800,0.0,121.60386540926993,-0.9298616164380874,12.560074705039943,783,5,0.0,15,232572321862795,6,38.5,-300.3275451660156,0.02160000056028366,0,0.0,0.0,,,,,0,,1
Raw,17945177,17949907000000,,,-1163849822484620800,0.0,121.60386540926993,-0.9298616164380874,12.560074705039943,783,7,0.0,15,232572321952100,16,29.5,155.6434783935547,0.028200000524520874,0,0.0,0.0,,,,,0,,1
Raw,17945178,17949907000000,,,-1163849822484620800,0.0,121.60386540926993,-0.9298616164380874,12.560074705039943,783,9,0.0,15,232572316336098,16,29.6,545.5479125976562,0.050700001418590546,0,0.0,0.0,,,,,0,,1
Raw,17945179,17949907000000,,,-1163849822484620800,0.0,121.60386540926993,-0.9298616164380874,12.560074705039943,783,30,0.0,15,232572322481276,61,18.7,-280.19793701171875,0.999500036239624,0,0.0,0.0,,,,,0,,1
Fix,gps,51.513721,-0.079234,87.000000,0.000000,27.000000,1479832556000
Raw,17946204,17950907000000,,,-1163849822484620800,0.0,124.07044414430857,-2.2195001937039716,10.625524885032622,783,2,0.0,15,232573316676540,27,24.6,452.1092224121094,0.640500009059906,0,0.0,0.0,,,,,0,,1
Raw,17946205,17950907000000,,,-1163849822484620800,0.0,124.07044414430857,-2.2195001937039716,10.625524885032622,783,5,0.0,15,232573321863794,6,38.8,-300.4392395019531,0.02160000056028366,0,0.0,0.0,,,,,0,,1
Raw,17946206,17950907000000,,,-1163849822484620800,0.0,124.07044414430857,-2.2195001937039716,10.625524885032622,783,7,0.0,15,232573321951599,14,30.4,155.6808319091797,0.027300000190734863,0,0.0,0.0,,,,,0,,1
Raw,17946206,17950907000000,,,-1163849822484620800,0.0,124.07044414430857,-2.2195001937039716,10.625524885032622,783,9,0.0,15,232573316334233,12,32.8,545.4380493164062,0.0478999987244606,0,0.0,0.0,,,,,0,,1
Raw,17946207,17950907000000,,,-1163849822484620800,0.0,124.07044414430857,-2.2195001937039716,10.625524885032622,783,30,0.0,15,232573322482254,46,20.7,-280.8163757324219,0.8495000004768372,0,0.0,0.0,,,,,0,,1
Fix,gps,51.513721,-0.079234,86.000000,0.000000,27.000000,1479832557000
Fix,gps,51.513722,-0.079235,86.000000,0.000000,27.000000,1479832558000
Raw,17947184,17951907000000,,,-1163849822484620800,0.0,120.63510803272948,-3.0204532839363223,10.60990799570508,783,2,0.0,15,232574316675018,27,24.9,452.12823486328125,0.640500009059906,0,0.0,0.0,,,,,0,,1
Raw,17947185,17951907000000,,,-1163849822484620800,0.0,120.63510803272948,-3.0204532839363223,10.60990799570508,783,5,0.0,15,232574321864788,7,37.9,-300.43994140625,0.022100001573562622,0,0.0,0.0,,,,,0,,1
Raw,17947186,17951907000000,,,-1163849822484620800,0.0,120.63510803272948,-3.0204532839363223,10.60990799570508,783,7,0.0,15,232574321951052,14,30.6,155.63877868652344,0.027300000190734863,0,0.0,0.0,,,,,0,,1
Raw,17947187,17951907000000,,,-1163849822484620800,0.0,120.63510803272948,-3.0204532839363223,10.60990799570508,783,9,0.0,15,232574316332320,11,33.6,545.453369140625,0.04690000042319298,0,0.0,0.0,,,,,0,,1
Raw,17947188,17951907000000,,,-1163849822484620800,0.0,120.63510803272948,-3.0204532839363223,10.60990799570508,783,13,0.0,15,232574313448727,1173,15.1,-606.0282592773438,4.496000289916992,0,0.0,0.0,,,,,0,,1
Raw,17947189,17951907000000,,,-1163849822484620800,0.0,120.63510803272948,-3.0204532839363223,10.60990799570508,783,30,0.0,15,232574322483105,40,21.6,-280.8163757324219,0.7894999980926514,0,0.0,0.0,,,,,0,,1
Raw,17948157,17952907000000,,,-1163849822484620800,0.0,126.22203212231398,-2.8502210784226123,11.581652770070173,783,2,0.0,15,232575316673595,27,24.3,451.9474792480469,0.6904999613761902,0,0.0,0.0,,,,,0,,1
Raw,17948159,17952907000000,,,-1163849822484620800,0.0,126.22203212231398,-2.8502210784226123,11.581652770070173,783,5,0.0,15,232575321865788,7,37.8,-300.5595703125,0.022100001573562622,0,0.0,0.0,,,,,0,,1
Raw,17948160,17952907000000,,,-1163849822484620800,0.0,126.22203212231398,-2.8502210784226123,11.581652770070173,783,7,0.0,15,232575321950573,14,30.4,155.52667236328125,0.027300000190734863,0,0.0,0.0,,,,,0,,1
Raw,17948162,17952907000000,,,-1163849822484620800,0.0,126.22203212231398,-2.8502210784226123,11.581652770070173,783,9,0.0,15,232575316330448,9,35.0,545.2325439453125,0.04560000076889992,0,0.0,0.0,,,,,0,,1
Raw,17948163,17952907000000,,,-1163849822484620800,0.0,126.22203212231398,-2.8502210784226123,11.581652770070173,783,13,0.0,15,232575313450752,1187,14.7,-606.2280883789062,5.246000289916992,0,0.0,0.0,,,,,0,,1
Raw,17948164,17952907000000,,,-1163849822484620800,0.0,126.22203212231398,-2.8502210784226123,11.581652770070173,783,30,0.0,15,232575322484014,46,20.5,-281.21600341796875,0.8495000004768372,0,0.0,0.0,,,,,0,,1
Fix,gps,51.513722,-0.079235,87.000000,0.000000,30.000000,1479832559000
Fix,gps,51.513721,-0.079235,87.000000,0.000000,32.000000,1479832560000
Raw,17949166,17953907000000,,,-1163849822484620800,0.0,139.06568347010761,-3.639193293892046,10.606983755645125,783,2,0.0,15,232576316672044,24,25.6,451.9995422363281,0.4057999849319458,0,0.0,0.0,,,,,0,,1
Raw,17949169,17953907000000,,,-1163849822484620800,0.0,139.06568347010761,-3.639193293892046,10.606983755645125,783,5,0.0,15,232576321866802,7,37.2,-300.32275390625,0.022100001573562622,0,0.0,0.0,,,,,0,,1
Raw,17949171,17953907000000,,,-1163849822484620800,0.0,139.06568347010761,-3.639193293892046,10.606983755645125,783,6,0.0,15,232576310253794,1360,14.1,711.3367919921875,5.21150016784668,0,0.0,0.0,,,,,0,,1
Raw,17949174,17953907000000,,,-1163849822484620800,0.0,139.06568347010761,-3.639193293892046,10.606983755645125,783,7,0.0,15,232576321950034,14,30.2,155.79632568359375,0.027300000190734863,0,0.0,0.0,,,,,0,,1
Raw,17949175,17953907000000,,,-1163849822484620800,0.0,139.06568347010761,-3.639193293892046,10.606983755645125,783,9,0.0,15,232576316328643,9,35.2,545.4430541992188,0.04560000076889992,0,0.0,0.0,,,,,0,,1
Raw,17949176,17953907000000,,,-1163849822484620800,0.0,139.06568347010761,-3.639193293892046,10.606983755645125,783,13,0.0,15,232576313452830,1204,14.6,-606.5896606445312,5.996000289916992,0,0.0,0.0,,,,,0,,1
Raw,17949177,17953907000000,,,-1163849822484620800,0.0,139.06568347010761,-3.639193293892046,10.606983755645125,783,30,0.0,15,232576322484858,53,19.7,-281.0351867675781,0.9194999933242798,0,0.0,0.0,,,,,0,,1
Raw,17950152,17954907000000,,,-1163849822484620800,0.0,148.32624583505094,-3.2887668232750022,12.563834783093647,783,2,0.0,15,232577316670486,21,26.3,451.6387023925781,0.13519999384880066,0,0.0,0.0,,,,,0,,1
Raw,17950154,17954907000000,,,-1163849822484620800,0.0,148.32624583505094,-3.2887668232750022,12.563834783093647,783,5,0.0,15,232577321867793,8,36.8,-300.7322692871094,0.022700000554323196,0,0.0,0.0,,,,,0,,1
Raw,17950155,17954907000000,,,-1163849822484620800,0.0,148.32624583505094,-3.2887668232750022,12.563834783093647,783,6,0.0,15,232577310251393,1376,14.1,711.136962890625,5.96150016784668,0,0.0,0.0,,,,,0,,1
Raw,17950156,17954907000000,,,-1163849822484620800,0.0,148.32624583505094,-3.2887668232750022,12.563834783093647,783,7,0.0,15,232577321949509,14,30.1,155.36122131347656,0.027300000190734863,0,0.0,0.0,,,,,0,,1
Raw,17950159,17954907000000,,,-1163849822484620800,0.0,148.32624583505094,-3.2887668232750022,12.563834783093647,783,9,0.0,15,232577316326861,9,35.4,544.9080810546875,0.04560000076889992,0,0.0,0.0,,,,,0,,1
Raw,17950160,17954907000000,,,-1163849822484620800,0.0,148.32624583505094,-3.2887668232750022,12.563834783093647,783,13,0.0,15,232577313454872,1223,14.5,-606.6466674804688,6.746000289916992,0,0.0,0.0,,,,,0,,1
Raw,17950161,17954907000000,,,-1163849822484620800,0.0,148.32624583505094,-3.2887668232750022,12.563834783093647,783,28,0.0,15,232577307784481,1394,14.0,-622.8311767578125,6.677000522613525,0,0.0,0.0,,,,,0,,1
Raw,17950161,17954907000000,,,-1163849822484620800,0.0,148.32624583505094,-3.2887668232750022,12.563834783093647,783,30,0.0,15,232577322485713,61,18.6,-283.09039306640625,0.999500036239624,0,0.0,0.0,,,,,0,,1
Fix,gps,51.513721,-0.079235,86.000000,0.000000,30.000000,1479832561000
Raw,17951179,17955907000000,,,-1163849822484620800,0.0,139.34599701315165,-4.9366619871683515,10.59354672544305,783,2,0.0,15,232578316669007,21,26.3,452.43695068359375,0.13519999384880066,0,0.0,0.0,,,,,0,,1
Raw,17951180,17955907000000,,,-1163849822484620800,0.0,139.34599701315165,-4.9366619871683515,10.59354672544305,783,5,0.0,15,232578321868794,7,37.2,-299.9028625488281,0.022100001573562622,0,0.0,0.0,,,,,0,,1
Raw,17951181,17955907000000,,,-1163849822484620800,0.0,139.34599701315165,-4.9366619871683515,10.59354672544305,783,6,0.0,15,232578310249051,1394,13.8,711.1084594726562,6.71150016784668,0,0.0,0.0,,,,,0,,1
Raw,17951182,17955907000000,,,-1163849822484620800,0.0,139.34599701315165,-4.9366619871683515,10.59354672544305,783,7,0.0,15,232578321948990,14,30.1,156.22352600097656,0.027300000190734863,0,0.0,0.0,,,,,0,,1
Raw,17951183,17955907000000,,,-1163849822484620800,0.0,139.34599701315165,-4.9366619871683515,10.59354672544305,783,9,0.0,15,232578316325078,9,35.3,545.7120971679688,0.04560000076889992,0,0.0,0.0,,,,,0,,1
Raw,17951184,17955907000000,,,-1163849822484620800,0.0,139.34599701315165,-4.9366619871683515,10.59354672544305,783,13,0.0,15,232578313456913,1244,15.0,-606.6942749023438,7.496000289916992,0,0.0,0.0,,,,,0,,1
Raw,17951185,17955907000000,,,-1163849822484620800,0.0,139.34599701315165,-4.9366619871683515,10.59354672544305,783,28,0.0,15,232578307786559,1415,13.8,-622.8597412109375,7.427000522613525,0,0.0,0.0,,,,,0,,1
Raw,17951185,17955907000000,,,-1163849822484620800,0.0,139.34599701315165,-4.9366619871683515,10.59354672544305,783,30,0.0,15,232578322486804,61,18.2,-279.9219970703125,1.0794999599456787,0,0.0,0.0,,,,,0,,1
Fix,gps,51.513722,-0.079235,85.000000,0.000000,28.000000,1479832562000
Fix,gps,51.513722,-0.079235,84.000000,0.000000,26.000000,1479832563000
Raw,17952154,17956907000000,,,-1163849822484620800,0.0,125.31255197245628,-2.822495075629498,10.581781371228473,783,2,0.0,15,232579316667612,24,25.5,452.90863037109375,0.4057999849319458,0,0.0,0.0,,,,,0,,1
Raw,17952156,17956907000000,,,-1163849822484620800,0.0,125.31255197245628,-2.822495075629498,10.581781371228473,783,5,0.0,15,232579321869796,7,37.6,-299.47332763671875,0.022100001573562622,0,0.0,0.0,,,,,0,,1
Raw,17952158,17956907000000,,,-1163849822484620800,0.0,125.31255197245628,-2.822495075629498,10.581781371228473,783,6,0.0,15,232579310246673,1416,13.5,711.117919921875,7.46150016784668,0,0.0,0.0,,,,,0,,1
Raw,17952160,17956907000000,,,-1163849822484620800,0.0,125.31255197245628,-2.822495075629498,10.581781371228473,783,7,0.0,15,232579321948466,17,28.5,156.63565063476562,0.03480000048875809,0,0.0,0.0,,,,,0,,1
Raw,17952162,17956907000000,,,-1163849822484620800,0.0,125.31255197245628,-2.822495075629498,10.581781371228473,783,9,0.0,15,232579316323286,10,34.9,546.0315551757812,0.04609999805688858,0,0.0,0.0,,,,,0,,1
Raw,17952164,17956907000000,,,-1163849822484620800,0.0,125.31255197245628,-2.822495075629498,10.581781371228473,783,13,0.0,15,232579313458942,1116,15.5,-606.7703857421875,8.145999908447266,0,0.0,0.0,,,,,0,,1
Raw,17952166,17956907000000,,,-1163849822484620800,0.0,125.31255197245628,-2.822495075629498,10.581781371228473,783,28,0.0,15,232579307788674,1438,13.8,-622.8597412109375,8.177000045776367,0,0.0,0.0,,,,,0,,1
Raw,17952168,17956907000000,,,-1163849822484620800,0.0,125.31255197245628,-2.822495075629498,10.581781371228473,783,30,0.0,15,232579322487669,53,19.0,-279.9029541015625,0.999500036239624,0,0.0,0.0,,,,,0,,1
Raw,17953153,17957907000000,,,-1163849822484620800,0.0,117.01775656547397,-1.6873477510607016,9.604294684099475,783,2,0.0,15,232580316666065,24,25.7,453.0068664550781,0.4057999849319458,0,0.0,0.0,,,,,0,,1
Raw,17953155,17957907000000,,,-1163849822484620800,0.0,117.01775656547397,-1.6873477510607016,9.604294684099475,783,5,0.0,15,232580321870803,7,37.8,-299.2602233886719,0.022100001573562622,0,0.0,0.0,,,,,0,,1
Raw,17953157,17957907000000,,,-1163849822484620800,0.0,117.01775656547397,-1.6873477510607016,9.604294684099475,783,6,0.0,15,232580310244261,1642,13.3,711.0322875976562,8.331500053405762,0,0.0,0.0,,,,,0,,1
Raw,17953159,17957907000000,,,-1163849822484620800,0.0,117.01775656547397,-1.6873477510607016,9.604294684099475,783,7,0.0,15,232580321947921,14,30.0,156.81405639648438,0.027300000190734863,0,0.0,0.0,,,,,0,,1
Raw,17953162,17957907000000,,,-1163849822484620800,0.0,117.01775656547397,-1.6873477510607016,9.604294684099475,783,9,0.0,15,232580316321447,9,35.2,546.182373046875,0.04560000076889992,0,0.0,0.0,,,,,0,,1
Raw,17953166,17957907000000,,,-1163849822484620800,0.0,117.01775656547397,-1.6873477510607016,9.604294684099475,783,13,0.0,15,232580313460985,1142,15.5,-606.665771484375,8.895999908447266,0,0.0,0.0,,,,,0,,1
Raw,17953167,17957907000000,,,-1163849822484620800,0.0,117.01775656547397,-1.6873477510607016,9.604294684099475,783,28,0.0,15,232580307790740,1464,14.3,-622.717041015625,8.927000045776367,0,0.0,0.0,,,,,0,,1
Raw,17953168,17957907000000,,,-1163849822484620800,0.0,117.01775656547397,-1.6873477510607016,9.604294684099475,783,30,0.0,15,232580322488567,53,19.0,-279.65557861328125,0.999500036239624,0,0.0,0.0,,,,,0,,1
Fix,gps,51.513722,-0.079235,84.000000,0.000000,25.000000,1479832564000
Fix,gps,51.513722,-0.079235,84.000000,0.000000,25.000000,1479832565000
Raw,17954159,17958907000000,,,-1163849822484620800,0.0,110.78456736868247,-1.386569043291897,10.579362133191381,783,2,0.0,15,232581316664621,35,22.6,452.4993591308594,0.750499963760376,0,0.0,0.0,,,,,0,,1
Raw,17954161,17958907000000,,,-1163849822484620800,0.0,110.78456736868247,-1.386569043291897,10.579362133191381,783,5,0.0,15,232581321871802,7,37.7,-299.0006103515625,0.022100001573562622,0,0.0,0.0,,,,,0,,1
Raw,17954163,17958907000000,,,-1163849822484620800,0.0,110.78456736868247,-1.386569043291897,10.579362133191381,783,6,0.0,15,232581310241877,1668,12.9,710.9752197265625,9.081500053405762,0,0.0,0.0,,,,,0,,1
Raw,17954165,17958907000000,,,-1163849822484620800,0.0,110.78456736868247,-1.386569043291897,10.579362133191381,783,7,0.0,15,232581321947390,17,28.2,157.11065673828125,0.03480000048875809,0,0.0,0.0,,,,,0,,1
Raw,17954166,17958907000000,,,-1163849822484620800,0.0,110.78456736868247,-1.386569043291897,10.579362133191381,783,9,0.0,15,232581316319577,8,36.2,546.3882446289062,0.04520000144839287,0,0.0,0.0,,,,,0,,1
Raw,17954168,17958907000000,,,-1163849822484620800,0.0,110.78456736868247,-1.386569043291897,10.579362133191381,783,13,0.0,15,232581313463009,1171,16.1,-606.67529296875,9.645999908447266,0,0.0,0.0,,,,,0,,1
Raw,17954170,17958907000000,,,-1163849822484620800,0.0,110.78456736868247,-1.386569043291897,10.579362133191381,783,28,0.0,15,232581307792839,1493,14.3,-622.5267333984375,9.677000045776367,0,0.0,0.0,,,,,0,,1
Raw,17954171,17958907000000,,,-1163849822484620800,0.0,110.78456736868247,-1.386569043291897,10.579362133191381,783,30,0.0,15,232581322489625,70,17.4,-279.79827880859375,1.1694999933242798,0,0.0,0.0,,,,,0,,1
Raw,17955171,17959907000000,,,-1163849822484620800,0.0,115.21041597006842,-0.8222602986131947,13.511010214947916,783,2,0.0,15,232582316662989,40,21.5,452.0901794433594,0.8104999661445618,0,0.0,0.0,,,,,0,,1
Raw,17955172,17959907000000,,,-1163849822484620800,0.0,115.21041597006842,-0.8222602986131947,13.511010214947916,783,5,0.0,15,232582321872798,7,37.1,-299.5811462402344,0.022100001573562622,0,0.0,0.0,,,,,0,,1
Raw,17955174,17959907000000,,,-1163849822484620800,0.0,115.21041597006842,-0.8222602986131947,13.511010214947916,783,6,0.0,15,232582310239489,1697,12.8,711.2891845703125,9.831500053405762,0,0.0,0.0,,,,,0,,1
Raw,17955175,17959907000000,,,-1163849822484620800,0.0,115.21041597006842,-0.8222602986131947,13.511010214947916,783,7,0.0,15,232582321946828,27,24.0,156.45945739746094,0.6679999828338623,0,0.0,0.0,,,,,0,,1
Raw,17955177,17959907000000,,,-1163849822484620800,0.0,115.21041597006842,-0.8222602986131947,13.511010214947916,783,9,0.0,15,232582316317729,9,35.6,545.9729614257812,0.04560000076889992,0,0.0,0.0,,,,,0,,1
Raw,17955178,17959907000000,,,-1163849822484620800,0.0,115.21041597006842,-0.8222602986131947,13.511010214947916,783,13,0.0,15,232582313465030,309,16.0,-606.6181640625,10.770999908447266,0,0.0,0.0,,,,,0,,1
Raw,17955179,17959907000000,,,-1163849822484620800,0.0,115.21041597006842,-0.8222602986131947,13.511010214947916,783,28,0.0,15,232582307794931,331,14.2,-622.5076904296875,10.802000045776367,0,0.0,0.0,,,,,0,,1
Raw,17955180,17959907000000,,,-1163849822484620800,0.0,115.21041597006842,-0.8222602986131947,13.511010214947916,783,30,0.0,15,232582322490496,40,21.6,-280.16937255859375,0.7894999980926514,0,0.0,0.0,,,,,0,,1
Fix,gps,51.513752,-0.079230,86.000000,0.960000,30.000000,1479832566000
Fix,gps,51.513761,-0.079231,86.000000,0.000000,29.000000,1479832567000
Raw,17956175,17960907000000,,,-1163849822484620800,0.0,132.08205928094685,-2.3017538893257172,10.760533000631845,783,2,0.0,15,232583316661540,61,18.9,454.3356628417969,1.0205000638961792,0,0.0,0.0,,,,,0,,1
Raw,17956176,17960907000000,,,-1163849822484620800,0.0,132.08205928094685,-2.3017538893257172,10.760533000631845,783,5,0.0,15,232583321873786,7,37.6,-298.694580078125,0.022100001573562622,0,0.0,0.0,,,,,0,,1
Raw,17956177,17960907000000,,,-1163849822484620800,0.0,132.08205928094685,-2.3017538893257172,10.760533000631845,783,6,0.0,15,232583310237103,368,12.8,711.3272705078125,10.956500053405762,0,0.0,0.0,,,,,0,,1
Raw,17956178,17960907000000,,,-1163849822484620800,0.0,132.08205928094685,-2.3017538893257172,10.760533000631845,783,7,0.0,15,232583321946362,19,27.2,157.2872314453125,0.527999997138977,0,0.0,0.0,,,,,0,,1
Raw,17956179,17960907000000,,,-1163849822484620800,0.0,132.08205928094685,-2.3017538893257172,10.760533000631845,783,9,0.0,15,232583316315914,10,34.6,546.5869140625,0.04609999805688858,0,0.0,0.0,,,,,0,,1
Raw,17956180,17960907000000,,,-1163849822484620800,0.0,132.08205928094685,-2.3017538893257172,10.760533000631845,783,13,0.0,15,232583313467053,381,16.0,-606.6181640625,12.270999908447266,0,0.0,0.0,,,,,0,,1
Raw,17956182,17960907000000,,,-1163849822484620800,0.0,132.08205928094685,-2.3017538893257172,10.760533000631845,783,28,0.0,15,232583307797008,403,14.2,-622.5076904296875,12.302000999450684,0,0.0,0.0,,,,,0,,1
Raw,17956183,17960907000000,,,-1163849822484620800,0.0,132.08205928094685,-2.3017538893257172,10.760533000631845,783,30,0.0,15,232583322491789,40,21.0,-279.76025390625,0.8495000004768372,0,0.0,0.0,,,,,0,,1
Raw,17957160,17961907000000,,,-1163849822484620800,0.0,129.3819077545777,-0.41189026184937827,10.885831557652878,783,2,0.0,15,232584316660025,69,18.9,454.3356628417969,2.5205001831054688,0,0.0,0.0,,,,,0,,1
Raw,17957162,17961907000000,,,-1163849822484620800,0.0,129.3819077545777,-0.41189026184937827,10.885831557652878,783,5,0.0,15,232584321874777,7,37.6,-297.90679931640625,0.022100001573562622,0,0.0,0.0,,,,,0,,1
Raw,17957164,17961907000000,,,-1163849822484620800,0.0,129.3819077545777,-0.41189026184937827,10.885831557652878,783,6,0.0,15,232584310234730,440,12.8,711.3272705078125,12.456500053405762,0,0.0,0.0,,,,,0,,1
Raw,17957166,17961907000000,,,-1163849822484620800,0.0,129.3819077545777,-0.41189026184937827,10.885831557652878,783,7,0.0,15,232584321945884,17,28.1,158.3665313720703,0.03480000048875809,0,0.0,0.0,,,,,0,,1
Raw,17957167,17961907000000,,,-1163849822484620800,0.0,129.3819077545777,-0.41189026184937827,10.885831557652878,783,9,0.0,15,232584316314114,10,34.4,547.3380737304688,0.04609999805688858,0,0.0,0.0,,,,,0,,1
Raw,17957169,17961907000000,,,-1163849822484620800,0.0,129.3819077545777,-0.41189026184937827,10.885831557652878,783,13,0.0,15,232584313469077,464,16.0,-606.6181640625,13.770999908447266,0,0.0,0.0,,,,,0,,1
Raw,17957171,17961907000000,,,-1163849822484620800,0.0,129.3819077545777,-0.41189026184937827,10.885831557652878,783,28,0.0,15,232584307799084,485,14.2,-622.5076904296875,13.802000999450684,0,0.0,0.0,,,,,0,,1
Raw,17957173,17961907000000,,,-1163849822484620800,0.0,129.3819077545777,-0.41189026184937827,10.885831557652878,783,30,0.0,15,232584322492873,46,20.9,-279.6175231933594,0.8495000004768372,0,0.0,0.0,,,,,0,,1
Fix,gps,51.513797,-0.079225,87.000000,0.000000,28.000000,1479832568000
Fix,gps,51.513815,-0.079215,87.000000,0.000000,30.000000,1479832569000
Raw,17958182,17962907000000,,,-1163849822484620800,0.0,121.24748172936961,2.001862215621877,10.649611493326313,783,2,0.0,15,232585316658509,88,18.9,454.3356628417969,4.020500183105469,0,0.0,0.0,,,,,0,,1
Raw,17958182,17962907000000,,,-1163849822484620800,0.0,121.24748172936961,2.001862215621877,10.649611493326313,783,5,0.0,15,232585321875769,7,37.8,-297.55096435546875,0.022100001573562622,0,0.0,0.0,,,,,0,,1
Raw,17958183,17962907000000,,,-1163849822484620800,0.0,121.24748172936961,2.001862215621877,10.649611493326313,783,6,0.0,15,232585310232357,523,12.8,711.3272705078125,13.956500053405762,0,0.0,0.0,,,,,0,,1
Raw,17958184,17962907000000,,,-1163849822484620800,0.0,121.24748172936961,2.001862215621877,10.649611493326313,783,7,0.0,15,232585321945390,21,26.3,158.5498809814453,0.11270000040531158,0,0.0,0.0,,,,,0,,1
Raw,17958184,17962907000000,,,-1163849822484620800,0.0,121.24748172936961,2.001862215621877,10.649611493326313,783,9,0.0,15,232585316312343,9,35.5,547.5131225585938,0.04560000076889992,0,0.0,0.0,,,,,0,,1
Raw,17958185,17962907000000,,,-1163849822484620800,0.0,121.24748172936961,2.001862215621877,10.649611493326313,783,13,0.0,15,232585313471100,557,16.0,-606.6181640625,15.271000862121582,0,0.0,0.0,,,,,0,,1
Raw,17958186,17962907000000,,,-1163849822484620800,0.0,121.24748172936961,2.001862215621877,10.649611493326313,783,28,0.0,15,232585307801160,577,14.2,-622.5076904296875,15.302000999450684,0,0.0,0.0,,,,,0,,1
Raw,17958186,17962907000000,,,-1163849822484620800,0.0,121.24748172936961,2.001862215621877,10.649611493326313,783,30,0.0,15,232585322493819,40,21.0,-278.732666015625,0.8495000004768372,0,0.0,0.0,,,,,0,,1
Fix,gps,51.513853,-0.079199,86.000000,0.000000,30.000000,1479832570000
Raw,17959153,17963907000000,,,-1163849822484620800,0.0,129.10051736980677,2.625073481676891,10.766212881651212,783,5,0.0,15,232586321876764,6,38.1,-298.3170166015625,0.02160000056028366,0,0.0,0.0,,,,,0,,1
Raw,17959154,17963907000000,,,-1163849822484620800,0.0,129.10051736980677,2.625073481676891,10.766212881651212,783,6,0.0,15,232586310229984,616,12.8,711.3272705078125,15.456501007080078,0,0.0,0.0,,,,,0,,1
Raw,17959155,17963907000000,,,-1163849822484620800,0.0,129.10051736980677,2.625073481676891,10.766212881651212,783,7,0.0,15,232586321944824,19,27.1,157.83071899414062,0.04280000180006027,0,0.0,0.0,,,,,0,,1
Raw,17959156,17963907000000,,,-1163849822484620800,0.0,129.10051736980677,2.625073481676891,10.766212881651212,783,9,0.0,15,232586316310566,9,35.3,546.7959594726562,0.04560000076889992,0,0.0,0.0,,,,,0,,1
Raw,17959157,17963907000000,,,-1163849822484620800,0.0,129.10051736980677,2.625073481676891,10.766212881651212,783,13,0.0,15,232586313473124,660,16.0,-606.6181640625,16.7710018157959,0,0.0,0.0,,,,,0,,1
Raw,17959158,17963907000000,,,-1163849822484620800,0.0,129.10051736980677,2.625073481676891,10.766212881651212,783,28,0.0,15,232586307803237,679,14.2,-622.5076904296875,16.802001953125,0,0.0,0.0,,,,,0,,1
Raw,17959159,17963907000000,,,-1163849822484620800,0.0,129.10051736980677,2.625073481676891,10.766212881651212,783,30,0.0,15,232586322494637,53,19.1,-278.30450439453125,0.999500036239624,0,0.0,0.0,,,,,0,,1
Raw,17960177,17964907000000,,,-1163849822484620800,0.0,126.40860222745687,0.6079438520446739,10.674545868795397,783,5,0.0,15,232587321877758,6,38.3,-298.1925354003906,0.02160000056028366,0,0.0,0.0,,,,,0,,1
Raw,17960184,17964907000000,,,-1163849822484620800,0.0,126.40860222745687,0.6079438520446739,10.674545868795397,783,6,0.0,15,232587310227612,719,12.8,711.3272705078125,16.956501007080078,0,0.0,0.0,,,,,0,,1
Raw,17960185,17964907000000,,,-1163849822484620800,0.0,126.40860222745687,0.6079438520446739,10.674545868795397,783,7,0.0,15,232587321944312,19,27.3,158.03366088867188,0.04280000180006027,0,0.0,0.0,,,,,0,,1
Raw,17960186,17964907000000,,,-1163849822484620800,0.0,126.40860222745687,0.6079438520446739,10.674545868795397,783,9,0.0,15,232587316308713,9,35.2,546.7965698242188,0.04560000076889992,0,0.0,0.0,,,,,0,,1
Raw,17960187,17964907000000,,,-1163849822484620800,0.0,126.40860222745687,0.6079438520446739,10.674545868795397,783,13,0.0,15,232587313475147,772,16.0,-606.6181640625,18.270999908447266,0,0.0,0.0,,,,,0,,1
Raw,17960187,17964907000000,,,-1163849822484620800,0.0,126.40860222745687,0.6079438520446739,10.674545868795397,783,28,0.0,15,232587307805313,792,14.2,-622.5076904296875,18.302001953125,0,0.0,0.0,,,,,0,,1
Raw,17960188,17964907000000,,,-1163849822484620800,0.0,126.40860222745687,0.6079438520446739,10.674545868795397,783,30,0.0,15,232587322495777,53,19.5,-279.2940368652344,0.9194999933242798,0,0.0,0.0,,,,,0,,1
Fix,gps,51.513905,-0.079185,87.000000,0.000000,29.000000,1479832571000
Fix,gps,51.513959,-0.079174,88.000000,0.000000,29.000000,1479832572000
Raw,17961164,17965907000000,,,-1163849822484620800,0.0,123.66127339191735,0.8408414901690412,10.615528230816235,783,5,0.0,15,232588321878747,6,38.2,-296.66168212890625,0.02160000056028366,0,0.0,0.0,,,,,0,,1
Raw,17961166,17965907000000,,,-1163849822484620800,0.0,123.66127339191735,0.8408414901690412,10.615528230816235,783,6,0.0,15,232588310225239,832,12.8,711.3272705078125,18.456501007080078,0,0.0,0.0,,,,,0,,1
Raw,17961168,17965907000000,,,-1163849822484620800,0.0,123.66127339191735,0.8408414901690412,10.615528230816235,783,7,0.0,15,232588321943791,16,29.6,159.66343688964844,0.028200000524520874,0,0.0,0.0,,,,,0,,1
Raw,17961170,17965907000000,,,-1163849822484620800,0.0,123.66127339191735,0.8408414901690412,10.615528230816235,783,9,0.0,15,232588316306868,10,34.9,548.3325805664062,0.04609999805688858,0,0.0,0.0,,,,,0,,1
Raw,17961171,17965907000000,,,-1163849822484620800,0.0,123.66127339191735,0.8408414901690412,10.615528230816235,783,13,0.0,15,232588313477171,895,16.0,-606.6181640625,19.770999908447266,0,0.0,0.0,,,,,0,,1
