# 
# Header Description:
# 
# Version: 1.4.0.0, Platform: N
# 
# Raw,ElapsedRealtimeMillis,TimeNanos,LeapSecond,TimeUncertaintyNanos,FullBiasNanos,BiasNanos,BiasUncertaintyNanos,DriftNanosPerSecond,DriftUncertaintyNanosPerSecond,HardwareClockDiscontinuityCount, Svid,TimeOffsetNanos,State,ReceivedSvTimeNanos,ReceivedSvTimeUncertaintyNanos,Cn0DbHz,PseudorangeRateMetersPerSecond,PseudorangeRateUncertaintyMetersPerSecond,AccumulatedDeltaRangeState,AccumulatedDeltaRangeMeters,AccumulatedDeltaRangeUncertaintyMeters,CarrierFrequencyHz,CarrierCycles,CarrierPhase,CarrierPhaseUncertainty,MultipathIndicator,SnrInDb,ConstellationType
# 
# Fix,Provider,Latitude,Longitude,Altitude,Speed,Accuracy,(UTC)TimeInMs
# 
# Nav,Svid,Type,Status,MessageId,Sub-messageId,Data(Bytes)
# 
Raw,76926197,76899281000000,,,-1163522538120983296,0.0,471.60699614323676,16.668783887525162,15.997993279308865,49,2,0.0,15,569037324607868,2893,13.4,-546.846923828125,36.10250473022461,0,0.0,0.0,,,,,0,,1
Raw,76926198,76899281000000,,,-1163522538120983296,0.0,471.60699614323676,16.668783887525162,15.997993279308865,49,6,0.0,15,569037332722003,111,17.1,-172.88180541992188,4.934500217437744,0,0.0,0.0,,,,,0,,1
Raw,76926199,76899281000000,,,-1163522538120983296,0.0,471.60699614323676,16.668783887525162,15.997993279308865,49,9,0.0,15,569037334077033,40,21.2,-218.266845703125,0.8675000071525574,0,0.0,0.0,,,,,0,,1
Raw,76926200,76899281000000,,,-1163522538120983296,0.0,471.60699614323676,16.668783887525162,15.997993279308865,49,22,0.0,15,569037321321412,2196,12.4,592.2034301757812,15.063000679016113,0,0.0,0.0,,,,,0,,1
Fix,gps,51.524409,-0.134106,196.000000,0.000000,47.000000,1479564221000
Fix,gps,51.524410,-0.134106,196.000000,0.000000,40.000000,1479564222000
Raw,76927232,76900281000000,,,-1163522538120983296,0.0,476.7938225995749,13.981409658261407,17.65198067626702,49,2,0.0,15,569038324609692,3134,13.4,-546.846923828125,37.60250473022461,0,0.0,0.0,,,,,0,,1
Raw,76927234,76900281000000,,,-1163522538120983296,0.0,476.7938225995749,13.981409658261407,17.65198067626702,49,6,0.0,15,569038332722580,145,17.1,-172.88180541992188,6.434500217437744,0,0.0,0.0,,,,,0,,1
Raw,76927236,76900281000000,,,-1163522538120983296,0.0,476.7938225995749,13.981409658261407,17.65198067626702,49,9,0.0,15,569038334077925,40,21.6,-221.38766479492188,0.8075000047683716,0,0.0,0.0,,,,,0,,1
Raw,76927237,76900281000000,,,-1163522538120983296,0.0,476.7938225995749,13.981409658261407,17.65198067626702,49,22,0.0,15,569038321319436,2296,12.4,592.2034301757812,16.562999725341797,0,0.0,0.0,,,,,0,,1
Fix,gps,51.524408,-0.134106,195.000000,0.000000,42.000000,1479564223000
Raw,76928215,76901281000000,,,-1163522538120983296,0.0,442.9917025845498,4.9127730056505365,14.749493081396107,49,6,0.0,15,569039332723156,190,17.1,-172.88180541992188,7.934500217437744,0,0.0,0.0,,,,,0,,1
Raw,76928217,76901281000000,,,-1163522538120983296,0.0,442.9917025845498,4.9127730056505365,14.749493081396107,49,9,0.0,15,569039334078611,40,21.7,-219.66549682617188,0.8075000047683716,0,0.0,0.0,,,,,0,,1
Raw,76928219,76901281000000,,,-1163522538120983296,0.0,442.9917025845498,4.9127730056505365,14.749493081396107,49,22,0.0,15,569039321317461,2405,12.4,592.2034301757812,18.062999725341797,0,0.0,0.0,,,,,0,,1
Fix,gps,51.524408,-0.134106,195.000000,0.000000,36.000000,1479564224000
Raw,76929246,76902281000000,,,-1163522538120983296,0.0,464.91576358675957,7.935138139764758,17.463610945344715,49,6,0.0,15,569040332723733,244,17.1,-172.88180541992188,9.434499740600586,0,0.0,0.0,,,,,0,,1
Raw,76929248,76902281000000,,,-1163522538120983296,0.0,464.91576358675957,7.935138139764758,17.463610945344715,49,9,0.0,15,569040334079385,61,18.3,-218.48568725585938,1.097499966621399,0,0.0,0.0,,,,,0,,1
Raw,76929250,76902281000000,,,-1163522538120983296,0.0,464.91576358675957,7.935138139764758,17.463610945344715,49,22,0.0,15,569040321315486,2525,12.4,592.2034301757812,19.562999725341797,0,0.0,0.0,,,,,0,,1
Raw,76929252,76902281000000,,,-1163522538120983296,0.0,464.91576358675957,7.935138139764758,17.463610945344715,49,23,0.0,15,569040332146173,1163,15.0,218.79014587402344,3.834500312805176,0,0.0,0.0,,,,,0,,1
Fix,gps,51.524404,-0.134107,195.000000,0.000000,38.000000,1479564225000
Raw,76930273,76903281000000,,,-1163522538120983296,0.0,411.85805457644165,10.860346053991913,15.599498171263502,49,6,0.0,15,569041332724310,308,17.1,-172.88180541992188,10.934499740600586,0,0.0,0.0,,,,,0,,1
Raw,76930276,76903281000000,,,-1163522538120983296,0.0,411.85805457644165,10.860346053991913,15.599498171263502,49,9,0.0,15,569041334080059,35,22.3,-219.26588439941406,0.8075000047683716,0,0.0,0.0,,,,,0,,1
Raw,76930278,76903281000000,,,-1163522538120983296,0.0,411.85805457644165,10.860346053991913,15.599498171263502,49,22,0.0,15,569041321313510,2655,12.4,592.2034301757812,21.062999725341797,0,0.0,0.0,,,,,0,,1
Raw,76930280,76903281000000,,,-1163522538120983296,0.0,411.85805457644165,10.860346053991913,15.599498171263502,49,23,0.0,15,569041332145408,1175,14.8,218.96141052246094,4.584500312805176,0,0.0,0.0,,,,,0,,1
Fix,gps,51.524403,-0.134107,195.000000,0.000000,36.000000,1479564226000
Raw,76931230,76904281000000,,,-1163522538120983296,0.0,429.382489528507,9.793958333590599,14.90920414634055,49,6,0.0,15,569042332724886,382,17.1,-172.88180541992188,12.434499740600586,0,0.0,0.0,,,,,0,,1
Raw,76931231,76904281000000,,,-1163522538120983296,0.0,429.382489528507,9.793958333590599,14.90920414634055,49,9,0.0,15,569042334080780,40,21.9,-218.87579345703125,0.8075000047683716,0,0.0,0.0,,,,,0,,1
Raw,76931232,76904281000000,,,-1163522538120983296,0.0,429.382489528507,9.793958333590599,14.90920414634055,49,22,0.0,15,569042321311535,2795,12.4,592.2034301757812,22.562999725341797,0,0.0,0.0,,,,,0,,1
Raw,76931233,76904281000000,,,-1163522538120983296,0.0,429.382489528507,9.793958333590599,14.90920414634055,49,23,0.0,15,569042332144647,1189,15.2,218.80917358398438,5.334500312805176,0,0.0,0.0,,,,,0,,1
Fix,gps,51.524404,-0.134106,195.000000,0.000000,34.000000,1479564227000
Raw,76932206,76905281000000,,,-1163522538120983296,0.0,410.8911089133471,9.931850130032194,15.385922874809443,49,6,0.0,15,569043332725463,466,17.1,-172.88180541992188,13.934500694274902,0,0.0,0.0,,,,,0,,1
Raw,76932207,76905281000000,,,-1163522538120983296,0.0,410.8911089133471,9.931850130032194,15.385922874809443,49,9,0.0,15,569043334081470,40,21.4,-220.06512451171875,0.8675000071525574,0,0.0,0.0,,,,,0,,1
Raw,76932208,76905281000000,,,-1163522538120983296,0.0,410.8911089133471,9.931850130032194,15.385922874809443,49,22,0.0,15,569043321309560,2945,12.4,592.2034301757812,24.062999725341797,0,0.0,0.0,,,,,0,,1
Raw,76932208,76905281000000,,,-1163522538120983296,0.0,410.8911089133471,9.931850130032194,15.385922874809443,49,23,0.0,15,569043332143914,1054,15.5,218.63792419433594,5.984499931335449,0,0.0,0.0,,,,,0,,1
Fix,gps,51.524404,-0.134107,195.000000,0.000000,30.000000,1479564228000
Raw,76933226,76906281000000,,,-1163522538120983296,0.0,384.53316665254533,6.964840772772285,15.522098459652076,49,6,0.0,15,569044332726190,224,13.4,-175.4602813720703,7.614500045776367,0,0.0,0.0,,,,,0,,1
Raw,76933228,76906281000000,,,-1163522538120983296,0.0,384.53316665254533,6.964840772772285,15.522098459652076,49,9,0.0,15,569044334082262,40,21.8,-219.26588439941406,0.8075000047683716,0,0.0,0.0,,,,,0,,1
Raw,76933230,76906281000000,,,-1163522538120983296,0.0,384.53316665254533,6.964840772772285,15.522098459652076,49,22,0.0,15,569044321307584,3104,12.4,592.2034301757812,25.562999725341797,0,0.0,0.0,,,,,0,,1
Raw,76933231,76906281000000,,,-1163522538120983296,0.0,384.53316665254533,6.964840772772285,15.522098459652076,49,23,0.0,15,569044332143163,1073,15.7,218.3619842529297,6.734499931335449,0,0.0,0.0,,,,,0,,1
Fix,gps,51.524402,-0.134107,194.000000,0.000000,29.000000,1479564229000
Raw,76934267,76907281000000,,,-1163522538120983296,0.0,339.51038494706154,6.3974638425751404,15.292323334527548,49,6,0.0,15,569045332726775,274,13.4,-175.4602813720703,9.114500045776367,0,0.0,0.0,,,,,0,,1
Raw,76934268,76907281000000,,,-1163522538120983296,0.0,339.51038494706154,6.3974638425751404,15.292323334527548,49,9,0.0,15,569045334082999,35,22.3,-220.0841522216797,0.8075000047683716,0,0.0,0.0,,,,,0,,1
Raw,76934269,76907281000000,,,-1163522538120983296,0.0,339.51038494706154,6.3974638425751404,15.292323334527548,49,22,0.0,15,569045321305609,3274,12.4,592.2034301757812,27.062999725341797,0,0.0,0.0,,,,,0,,1
Raw,76934277,76907281000000,,,-1163522538120983296,0.0,339.51038494706154,6.3974638425751404,15.292323334527548,49,23,0.0,15,569045332142439,1094,15.9,218.33343505859375,7.484499931335449,0,0.0,0.0,,,,,0,,1
Fix,gps,51.524404,-0.134107,195.000000,0.000000,28.000000,1479564230000
Raw,76935232,76908281000000,,,-1163522538120983296,0.0,329.91994521580637,5.995388389479486,15.558660606107459,49,6,0.0,15,569046332727361,335,13.4,-175.4602813720703,10.614500045776367,0,0.0,0.0,,,,,0,,1
Raw,76935233,76908281000000,,,-1163522538120983296,0.0,329.91994521580637,5.995388389479486,15.558660606107459,49,9,0.0,15,569046334083708,35,22.5,-220.75018310546875,0.7475000023841858,0,0.0,0.0,,,,,0,,1
Raw,76935234,76908281000000,,,-1163522538120983296,0.0,329.91994521580637,5.995388389479486,15.558660606107459,49,22,0.0,15,569046321303633,3454,12.4,592.2034301757812,28.562999725341797,0,0.0,0.0,,,,,0,,1
Raw,76935235,76908281000000,,,-1163522538120983296,0.0,329.91994521580637,5.995388389479486,15.558660606107459,49,23,0.0,15,569046332141707,1119,16.0,218.21926879882812,8.23449993133545,0,0.0,0.0,,,,,0,,1
Fix,gps,51.524400,-0.134108,194.000000,0.000000,29.000000,1479564231000
Raw,76936226,76909281000000,,,-1163522538120983296,0.0,310.34823041409254,3.049661487548513,15.242503890873504,49,6,0.0,15,569047332727946,405,13.4,-175.4602813720703,12.114500045776367,0,0.0,0.0,,,,,0,,1
Raw,76936228,76909281000000,,,-1163522538120983296,0.0,310.34823041409254,3.049661487548513,15.242503890873504,49,9,0.0,15,569047334084457,35,22.2,-219.5894012451172,0.8075000047683716,0,0.0,0.0,,,,,0,,1
Raw,76936229,76909281000000,,,-1163522538120983296,0.0,310.34823041409254,3.049661487548513,15.242503890873504,49,22,0.0,15,569047321301658,3644,12.4,592.2034301757812,30.062999725341797,0,0.0,0.0,,,,,0,,1
Raw,76936231,76909281000000,,,-1163522538120983296,0.0,310.34823041409254,3.049661487548513,15.242503890873504,49,23,0.0,15,569047332140972,1145,16.2,217.96237182617188,8.98449993133545,0,0.0,0.0,,,,,0,,1
Fix,gps,51.524400,-0.134108,194.000000,0.000000,28.000000,1479564232000
Raw,76937253,76910281000000,,,-1163522538120983296,0.0,317.60596903041005,5.078029947140561,14.337343036764002,49,6,0.0,15,569048332728531,486,13.4,-175.4602813720703,13.614500045776367,0,0.0,0.0,,,,,0,,1
Raw,76937256,76910281000000,,,-1163522538120983296,0.0,317.60596903041005,5.078029947140561,14.337343036764002,49,9,0.0,15,569048334085112,40,21.6,-219.35153198242188,0.8075000047683716,0,0.0,0.0,,,,,0,,1
Raw,76937259,76910281000000,,,-1163522538120983296,0.0,317.60596903041005,5.078029947140561,14.337343036764002,49,22,0.0,15,569048321299683,3844,12.4,592.2034301757812,31.562999725341797,0,0.0,0.0,,,,,0,,1
Raw,76937261,76910281000000,,,-1163522538120983296,0.0,317.60596903041005,5.078029947140561,14.337343036764002,49,23,0.0,15,569048332140246,1174,16.4,217.96237182617188,9.73449993133545,0,0.0,0.0,,,,,0,,1
Fix,gps,51.524399,-0.134108,194.000000,0.000000,27.000000,1479564233000
Raw,76938237,76911281000000,,,-1163522538120983296,0.0,303.6506532225758,5.216565521751463,15.202417068882161,49,2,0.0,15,569049324629381,1626,12.7,-541.9754028320312,7.84250020980835,0,0.0,0.0,,,,,0,,1
Raw,76938240,76911281000000,,,-1163522538120983296,0.0,303.6506532225758,5.216565521751463,15.202417068882161,49,6,0.0,15,569049332729117,577,13.4,-175.4602813720703,15.114500999450684,0,0.0,0.0,,,,,0,,1
Raw,76938241,76911281000000,,,-1163522538120983296,0.0,303.6506532225758,5.216565521751463,15.202417068882161,49,9,0.0,15,569049334085912,40,21.0,-219.94143676757812,0.8675000071525574,0,0.0,0.0,,,,,0,,1
Raw,76938244,76911281000000,,,-1163522538120983296,0.0,303.6506532225758,5.216565521751463,15.202417068882161,49,22,0.0,15,569049321297707,4054,12.4,592.2034301757812,33.0629997253418,0,0.0,0.0,,,,,0,,1
Raw,76938245,76911281000000,,,-1163522538120983296,0.0,303.6506532225758,5.216565521751463,15.202417068882161,49,23,0.0,15,569049332139519,311,16.6,217.93382263183594,10.769499778747559,0,0.0,0.0,,,,,0,,1
Fix,gps,51.524399,-0.134108,194.000000,0.000000,25.000000,1479564234000
Raw,76939232,76912281000000,,,-1163522538120983296,0.0,285.6251085177064,4.634507347706935,14.97018135122418,49,2,0.0,15,569050324631191,1651,12.6,-541.8516845703125,8.592500686645508,0,0.0,0.0,,,,,0,,1
Raw,76939234,76912281000000,,,-1163522538120983296,0.0,285.6251085177064,4.634507347706935,14.97018135122418,49,6,0.0,15,569050332729599,166,13.7,-175.52688598632812,5.244500160217285,0,0.0,0.0,,,,,0,,1
Raw,76939236,76912281000000,,,-1163522538120983296,0.0,285.6251085177064,4.634507347706935,14.97018135122418,49,9,0.0,15,569050334086696,35,22.3,-220.54086303710938,0.8075000047683716,0,0.0,0.0,,,,,0,,1
Raw,76939237,76912281000000,,,-1163522538120983296,0.0,285.6251085177064,4.634507347706935,14.97018135122418,49,22,0.0,15,569050321295732,4274,12.4,592.2034301757812,34.5629997253418,0,0.0,0.0,,,,,0,,1
Raw,76939239,76912281000000,,,-1163522538120983296,0.0,285.6251085177064,4.634507347706935,14.97018135122418,49,23,0.0,15,569050332138842,83,16.8,216.78256225585938,1.8294999599456787,0,0.0,0.0,,,,,0,,1
Fix,gps,51.524396,-0.134109,193.000000,0.000000,23.000000,1479564235000
Raw,76940230,76913281000000,,,-1163522538120983296,0.0,265.02436958253384,2.3045502883224054,15.059101471187123,49,2,0.0,15,569051324632969,1912,12.2,-541.9563598632812,9.47249984741211,0,0.0,0.0,,,,,0,,1
Raw,76940232,76913281000000,,,-1163522538120983296,0.0,265.02436958253384,2.3045502883224054,15.059101471187123,49,6,0.0,15,569051332730185,201,13.7,-175.52688598632812,6.744500160217285,0,0.0,0.0,,,,,0,,1
Raw,76940233,76913281000000,,,-1163522538120983296,0.0,265.02436958253384,2.3045502883224054,15.059101471187123,49,9,0.0,15,569051334087389,35,22.7,-220.4837646484375,0.7475000023841858,0,0.0,0.0,,,,,0,,1
Raw,76940234,76913281000000,,,-1163522538120983296,0.0,265.02436958253384,2.3045502883224054,15.059101471187123,49,22,0.0,15,569051321293757,4503,12.4,592.2034301757812,36.0629997253418,0,0.0,0.0,,,,,0,,1
Raw,76940236,76913281000000,,,-1163522538120983296,0.0,265.02436958253384,2.3045502883224054,15.059101471187123,49,23,0.0,15,569051332138011,61,18.2,216.58274841308594,1.094499945640564,0,0.0,0.0,,,,,0,,1
Raw,76941234,76914281000000,,,-1163522538120983296,0.0,243.755363044329,1.6865797105826208,14.732300744812985,49,2,0.0,15,569052324634803,1958,12.0,-541.9658813476562,10.597500801086426,0,0.0,0.0,,,,,0,,1
Raw,76941235,76914281000000,,,-1163522538120983296,0.0,243.755363044329,1.6865797105826208,14.732300744812985,49,6,0.0,15,569052332730770,246,13.7,-175.52688598632812,8.244500160217285,0,0.0,0.0,,,,,0,,1
Raw,76941236,76914281000000,,,-1163522538120983296,0.0,243.755363044329,1.6865797105826208,14.732300744812985,49,9,0.0,15,569052334088092,40,21.5,-222.0727081298828,0.8075000047683716,0,0.0,0.0,,,,,0,,1
Raw,76941237,76914281000000,,,-1163522538120983296,0.0,243.755363044329,1.6865797105826208,14.732300744812985,49,22,0.0,15,569052321291781,4743,12.4,592.2034301757812,37.5629997253418,0,0.0,0.0,,,,,0,,1
Raw,76941238,76914281000000,,,-1163522538120983296,0.0,243.755363044329,1.6865797105826208,14.732300744812985,49,23,0.0,15,569052332137289,70,18.2,216.58274841308594,2.5945000648498535,0,0.0,0.0,,,,,0,,1
Fix,gps,51.524395,-0.134109,193.000000,0.000000,22.000000,1479564236000
Raw,76942236,76915281000000,,,-1163522538120983296,0.0,230.33969046082348,-2.992229038989941,14.966523068853824,49,2,0.0,15,569053324636611,2028,12.0,-541.9658813476562,12.097500801086426,0,0.0,0.0,,,,,0,,1
Raw,76942238,76915281000000,,,-1163522538120983296,0.0,230.33969046082348,-2.992229038989941,14.966523068853824,49,6,0.0,15,569053332731356,301,13.7,-175.52688598632812,9.744500160217285,0,0.0,0.0,,,,,0,,1
Raw,76942239,76915281000000,,,-1163522538120983296,0.0,230.33969046082348,-2.992229038989941,14.966523068853824,49,9,0.0,15,569053334088934,31,23.0,-220.68357849121094,0.7475000023841858,0,0.0,0.0,,,,,0,,1
Raw,76942241,76915281000000,,,-1163522538120983296,0.0,230.33969046082348,-2.992229038989941,14.966523068853824,49,23,0.0,15,569053332136688,73,17.6,215.878662109375,1.8445000648498535,0,0.0,0.0,,,,,0,,1
Fix,gps,51.524396,-0.134109,193.000000,0.000000,21.000000,1479564237000
Fix,gps,51.524395,-0.134109,193.000000,0.000000,20.000000,1479564238000
Raw,76943237,76916281000000,,,-1163522538120983296,0.0,217.88101003039628,-1.1740857640073588,14.774862474355752,49,2,0.0,15,569054324638419,2108,12.0,-541.9658813476562,13.597500801086426,0,0.0,0.0,,,,,0,,1
Raw,76943239,76916281000000,,,-1163522538120983296,0.0,217.88101003039628,-1.1740857640073588,14.774862474355752,49,6,0.0,15,569054332731998,110,15.9,-176.50689697265625,3.5245001316070557,0,0.0,0.0,,,,,0,,1
Raw,76943241,76916281000000,,,-1163522538120983296,0.0,217.88101003039628,-1.1740857640073588,14.774862474355752,49,9,0.0,15,569054334089654,40,21.6,-220.00802612304688,0.8075000047683716,0,0.0,0.0,,,,,0,,1
Raw,76943243,76916281000000,,,-1163522538120983296,0.0,217.88101003039628,-1.1740857640073588,14.774862474355752,49,23,0.0,15,569054332135968,87,17.6,215.878662109375,3.3445000648498535,0,0.0,0.0,,,,,0,,1
Fix,gps,51.524392,-0.134109,193.000000,0.000000,22.000000,1479564239000
Raw,76944233,76917281000000,,,-1163522538120983296,0.0,209.15739878546447,0.2952547759469518,14.973500844835891,49,2,0.0,15,569055324640226,2198,12.0,-541.9658813476562,15.097500801086426,0,0.0,0.0,,,,,0,,1
Raw,76944234,76917281000000,,,-1163522538120983296,0.0,209.15739878546447,0.2952547759469518,14.973500844835891,49,6,0.0,15,569055332732587,135,15.9,-176.50689697265625,5.024499893188477,0,0.0,0.0,,,,,0,,1
Raw,76944235,76917281000000,,,-1163522538120983296,0.0,209.15739878546447,0.2952547759469518,14.973500844835891,49,9,0.0,15,569055334090403,40,21.4,-221.53990173339844,0.8675000071525574,0,0.0,0.0,,,,,0,,1
Raw,76944237,76917281000000,,,-1163522538120983296,0.0,209.15739878546447,0.2952547759469518,14.973500844835891,49,23,0.0,15,569055332135259,84,16.0,216.3163299560547,2.0245001316070557,0,0.0,0.0,,,,,0,,1
Fix,gps,51.524391,-0.134110,193.000000,0.000000,20.000000,1479564240000
Raw,76945260,76918281000000,,,-1163522538120983296,0.0,222.77372772805393,-2.6205795601324797,14.902018007319128,49,2,0.0,15,569056324642034,2298,12.0,-541.9658813476562,16.59749984741211,0,0.0,0.0,,,,,0,,1
Raw,76945261,76918281000000,,,-1163522538120983296,0.0,222.77372772805393,-2.6205795601324797,14.902018007319128,49,6,0.0,15,569056332733269,73,17.4,-177.47740173339844,1.934499979019165,0,0.0,0.0,,,,,0,,1
Raw,76945262,76918281000000,,,-1163522538120983296,0.0,222.77372772805393,-2.6205795601324797,14.902018007319128,49,9,0.0,15,569056334091092,35,22.7,-221.03561401367188,0.7475000023841858,0,0.0,0.0,,,,,0,,1
Raw,76945263,76918281000000,,,-1163522538120983296,0.0,222.77372772805393,-2.6205795601324797,14.902018007319128,49,23,0.0,15,569056332134463,53,19.2,215.85011291503906,1.0145000219345093,0,0.0,0.0,,,,,0,,1
Raw,76946277,76919281000000,,,-1163522538120983296,0.0,209.6040698233992,-2.883305868429216,14.660588867008686,49,2,0.0,15,569057324643842,2408,12.0,-541.9658813476562,18.09749984741211,0,0.0,0.0,,,,,0,,1
Raw,76946278,76919281000000,,,-1163522538120983296,0.0,209.6040698233992,-2.883305868429216,14.660588867008686,49,6,0.0,15,569057332733813,53,19.1,-177.9055633544922,1.0145000219345093,0,0.0,0.0,,,,,0,,1
Raw,76946279,76919281000000,,,-1163522538120983296,0.0,209.6040698233992,-2.883305868429216,14.660588867008686,49,9,0.0,15,569057334091901,35,22.1,-222.9861297607422,0.8075000047683716,0,0.0,0.0,,,,,0,,1
Raw,76946281,76919281000000,,,-1163522538120983296,0.0,209.6040698233992,-2.883305868429216,14.660588867008686,49,23,0.0,15,569057332133770,70,17.9,215.85011291503906,1.094499945640564,0,0.0,0.0,,,,,0,,1
Fix,gps,51.524386,-0.134111,192.000000,0.000000,22.000000,1479564241000
Fix,gps,51.524385,-0.134111,192.000000,0.000000,21.000000,1479564242000
Raw,76947268,76920281000000,,,-1163522538120983296,0.0,242.58458870463073,-7.055702168227845,15.221338341524666,49,2,0.0,15,569058324645650,2528,12.0,-541.9658813476562,19.59749984741211,0,0.0,0.0,,,,,0,,1
Raw,76947269,76920281000000,,,-1163522538120983296,0.0,242.58458870463073,-7.055702168227845,15.221338341524666,49,6,0.0,15,569058332734400,61,18.0,-178.32420349121094,1.094499945640564,0,0.0,0.0,,,,,0,,1
Raw,76947269,76920281000000,,,-1163522538120983296,0.0,242.58458870463073,-7.055702168227845,15.221338341524666,49,9,0.0,15,569058334092546,40,21.8,-221.6255340576172,0.8075000047683716,0,0.0,0.0,,,,,0,,1
Raw,76947270,76920281000000,,,-1163522538120983296,0.0,242.58458870463073,-7.055702168227845,15.221338341524666,49,23,0.0,15,569058332133050,79,17.9,215.85011291503906,2.5945000648498535,0,0.0,0.0,,,,,0,,1
Fix,gps,51.524385,-0.134111,192.000000,0.000000,19.000000,1479564243000
Raw,76948250,76921281000000,,,-1163522538120983296,0.0,226.59118985757232,-6.030160761049111,13.932379131153318,49,2,0.0,15,569059324647458,2658,12.0,-541.9658813476562,21.09749984741211,0,0.0,0.0,,,,,0,,1
Raw,76948252,76921281000000,,,-1163522538120983296,0.0,226.59118985757232,-6.030160761049111,13.932379131153318,49,6,0.0,15,569059332735035,61,18.7,-177.07777404785156,1.0145000219345093,0,0.0,0.0,,,,,0,,1
Raw,76948255,76921281000000,,,-1163522538120983296,0.0,226.59118985757232,-6.030160761049111,13.932379131153318,49,9,0.0,15,569059334093307,35,22.3,-221.9109649658203,0.8075000047683716,0,0.0,0.0,,,,,0,,1
Raw,76948257,76921281000000,,,-1163522538120983296,0.0,226.59118985757232,-6.030160761049111,13.932379131153318,49,23,0.0,15,569059332132337,64,18.6,216.24972534179688,1.7645001411437988,0,0.0,0.0,,,,,0,,1
Fix,gps,51.524386,-0.134111,192.000000,0.000000,21.000000,1479564244000
Raw,76949245,76922281000000,,,-1163522538120983296,0.0,211.51924738660455,-5.481986632181233,13.783547479866805,49,2,0.0,15,569060324649265,2798,12.0,-541.9658813476562,22.59749984741211,0,0.0,0.0,,,,,0,,1
Raw,76949247,76922281000000,,,-1163522538120983296,0.0,211.51924738660455,-5.481986632181233,13.783547479866805,49,6,0.0,15,569060332735626,69,18.7,-177.07777404785156,2.514500141143799,0,0.0,0.0,,,,,0,,1
Raw,76949250,76922281000000,,,-1163522538120983296,0.0,211.51924738660455,-5.481986632181233,13.783547479866805,49,9,0.0,15,569060334093999,31,23.0,-221.23541259765625,0.7475000023841858,0,0.0,0.0,,,,,0,,1
Raw,76949252,76922281000000,,,-1163522538120983296,0.0,211.51924738660455,-5.481986632181233,13.783547479866805,49,23,0.0,15,569060332131539,61,18.0,216.70643615722656,1.094499945640564,0,0.0,0.0,,,,,0,,1
Fix,gps,51.524387,-0.134111,192.000000,0.000000,21.000000,1479564245000
Raw,76950238,76923281000000,,,-1163522538120983296,0.0,228.10918744653463,-4.306660432102752,14.269831821455405,49,2,0.0,15,569061324651073,2948,12.0,-541.9658813476562,24.09749984741211,0,0.0,0.0,,,,,0,,1
Raw,76950239,76923281000000,,,-1163522538120983296,0.0,228.10918744653463,-4.306660432102752,14.269831821455405,49,6,0.0,15,569061332736213,64,18.0,-177.01116943359375,1.8445000648498535,0,0.0,0.0,,,,,0,,1
Raw,76950239,76923281000000,,,-1163522538120983296,0.0,228.10918744653463,-4.306660432102752,14.269831821455405,49,9,0.0,15,569061334094790,35,22.6,-221.0451202392578,0.7475000023841858,0,0.0,0.0,,,,,0,,1
Raw,76950240,76923281000000,,,-1163522538120983296,0.0,228.10918744653463,-4.306660432102752,14.269831821455405,49,23,0.0,15,569061332130842,53,19.5,216.0974884033203,0.934499979019165,0,0.0,0.0,,,,,0,,1
Fix,gps,51.524388,-0.134110,192.000000,0.000000,21.000000,1479564246000
Raw,76951229,76924281000000,,,-1163522538120983296,0.0,234.04217790812254,-5.351513593803086,14.155197157543961,49,2,0.0,15,569062324652881,3108,12.0,-541.9658813476562,25.59749984741211,0,0.0,0.0,,,,,0,,1
Raw,76951231,76924281000000,,,-1163522538120983296,0.0,234.04217790812254,-5.351513593803086,14.155197157543961,49,6,0.0,15,569062332736738,53,19.3,-178.7143096923828,1.0145000219345093,0,0.0,0.0,,,,,0,,1
Raw,76951270,76924281000000,,,-1163522538120983296,0.0,234.04217790812254,-5.351513593803086,14.155197157543961,49,9,0.0,15,569062334095557,35,22.6,-223.00515747070312,0.7475000023841858,0,0.0,0.0,,,,,0,,1
Raw,76951272,76924281000000,,,-1163522538120983296,0.0,234.04217790812254,-5.351513593803086,14.155197157543961,49,23,0.0,15,569062332130169,53,19.9,213.823486328125,0.934499979019165,0,0.0,0.0,,,,,0,,1
Raw,76952221,76925281000000,,,-1163522538120983296,0.0,241.7559444438666,-10.592231334347275,16.258485251883968,49,2,0.0,15,569063324654689,3278,12.0,-541.9658813476562,27.09749984741211,0,0.0,0.0,,,,,0,,1
Raw,76952223,76925281000000,,,-1163522538120983296,0.0,241.7559444438666,-10.592231334347275,16.258485251883968,49,6,0.0,15,569063332737274,53,19.3,-176.71621704101562,1.0145000219345093,0,0.0,0.0,,,,,0,,1
Raw,76952224,76925281000000,,,-1163522538120983296,0.0,241.7559444438666,-10.592231334347275,16.258485251883968,49,9,0.0,15,569063334096281,35,22.5,-221.84437561035156,0.7475000023841858,0,0.0,0.0,,,,,0,,1
Raw,76952226,76925281000000,,,-1163522538120983296,0.0,241.7559444438666,-10.592231334347275,16.258485251883968,49,23,0.0,15,569063332129415,53,19.4,216.01187133789062,1.0145000219345093,0,0.0,0.0,,,,,0,,1
Fix,gps,51.524388,-0.134110,192.000000,0.000000,21.000000,1479564247000
Fix,gps,51.524383,-0.134111,191.000000,0.000000,25.000000,1479564248000
Raw,76953223,76926281000000,,,-1163522538120983296,0.0,244.11773483734578,-7.017695000236172,14.178656290883259,49,2,0.0,15,569064324656497,3458,12.0,-541.9658813476562,28.59749984741211,0,0.0,0.0,,,,,0,,1
Raw,76953232,76926281000000,,,-1163522538120983296,0.0,244.11773483734578,-7.017695000236172,14.178656290883259,49,6,0.0,15,569064332737829,61,18.4,-176.71621704101562,1.094499945640564,0,0.0,0.0,,,,,0,,1
Raw,76953233,76926281000000,,,-1163522538120983296,0.0,244.11773483734578,-7.017695000236172,14.178656290883259,49,9,0.0,15,569064334097025,40,21.7,-221.45425415039062,0.8075000047683716,0,0.0,0.0,,,,,0,,1
Raw,76953234,76926281000000,,,-1163522538120983296,0.0,244.11773483734578,-7.017695000236172,14.178656290883259,49,23,0.0,15,569064332128720,70,17.6,215.43145751953125,1.094499945640564,0,0.0,0.0,,,,,0,,1
Fix,gps,51.524383,-0.134111,191.000000,0.000000,24.000000,1479564249000
Raw,76954235,76927281000000,,,-1163522538120983296,0.0,293.57513994909823,-6.850205313582065,14.492657800633808,49,2,0.0,15,569065324658304,3648,12.0,-541.9658813476562,30.09749984741211,0,0.0,0.0,,,,,0,,1
Raw,76954237,76927281000000,,,-1163522538120983296,0.0,293.57513994909823,-6.850205313582065,14.492657800633808,49,6,0.0,15,569065332738533,61,18.6,-177.2014617919922,1.0145000219345093,0,0.0,0.0,,,,,0,,1
Raw,76954238,76927281000000,,,-1163522538120983296,0.0,293.57513994909823,-6.850205313582065,14.492657800633808,49,9,0.0,15,569065334097739,35,22.7,-221.0546417236328,0.7475000023841858,0,0.0,0.0,,,,,0,,1
Raw,76954240,76927281000000,,,-1163522538120983296,0.0,293.57513994909823,-6.850205313582065,14.492657800633808,49,23,0.0,15,569065332127988,46,20.1,215.80255126953125,0.934499979019165,0,0.0,0.0,,,,,0,,1
Fix,gps,51.524383,-0.134111,191.000000,0.000000,26.000000,1479564250000
Raw,76955231,76928281000000,,,-1163522538120983296,0.0,285.4227786883712,-6.763521517537695,14.247202959158422,49,2,0.0,15,569066324660112,3849,12.0,-541.9658813476562,31.59749984741211,0,0.0,0.0,,,,,0,,1
Raw,76955232,76928281000000,,,-1163522538120983296,0.0,285.4227786883712,-6.763521517537695,14.247202959158422,49,6,0.0,15,569066332738954,53,19.0,-177.48690795898438,1.0145000219345093,0,0.0,0.0,,,,,0,,1
Raw,76955233,76928281000000,,,-1163522538120983296,0.0,285.4227786883712,-6.763521517537695,14.247202959158422,49,9,0.0,15,569066334098469,40,21.7,-220.7787322998047,0.8075000047683716,0,0.0,0.0,,,,,0,,1
Raw,76955234,76928281000000,,,-1163522538120983296,0.0,285.4227786883712,-6.763521517537695,14.247202959158422,49,23,0.0,15,569066332127234,61,18.0,216.70643615722656,1.094499945640564,0,0.0,0.0,,,,,0,,1
Fix,gps,51.524382,-0.134110,191.000000,0.000000,27.000000,1479564251000
Raw,76956229,76929281000000,,,-1163522538120983296,0.0,300.4829923156649,-5.0383435480130165,13.976184676702008,49,2,0.0,15,569067324661920,4059,12.0,-541.9658813476562,33.09749984741211,0,0.0,0.0,,,,,0,,1
Raw,76956230,76929281000000,,,-1163522538120983296,0.0,300.4829923156649,-5.0383435480130165,13.976184676702008,49,6,0.0,15,569067332739571,53,19.9,-177.02069091796875,0.934499979019165,0,0.0,0.0,,,,,0,,1
Raw,76956232,76929281000000,,,-1163522538120983296,0.0,300.4829923156649,-5.0383435480130165,13.976184676702008,49,9,0.0,15,569067334099217,40,21.5,-221.5874786376953,0.8075000047683716,0,0.0,0.0,,,,,0,,1
Raw,76956234,76929281000000,,,-1163522538120983296,0.0,300.4829923156649,-5.0383435480130165,13.976184676702008,49,23,0.0,15,569067332126618,61,18.3,215.4600067138672,1.094499945640564,0,0.0,0.0,,,,,0,,1
Fix,gps,51.524380,-0.134110,191.000000,0.000000,26.000000,1479564252000
Raw,76957234,76930281000000,,,-1163522538120983296,0.0,317.4141747877002,-7.047273803758055,14.536455393394736,49,2,0.0,15,569068324663743,1009,15.8,-544.7822265625,3.572500228881836,0,0.0,0.0,,,,,0,,1
Raw,76957235,76930281000000,,,-1163522538120983296,0.0,317.4141747877002,-7.047273803758055,14.536455393394736,49,6,0.0,15,569068332740223,61,18.5,-176.03115844726562,1.0145000219345093,0,0.0,0.0,,,,,0,,1
Raw,76957237,76930281000000,,,-1163522538120983296,0.0,317.4141747877002,-7.047273803758055,14.536455393394736,49,9,0.0,15,569068334099913,35,22.6,-219.8653106689453,0.7475000023841858,0,0.0,0.0,,,,,0,,1
Raw,76957238,76930281000000,,,-1163522538120983296,0.0,317.4141747877002,-7.047273803758055,14.536455393394736,49,23,0.0,15,569068332125897,53,19.7,217.06800842285156,0.934499979019165,0,0.0,0.0,,,,,0,,1
Fix,gps,51.524379,-0.134111,191.000000,0.000000,25.000000,1479564253000
Raw,76958228,76931281000000,,,-1163522538120983296,0.0,306.2963660340756,-3.259102129645293,14.254613366794722,49,2,0.0,15,569069324665576,1172,15.3,-544.7061157226562,4.422500133514404,0,0.0,0.0,,,,,0,,1
Raw,76958231,76931281000000,,,-1163522538120983296,0.0,306.2963660340756,-3.259102129645293,14.254613366794722,49,6,0.0,15,569069332740919,46,20.2,-175.85989379882812,0.934499979019165,0,0.0,0.0,,,,,0,,1
Raw,76958232,76931281000000,,,-1163522538120983296,0.0,306.2963660340756,-3.259102129645293,14.254613366794722,49,9,0.0,15,569069334100766,35,22.1,-219.25637817382812,0.8075000047683716,0,0.0,0.0,,,,,0,,1
Raw,76958234,76931281000000,,,-1163522538120983296,0.0,306.2963660340756,-3.259102129645293,14.254613366794722,49,23,0.0,15,569069332125067,53,19.1,217.23924255371094,1.0145000219345093,0,0.0,0.0,,,,,0,,1
Fix,gps,51.524379,-0.134111,76.000000,0.000000,22.000000,1479564254000
Raw,76959307,76932281000000,,,-1163522538120983296,0.0,297.4325034301728,-2.5430021037145814,14.52801112334942,49,2,0.0,15,569070324667407,1186,14.8,-544.7442016601562,5.172500133514404,0,0.0,0.0,,,,,0,,1
Raw,76959309,76932281000000,,,-1163522538120983296,0.0,297.4325034301728,-2.5430021037145814,14.52801112334942,49,6,0.0,15,569070332741434,46,20.1,-175.82183837890625,0.934499979019165,0,0.0,0.0,,,,,0,,1
Raw,76959310,76932281000000,,,-1163522538120983296,0.0,297.4325034301728,-2.5430021037145814,14.52801112334942,49,9,0.0,15,569070334101430,35,22.7,-219.5418243408203,0.7475000023841858,0,0.0,0.0,,,,,0,,1
Raw,76959310,76932281000000,,,-1163522538120983296,0.0,297.4325034301728,-2.5430021037145814,14.52801112334942,49,23,0.0,15,569070332124398,46,20.1,216.83013916015625,0.934499979019165,0,0.0,0.0,,,,,0,,1
Fix,gps,51.524378,-0.134111,80.000000,0.000000,21.000000,1479564255000
Raw,76960299,76933281000000,,,-1163522538120983296,0.0,268.15058663487434,-3.2362613255544628,13.314131001120654,49,2,0.0,15,569071324669218,1378,14.4,-544.09716796875,6.042500019073486,0,0.0,0.0,,,,,0,,1
Raw,76960300,76933281000000,,,-1163522538120983296,0.0,268.15058663487434,-3.2362613255544628,13.314131001120654,49,6,0.0,15,569071332741954,46,20.1,-175.78378295898438,0.934499979019165,0,0.0,0.0,,,,,0,,1
Raw,76960302,76933281000000,,,-1163522538120983296,0.0,268.15058663487434,-3.2362613255544628,13.314131001120654,49,9,0.0,15,569071334102121,40,21.5,-219.99850463867188,0.8075000047683716,0,0.0,0.0,,,,,0,,1
Raw,76960303,76933281000000,,,-1163522538120983296,0.0,268.15058663487434,-3.2362613255544628,13.314131001120654,49,23,0.0,15,569071332123618,46,20.7,217.03945922851562,0.8644999861717224,0,0.0,0.0,,,,,0,,1
Fix,gps,51.524377,-0.134110,85.000000,0.000000,19.000000,1479564256000
Raw,76961233,76934281000000,,,-1163522538120983296,0.0,255.42289949953556,-3.383429651280629,13.897460030649492,49,2,0.0,15,569072324670997,1221,14.5,-544.106689453125,6.6725006103515625,0,0.0,0.0,,,,,0,,1
Raw,76961237,76934281000000,,,-1163522538120983296,0.0,255.42289949953556,-3.383429651280629,13.897460030649492,49,6,0.0,15,569072332742566,46,20.7,-175.92649841308594,0.8644999861717224,0,0.0,0.0,,,,,0,,1
Raw,76961238,76934281000000,,,-1163522538120983296,0.0,255.42289949953556,-3.383429651280629,13.897460030649492,49,9,0.0,15,569072334102875,35,22.3,-219.03753662109375,0.8075000047683716,0,0.0,0.0,,,,,0,,1
Raw,76961240,76934281000000,,,-1163522538120983296,0.0,255.42289949953556,-3.383429651280629,13.897460030649492,49,23,0.0,15,569072332122962,53,19.8,216.99188232421875,0.934499979019165,0,0.0,0.0,,,,,0,,1
Fix,gps,51.524376,-0.134111,91.000000,0.000000,19.000000,1479564257000
Raw,76962225,76935281000000,,,-1163522538120983296,0.0,242.69628920592368,-3.166533270657307,14.425952998004242,49,2,0.0,15,569073324672831,1418,14.1,-544.1923217773438,7.5425004959106445,0,0.0,0.0,,,,,0,,1
Raw,76962227,76935281000000,,,-1163522538120983296,0.0,242.69628920592368,-3.166533270657307,14.425952998004242,49,6,0.0,15,569073332743227,53,19.3,-175.26998901367188,1.0145000219345093,0,0.0,0.0,,,,,0,,1
Raw,76962229,76935281000000,,,-1163522538120983296,0.0,242.69628920592368,-3.166533270657307,14.425952998004242,49,9,0.0,15,569073334103654,31,23.0,-219.0660858154297,0.7475000023841858,0,0.0,0.0,,,,,0,,1
Raw,76962232,76935281000000,,,-1163522538120983296,0.0,242.69628920592368,-3.166533270657307,14.425952998004242,49,23,0.0,15,569073332122238,61,19.8,216.99188232421875,2.434500217437744,0,0.0,0.0,,,,,0,,1
Fix,gps,51.524376,-0.134110,99.000000,0.000000,17.000000,1479564258000
Raw,76963250,76936281000000,,,-1163522538120983296,0.0,232.63019102159888,-2.7555910556665024,14.40389832698365,49,2,0.0,15,569074324674647,1442,13.7,-544.2684936523438,8.292500495910645,0,0.0,0.0,,,,,0,,1
Raw,76963251,76936281000000,,,-1163522538120983296,0.0,232.63019102159888,-2.7555910556665024,14.40389832698365,49,6,0.0,15,569074332743798,53,19.1,-174.4422149658203,1.0145000219345093,0,0.0,0.0,,,,,0,,1
Raw,76963253,76936281000000,,,-1163522538120983296,0.0,232.63019102159888,-2.7555910556665024,14.40389832698365,49,9,0.0,15,569074334104291,40,21.9,-219.42762756347656,0.8075000047683716,0,0.0,0.0,,,,,0,,1
Raw,76963255,76936281000000,,,-1163522538120983296,0.0,232.63019102159888,-2.7555910556665024,14.40389832698365,49,23,0.0,15,569074332121486,84,16.3,216.77304077148438,2.0245001316070557,0,0.0,0.0,,,,,0,,1
Fix,gps,51.524375,-0.134111,102.000000,0.000000,19.000000,1479564259000
Raw,76964312,76937281000000,,,-1163522538120983296,0.0,218.59000844415277,-3.180849879185819,13.994339300604288,49,2,0.0,15,569075324676465,1469,13.6,-544.2589721679688,9.042500495910645,0,0.0,0.0,,,,,0,,1
Raw,76964314,76937281000000,,,-1163522538120983296,0.0,218.59000844415277,-3.180849879185819,13.994339300604288,49,6,0.0,15,569075332744379,61,19.1,-174.4422149658203,2.514500141143799,0,0.0,0.0,,,,,0,,1
Raw,76964315,76937281000000,,,-1163522538120983296,0.0,218.59000844415277,-3.180849879185819,13.994339300604288,49,9,0.0,15,569075334105068,31,23.0,-218.9994659423828,0.7475000023841858,0,0.0,0.0,,,,,0,,1
Raw,76964317,76937281000000,,,-1163522538120983296,0.0,218.59000844415277,-3.180849879185819,13.994339300604288,49,23,0.0,15,569075332120763,98,16.3,216.77304077148438,3.5245001316070557,0,0.0,0.0,,,,,0,,1
Fix,gps,51.524373,-0.134111,106.000000,0.000000,19.000000,1479564260000
Raw,76965264,76938281000000,,,-1163522538120983296,0.0,227.34244703315198,-3.051175499518636,14.347789818767698,49,2,0.0,15,569076324678301,1701,13.4,-544.3540649414062,9.912500381469727,0,0.0,0.0,,,,,0,,1
Raw,76965267,76938281000000,,,-1163522538120983296,0.0,227.34244703315198,-3.051175499518636,14.347789818767698,49,6,0.0,15,569076332744919,84,16.8,-175.12725830078125,1.934499979019165,0,0.0,0.0,,,,,0,,1
Raw,76965269,76938281000000,,,-1163522538120983296,0.0,227.34244703315198,-3.051175499518636,14.347789818767698,49,9,0.0,15,569076334105794,40,21.2,-219.27540588378906,0.8675000071525574,0,0.0,0.0,,,,,0,,1
Raw,76965271,76938281000000,,,-1163522538120983296,0.0,227.34244703315198,-3.051175499518636,14.347789818767698,49,23,0.0,15,569076332120040,123,16.3,216.77304077148438,5.024499893188477,0,0.0,0.0,,,,,0,,1
Fix,gps,51.524373,-0.134111,115.000000,0.000000,18.000000,1479564261000
Raw,76966227,76939281000000,,,-1163522538120983296,0.0,234.13989401888102,-3.69392875330095,14.951198046837135,49,2,0.0,15,569077324680142,351,13.5,-544.3160400390625,10.917500495910645,0,0.0,0.0,,,,,0,,1
Raw,76966229,76939281000000,,,-1163522538120983296,0.0,234.13989401888102,-3.69392875330095,14.951198046837135,49,6,0.0,15,569077332745512,61,18.8,-175.30804443359375,1.0145000219345093,0,0.0,0.0,,,,,0,,1
Raw,76966231,76939281000000,,,-1163522538120983296,0.0,234.13989401888102,-3.69392875330095,14.951198046837135,49,9,0.0,15,569077334106561,35,22.2,-219.29443359375,0.8075000047683716,0,0.0,0.0,,,,,0,,1
Raw,76966233,76939281000000,,,-1163522538120983296,0.0,234.13989401888102,-3.69392875330095,14.951198046837135,49,23,0.0,15,569077332119317,157,16.3,216.77304077148438,6.524499893188477,0,0.0,0.0,,,,,0,,1
Fix,gps,51.524374,-0.134110,116.000000,0.000000,19.000000,1479564262000
Raw,76967226,76940281000000,,,-1163522538120983296,0.0,216.0034200642258,-3.9797853471630407,14.409040599550329,49,2,0.0,15,569078324681958,424,13.5,-544.3160400390625,12.417500495910645,0,0.0,0.0,,,,,0,,1
Raw,76967228,76940281000000,,,-1163522538120983296,0.0,216.0034200642258,-3.9797853471630407,14.409040599550329,49,6,0.0,15,569078332746024,61,18.2,-174.40414428710938,1.094499945640564,0,0.0,0.0,,,,,0,,1
Raw,76967230,76940281000000,,,-1163522538120983296,0.0,216.0034200642258,-3.9797853471630407,14.409040599550329,49,9,0.0,15,569078334107293,35,22.3,-218.86627197265625,0.8075000047683716,0,0.0,0.0,,,,,0,,1
Raw,76967231,76940281000000,,,-1163522538120983296,0.0,216.0034200642258,-3.9797853471630407,14.409040599550329,49,23,0.0,15,569078332118701,111,15.0,216.9633331298828,3.624500274658203,0,0.0,0.0,,,,,0,,1
Raw,76968228,76941281000000,,,-1163522538120983296,0.0,226.91251069772989,-2.9318309958750524,14.041050794801082,49,2,0.0,15,569079324683774,507,13.5,-544.3160400390625,13.917500495910645,0,0.0,0.0,,,,,0,,1
Raw,76968230,76941281000000,,,-1163522538120983296,0.0,226.91251069772989,-2.9318309958750524,14.041050794801082,49,6,0.0,15,569079332746636,61,18.7,-174.16627502441406,1.0145000219345093,0,0.0,0.0,,,,,0,,1
Raw,76968231,76941281000000,,,-1163522538120983296,0.0,226.91251069772989,-2.9318309958750524,14.041050794801082,49,9,0.0,15,569079334107991,35,22.6,-218.3715057373047,0.7475000023841858,0,0.0,0.0,,,,,0,,1
Raw,76968232,76941281000000,,,-1163522538120983296,0.0,226.91251069772989,-2.9318309958750524,14.041050794801082,49,23,0.0,15,569079332117978,136,15.0,216.9633331298828,5.124500274658203,0,0.0,0.0,,,,,0,,1
Fix,gps,51.524374,-0.134110,123.000000,0.000000,18.000000,1479564263000
Fix,gps,51.524375,-0.134110,130.000000,0.000000,18.000000,1479564264000
Raw,76969284,76942281000000,,,-1163522538120983296,0.0,219.47834466118366,-1.3407949839525075,14.636388533850003,49,2,0.0,15,569080324685589,600,13.5,-544.3160400390625,15.417500495910645,0,0.0,0.0,,,,,0,,1
Raw,76969286,76942281000000,,,-1163522538120983296,0.0,219.47834466118366,-1.3407949839525075,14.636388533850003,49,6,0.0,15,569080332747217,69,18.7,-174.16627502441406,2.514500141143799,0,0.0,0.0,,,,,0,,1
Raw,76969288,76942281000000,,,-1163522538120983296,0.0,219.47834466118366,-1.3407949839525075,14.636388533850003,49,9,0.0,15,569080334108740,35,22.5,-218.59034729003906,0.7475000023841858,0,0.0,0.0,,,,,0,,1
Raw,76969290,76942281000000,,,-1163522538120983296,0.0,219.47834466118366,-1.3407949839525075,14.636388533850003,49,23,0.0,15,569080332117254,170,15.0,216.9633331298828,6.624500274658203,0,0.0,0.0,,,,,0,,1
Fix,gps,51.524375,-0.134110,135.000000,0.000000,18.000000,1479564265000
Raw,76970249,76943281000000,,,-1163522538120983296,0.0,214.77940026670694,-2.93214870974613,15.70466265550838,49,2,0.0,15,569081324687405,703,13.5,-544.3160400390625,16.917499542236328,0,0.0,0.0,,,,,0,,1
Raw,76970251,76943281000000,,,-1163522538120983296,0.0,214.77940026670694,-2.93214870974613,15.70466265550838,49,6,0.0,15,569081332747758,64,18.0,-174.0235595703125,1.8445000648498535,0,0.0,0.0,,,,,0,,1
Raw,76970256,76943281000000,,,-1163522538120983296,0.0,214.77940026670694,-2.93214870974613,15.70466265550838,49,9,0.0,15,569081334109465,31,23.5,-218.3619842529297,0.6875,0,0.0,0.0,,,,,0,,1
Raw,76970259,76943281000000,,,-1163522538120983296,0.0,214.77940026670694,-2.93214870974613,15.70466265550838,49,23,0.0,15,569081332116530,215,15.0,216.9633331298828,8.124500274658203,0,0.0,0.0,,,,,0,,1
Fix,gps,51.524374,-0.134110,137.000000,0.000000,19.000000,1479564266000
Raw,76971290,76944281000000,,,-1163522538120983296,0.0,209.3442453769967,-2.554251322003427,14.864480849084167,49,2,0.0,15,569082324689221,816,13.5,-544.3160400390625,18.417499542236328,0,0.0,0.0,,,,,0,,1
Raw,76971291,76944281000000,,,-1163522538120983296,0.0,209.3442453769967,-2.554251322003427,14.864480849084167,49,6,0.0,15,569082332748339,78,18.0,-174.0235595703125,3.3445000648498535,0,0.0,0.0,,,,,0,,1
Raw,76971292,76944281000000,,,-1163522538120983296,0.0,209.3442453769967,-2.554251322003427,14.864480849084167,49,9,0.0,15,569082334110142,40,21.4,-218.21926879882812,0.8675000071525574,0,0.0,0.0,,,,,0,,1
Raw,76971294,76944281000000,,,-1163522538120983296,0.0,209.3442453769967,-2.554251322003427,14.864480849084167,49,23,0.0,15,569082332115807,270,15.0,216.9633331298828,9.624500274658203,0,0.0,0.0,,,,,0,,1
Fix,gps,51.524374,-0.134110,143.000000,0.000000,18.000000,1479564267000
Raw,76972279,76945281000000,,,-1163522538120983296,0.0,215.65257338806987,-1.8271897698811468,14.92862803516959,49,2,0.0,15,569083324691036,939,13.5,-544.3160400390625,19.917499542236328,0,0.0,0.0,,,,,0,,1
Raw,76972281,76945281000000,,,-1163522538120983296,0.0,215.65257338806987,-1.8271897698811468,14.92862803516959,49,6,0.0,15,569083332748990,73,17.7,-173.3385009765625,1.8445000648498535,0,0.0,0.0,,,,,0,,1
Raw,76972282,76945281000000,,,-1163522538120983296,0.0,215.65257338806987,-1.8271897698811468,14.92862803516959,49,9,0.0,15,569083334110921,35,22.4,-218.6759796142578,0.8075000047683716,0,0.0,0.0,,,,,0,,1
Raw,76972284,76945281000000,,,-1163522538120983296,0.0,215.65257338806987,-1.8271897698811468,14.92862803516959,49,23,0.0,15,569083332115083,334,15.0,216.9633331298828,11.124500274658203,0,0.0,0.0,,,,,0,,1
Fix,gps,51.524375,-0.134109,146.000000,0.000000,19.000000,1479564268000
Raw,76973306,76946281000000,,,-1163522538120983296,0.0,204.56171478144825,-2.4458588012060978,14.371867678994851,49,2,0.0,15,569084324692852,1072,13.5,-544.3160400390625,21.417499542236328,0,0.0,0.0,,,,,0,,1
Raw,76973307,76946281000000,,,-1163522538120983296,0.0,204.56171478144825,-2.4458588012060978,14.371867678994851,49,6,0.0,15,569084332749569,87,17.7,-173.3385009765625,3.3445000648498535,0,0.0,0.0,,,,,0,,1
Raw,76973307,76946281000000,,,-1163522538120983296,0.0,204.56171478144825,-2.4458588012060978,14.371867678994851,49,9,0.0,15,569084334111622,35,22.4,-217.62936401367188,0.8075000047683716,0,0.0,0.0,,,,,0,,1
Raw,76973308,76946281000000,,,-1163522538120983296,0.0,204.56171478144825,-2.4458588012060978,14.371867678994851,49,23,0.0,15,569084332114229,150,14.4,218.57130432128906,5.244500160217285,0,0.0,0.0,,,,,0,,1
Fix,gps,51.524374,-0.134110,151.000000,0.000000,18.000000,1479564269000
Raw,76974219,76947281000000,,,-1163522538120983296,0.0,209.7038086503744,-1.3634637095981452,15.07981371163355,49,2,0.0,15,569085324694712,236,12.7,-544.0401000976562,7.422500133514404,0,0.0,0.0,,,,,0,,1
Raw,76974221,76947281000000,,,-1163522538120983296,0.0,209.7038086503744,-1.3634637095981452,15.07981371163355,49,6,0.0,15,569085332750179,64,18.0,-172.91986083984375,1.8445000648498535,0,0.0,0.0,,,,,0,,1
Raw,76974222,76947281000000,,,-1163522538120983296,0.0,209.7038086503744,-1.3634637095981452,15.07981371163355,49,9,0.0,15,569085334112354,35,22.4,-218.10508728027344,0.8075000047683716,0,0.0,0.0,,,,,0,,1
Raw,76974223,76947281000000,,,-1163522538120983296,0.0,209.7038086503744,-1.3634637095981452,15.07981371163355,49,23,0.0,15,569085332113500,185,14.4,218.57130432128906,6.744500160217285,0,0.0,0.0,,,,,0,,1
Fix,gps,51.524374,-0.134109,157.000000,0.000000,16.000000,1479564270000
Raw,76975222,76948281000000,,,-1163522538120983296,0.0,202.3219276452437,-1.4977685005296986,16.62477156949467,49,2,0.0,15,569086324696527,285,12.7,-544.0401000976562,8.922500610351562,0,0.0,0.0,,,,,0,,1
Raw,76975223,76948281000000,,,-1163522538120983296,0.0,202.3219276452437,-1.4977685005296986,16.62477156949467,49,6,0.0,15,569086332750735,53,19.1,-172.74859619140625,1.0145000219345093,0,0.0,0.0,,,,,0,,1
Raw,76975224,76948281000000,,,-1163522538120983296,0.0,202.3219276452437,-1.4977685005296986,16.62477156949467,49,9,0.0,15,569086334113085,35,22.9,-218.04800415039062,0.7475000023841858,0,0.0,0.0,,,,,0,,1
Raw,76975226,76948281000000,,,-1163522538120983296,0.0,202.3219276452437,-1.4977685005296986,16.62477156949467,49,23,0.0,15,569086332112771,231,14.4,218.57130432128906,8.244500160217285,0,0.0,0.0,,,,,0,,1
Fix,gps,51.524374,-0.134109,161.000000,0.000000,16.000000,1479564271000
Raw,76976227,76949281000000,,,-1163522538120983296,0.0,185.76535512693226,-2.0585500844262645,14.005699062643021,49,2,0.0,15,569087324698341,344,12.7,-544.0401000976562,10.422500610351562,0,0.0,0.0,,,,,0,,1
Raw,76976229,76949281000000,,,-1163522538120983296,0.0,185.76535512693226,-2.0585500844262645,14.005699062643021,49,6,0.0,15,569087332751312,61,19.1,-172.74859619140625,2.514500141143799,0,0.0,0.0,,,,,0,,1
Raw,76976231,76949281000000,,,-1163522538120983296,0.0,185.76535512693226,-2.0585500844262645,14.005699062643021,49,9,0.0,15,569087334113855,35,22.0,-217.8101348876953,0.8075000047683716,0,0.0,0.0,,,,,0,,1
Raw,76976233,76949281000000,,,-1163522538120983296,0.0,185.76535512693226,-2.0585500844262645,14.005699062643021,49,23,0.0,15,569087332112011,102,15.0,219.25637817382812,2.874500274658203,0,0.0,0.0,,,,,0,,1
Fix,gps,51.524374,-0.134109,162.000000,0.000000,17.000000,1479564272000
Raw,76977244,76950281000000,,,-1163522538120983296,0.0,179.91238564718515,-1.7549239804092505,14.5443875039082,49,2,0.0,15,569088324700156,413,12.7,-544.0401000976562,11.922500610351562,0,0.0,0.0,,,,,0,,1
Raw,76977245,76950281000000,,,-1163522538120983296,0.0,179.91238564718515,-1.7549239804092505,14.5443875039082,49,6,0.0,15,569088332751745,73,17.6,-173.2433624267578,1.8445000648498535,0,0.0,0.0,,,,,0,,1
Raw,76977246,76950281000000,,,-1163522538120983296,0.0,179.91238564718515,-1.7549239804092505,14.5443875039082,49,9,0.0,15,569088334114569,35,22.7,-217.44859313964844,0.7475000023841858,0,0.0,0.0,,,,,0,,1
Raw,76977247,76950281000000,,,-1163522538120983296,0.0,179.91238564718515,-1.7549239804092505,14.5443875039082,49,23,0.0,15,569088332111279,122,15.0,219.25637817382812,4.374500274658203,0,0.0,0.0,,,,,0,,1
Raw,76978240,76951281000000,,,-1163522538120983296,0.0,184.2026977101341,-2.3195750926010916,14.31400319524113,49,2,0.0,15,569089324701971,493,12.7,-544.0401000976562,13.422500610351562,0,0.0,0.0,,,,,0,,1
Raw,76978242,76951281000000,,,-1163522538120983296,0.0,184.2026977101341,-2.3195750926010916,14.31400319524113,49,6,0.0,15,569089332752425,61,18.6,-173.4431610107422,1.0145000219345093,0,0.0,0.0,,,,,0,,1
Raw,76978244,76951281000000,,,-1163522538120983296,0.0,184.2026977101341,-2.3195750926010916,14.31400319524113,49,9,0.0,15,569089334115250,40,21.2,-217.8101348876953,0.8675000071525574,0,0.0,0.0,,,,,0,,1
Raw,76978245,76951281000000,,,-1163522538120983296,0.0,184.2026977101341,-2.3195750926010916,14.31400319524113,49,23,0.0,15,569089332110548,152,15.0,219.25637817382812,5.874500274658203,0,0.0,0.0,,,,,0,,1
Fix,gps,51.524373,-0.134109,163.000000,0.000000,17.000000,1479564273000
Fix,gps,51.524372,-0.134109,164.000000,0.000000,17.000000,1479564274000
Raw,76979301,76952281000000,,,-1163522538120983296,0.0,186.2059289123863,-2.693010966409512,14.029546292025088,49,2,0.0,15,569090324703786,582,12.7,-544.0401000976562,14.922500610351562,0,0.0,0.0,,,,,0,,1
Raw,76979304,76952281000000,,,-1163522538120983296,0.0,186.2059289123863,-2.693010966409512,14.029546292025088,49,6,0.0,15,569090332753066,61,18.6,-173.08160400390625,1.0145000219345093,0,0.0,0.0,,,,,0,,1
Raw,76979307,76952281000000,,,-1163522538120983296,0.0,186.2059289123863,-2.693010966409512,14.029546292025088,49,9,0.0,15,569090334116000,40,21.9,-217.1821746826172,0.8075000047683716,0,0.0,0.0,,,,,0,,1
Raw,76979309,76952281000000,,,-1163522538120983296,0.0,186.2059289123863,-2.693010966409512,14.029546292025088,49,23,0.0,15,569090332109787,102,15.9,220.2458953857422,2.7745001316070557,0,0.0,0.0,,,,,0,,1
Fix,gps,51.524371,-0.134109,168.000000,0.000000,16.000000,1479564275000
Raw,76980245,76953281000000,,,-1163522538120983296,0.0,186.9831612566486,-3.3156386966625155,13.961545184990372,49,2,0.0,15,569091324705600,681,12.7,-544.0401000976562,16.422500610351562,0,0.0,0.0,,,,,0,,1
Raw,76980247,76953281000000,,,-1163522538120983296,0.0,186.9831612566486,-3.3156386966625155,13.961545184990372,49,6,0.0,15,569091332753626,61,18.2,-172.0445098876953,1.094499945640564,0,0.0,0.0,,,,,0,,1
Raw,76980248,76953281000000,,,-1163522538120983296,0.0,186.9831612566486,-3.3156386966625155,13.961545184990372,49,9,0.0,15,569091334116751,35,22.9,-217.44859313964844,0.7475000023841858,0,0.0,0.0,,,,,0,,1
Raw,76980250,76953281000000,,,-1163522538120983296,0.0,186.9831612566486,-3.3156386966625155,13.961545184990372,49,23,0.0,15,569091332109052,121,15.9,220.2458953857422,4.274499893188477,0,0.0,0.0,,,,,0,,1
Fix,gps,51.524372,-0.134109,164.000000,0.000000,18.000000,1479564276000
Raw,76981304,76954281000000,,,-1163522538120983296,0.0,176.43919272813946,-3.231700600592854,13.979707761680416,49,2,0.0,15,569092324707415,791,12.7,-544.0401000976562,17.922500610351562,0,0.0,0.0,,,,,0,,1
Raw,76981306,76954281000000,,,-1163522538120983296,0.0,176.43919272813946,-3.231700600592854,13.979707761680416,49,6,0.0,15,569092332754100,46,20.1,-172.6154022216797,0.934499979019165,0,0.0,0.0,,,,,0,,1
Raw,76981307,76954281000000,,,-1163522538120983296,0.0,176.43919272813946,-3.231700600592854,13.979707761680416,49,7,0.0,15,569092321003694,1413,13.5,-676.0848999023438,7.356500148773193,0,0.0,0.0,,,,,0,,1
Raw,76981308,76954281000000,,,-1163522538120983296,0.0,176.43919272813946,-3.231700600592854,13.979707761680416,49,9,0.0,15,569092334117492,35,22.7,-217.1726531982422,0.7475000023841858,0,0.0,0.0,,,,,0,,1
Raw,76981309,76954281000000,,,-1163522538120983296,0.0,176.43919272813946,-3.231700600592854,13.979707761680416,49,23,0.0,15,569092332108336,84,16.3,220.2458953857422,2.0245001316070557,0,0.0,0.0,,,,,0,,1
Fix,gps,51.524372,-0.134109,167.000000,0.000000,17.000000,1479564277000
Raw,76982233,76955281000000,,,-1163522538120983296,0.0,198.88198585249484,-2.087641183238665,13.907847962023752,49,2,0.0,15,569093324709230,910,12.7,-544.0401000976562,19.422500610351562,0,0.0,0.0,,,,,0,,1
Raw,76982235,76955281000000,,,-1163522538120983296,0.0,198.88198585249484,-2.087641183238665,13.907847962023752,49,6,0.0,15,569093332754731,46,20.4,-172.78665161132812,0.934499979019165,0,0.0,0.0,,,,,0,,1
Raw,76982236,76955281000000,,,-1163522538120983296,0.0,198.88198585249484,-2.087641183238665,13.907847962023752,49,7,0.0,15,569093321005912,1436,13.6,-676.275146484375,8.106500625610352,0,0.0,0.0,,,,,0,,1
Raw,76982237,76955281000000,,,-1163522538120983296,0.0,198.88198585249484,-2.087641183238665,13.907847962023752,49,9,0.0,15,569093334118225,46,20.1,-217.77207946777344,0.9375,0,0.0,0.0,,,,,0,,1
Raw,76982238,76955281000000,,,-1163522538120983296,0.0,198.88198585249484,-2.087641183238665,13.907847962023752,49,23,0.0,15,569093332107602,98,16.3,220.2458953857422,3.5245001316070557,0,0.0,0.0,,,,,0,,1
Raw,76983227,76956281000000,,,-1163522538120983296,0.0,193.148895050399,-4.021581223244361,14.759096867897068,49,2,0.0,15,569094324711045,1039,12.7,-544.0401000976562,20.922500610351562,0,0.0,0.0,,,,,0,,1
Raw,76983228,76956281000000,,,-1163522538120983296,0.0,193.148895050399,-4.021581223244361,14.759096867897068,49,6,0.0,15,569094332755330,61,18.3,-171.76858520507812,1.094499945640564,0,0.0,0.0,,,,,0,,1
Raw,76983230,76956281000000,,,-1163522538120983296,0.0,193.148895050399,-4.021581223244361,14.759096867897068,49,7,0.0,15,569094321007845,1665,13.0,-675.999267578125,8.976500511169434,0,0.0,0.0,,,,,0,,1
Raw,76983231,76956281000000,,,-1163522538120983296,0.0,193.148895050399,-4.021581223244361,14.759096867897068,49,9,0.0,15,569094334118855,40,21.9,-216.90623474121094,0.8075000047683716,0,0.0,0.0,,,,,0,,1
Raw,76983232,76956281000000,,,-1163522538120983296,0.0,193.148895050399,-4.021581223244361,14.759096867897068,49,23,0.0,15,569094332106982,84,16.7,219.8748321533203,1.934499979019165,0,0.0,0.0,,,,,0,,1
Fix,gps,51.524374,-0.134108,170.000000,0.000000,17.000000,1479564278000
Fix,gps,51.524374,-0.134109,166.000000,0.000000,20.000000,1479564279000
Raw,76984263,76957281000000,,,-1163522538120983296,0.0,185.83043129183352,-0.7735383893751814,14.451505305082405,49,2,0.0,15,569095324712859,1178,12.7,-544.0401000976562,22.422500610351562,0,0.0,0.0,,,,,0,,1
Raw,76984265,76957281000000,,,-1163522538120983296,0.0,185.83043129183352,-0.7735383893751814,14.451505305082405,49,6,0.0,15,569095332755903,70,18.3,-171.76858520507812,2.5945000648498535,0,0.0,0.0,,,,,0,,1
Raw,76984267,76957281000000,,,-1163522538120983296,0.0,185.83043129183352,-0.7735383893751814,14.451505305082405,49,7,0.0,15,569095321009967,1490,13.7,-676.7509155273438,9.606500625610352,0,0.0,0.0,,,,,0,,1
Raw,76984268,76957281000000,,,-1163522538120983296,0.0,185.83043129183352,-0.7735383893751814,14.451505305082405,49,9,0.0,15,569095334119637,46,20.3,-218.09556579589844,0.9375,0,0.0,0.0,,,,,0,,1
Raw,76984271,76957281000000,,,-1163522538120983296,0.0,185.83043129183352,-0.7735383893751814,14.451505305082405,49,23,0.0,15,569095332106248,98,16.7,219.8748321533203,3.434500217437744,0,0.0,0.0,,,,,0,,1
Raw,76985261,76958281000000,,,-1163522538120983296,0.0,215.36251006182283,-3.8144099091353665,15.42961071909926,49,2,0.0,15,569096324714674,1328,12.7,-544.0401000976562,23.922500610351562,0,0.0,0.0,,,,,0,,1
Raw,76985262,76958281000000,,,-1163522538120983296,0.0,215.36251006182283,-3.8144099091353665,15.42961071909926,49,6,0.0,15,569096332756464,73,17.6,-172.6629638671875,1.8445000648498535,0,0.0,0.0,,,,,0,,1
Raw,76985263,76958281000000,,,-1163522538120983296,0.0,215.36251006182283,-3.8144099091353665,15.42961071909926,49,7,0.0,15,569096321012223,345,13.4,-676.32275390625,10.851500511169434,0,0.0,0.0,,,,,0,,1
Raw,76985264,76958281000000,,,-1163522538120983296,0.0,215.36251006182283,-3.8144099091353665,15.42961071909926,49,9,0.0,15,569096334120364,40,21.2,-217.1250762939453,0.8675000071525574,0,0.0,0.0,,,,,0,,1
Raw,76985265,76958281000000,,,-1163522538120983296,0.0,215.36251006182283,-3.8144099091353665,15.42961071909926,49,23,0.0,15,569096332105515,122,16.7,219.8748321533203,4.934500217437744,0,0.0,0.0,,,,,0,,1
Fix,gps,51.524393,-0.134108,171.000000,0.000000,19.000000,1479564280000
Fix,gps,51.524393,-0.134108,173.000000,0.000000,19.000000,1479564281000
Raw,76986230,76959281000000,,,-1163522538120983296,0.0,210.57271806057543,-4.195010051798865,14.84092628229173,49,2,0.0,15,569097324716489,1487,12.7,-544.0401000976562,25.422500610351562,0,0.0,0.0,,,,,0,,1
Raw,76986231,76959281000000,,,-1163522538120983296,0.0,210.57271806057543,-4.195010051798865,14.84092628229173,49,6,0.0,15,569097332757088,61,18.3,-173.47171020507812,1.094499945640564,0,0.0,0.0,,,,,0,,1
Raw,76986233,76959281000000,,,-1163522538120983296,0.0,210.57271806057543,-4.195010051798865,14.84092628229173,49,7,0.0,15,569097321014478,418,13.4,-676.32275390625,12.351500511169434,0,0.0,0.0,,,,,0,,1
Raw,76986234,76959281000000,,,-1163522538120983296,0.0,210.57271806057543,-4.195010051798865,14.84092628229173,49,9,0.0,15,569097334121045,40,21.0,-217.61984252929688,0.8675000071525574,0,0.0,0.0,,,,,0,,1
Raw,76986235,76959281000000,,,-1163522538120983296,0.0,210.57271806057543,-4.195010051798865,14.84092628229173,49,23,0.0,15,569097332104781,156,16.7,219.8748321533203,6.434500217437744,0,0.0,0.0,,,,,0,,1
Raw,76987257,76960281000000,,,-1163522538120983296,0.0,206.54800755437464,-5.015173896148243,14.97626682441939,49,2,0.0,15,569098324718303,1656,12.7,-544.0401000976562,26.922500610351562,0,0.0,0.0,,,,,0,,1
Raw,76987258,76960281000000,,,-1163522538120983296,0.0,206.54800755437464,-5.015173896148243,14.97626682441939,49,6,0.0,15,569098332757784,53,19.2,-171.41653442382812,1.0145000219345093,0,0.0,0.0,,,,,0,,1
Raw,76987273,76960281000000,,,-1163522538120983296,0.0,206.54800755437464,-5.015173896148243,14.97626682441939,49,7,0.0,15,569098321016735,500,13.4,-676.32275390625,13.851500511169434,0,0.0,0.0,,,,,0,,1
Raw,76987274,76960281000000,,,-1163522538120983296,0.0,206.54800755437464,-5.015173896148243,14.97626682441939,49,9,0.0,15,569098334121724,40,21.1,-216.07846069335938,0.8675000071525574,0,0.0,0.0,,,,,0,,1
Raw,76987277,76960281000000,,,-1163522538120983296,0.0,206.54800755437464,-5.015173896148243,14.97626682441939,49,23,0.0,15,569098332104051,125,14.9,219.950927734375,3.624500274658203,0,0.0,0.0,,,,,0,,1
Fix,gps,51.524394,-0.134108,173.000000,0.000000,20.000000,1479564282000
Fix,gps,51.524390,-0.134109,166.000000,0.000000,24.000000,1479564283000
Raw,76988297,76961281000000,,,-1163522538120983296,0.0,214.91944789886475,-1.3512412689069682,14.535779406434996,49,2,0.0,15,569099324720118,1836,12.7,-544.0401000976562,28.422500610351562,0,0.0,0.0,,,,,0,,1
Raw,76988299,76961281000000,,,-1163522538120983296,0.0,214.91944789886475,-1.3512412689069682,14.535779406434996,49,6,0.0,15,569099332758356,61,19.2,-171.41653442382812,2.514500141143799,0,0.0,0.0,,,,,0,,1
Raw,76988301,76961281000000,,,-1163522538120983296,0.0,214.91944789886475,-1.3512412689069682,14.535779406434996,49,7,0.0,15,569099321018990,592,13.4,-676.32275390625,15.351500511169434,0,0.0,0.0,,,,,0,,1
Raw,76988302,76961281000000,,,-1163522538120983296,0.0,214.91944789886475,-1.3512412689069682,14.535779406434996,49,9,0.0,15,569099334122498,46,20.8,-216.54469299316406,0.8675000071525574,0,0.0,0.0,,,,,0,,1
Raw,76988303,76961281000000,,,-1163522538120983296,0.0,214.91944789886475,-1.3512412689069682,14.535779406434996,49,23,0.0,15,569099332103318,149,14.9,219.950927734375,5.124500274658203,0,0.0,0.0,,,,,0,,1
Fix,gps,51.524428,-0.134107,172.000000,0.000000,26.000000,1479564284000
Raw,76989236,76962281000000,,,-1163522538120983296,0.0,254.73593268543482,-1.5650690663724593,14.617669262016646,49,2,0.0,15,569100324721933,2025,12.7,-544.0401000976562,29.922500610351562,0,0.0,0.0,,,,,0,,1
Raw,76989237,76962281000000,,,-1163522538120983296,0.0,254.73593268543482,-1.5650690663724593,14.617669262016646,49,6,0.0,15,569100332758928,80,19.2,-171.41653442382812,4.014500141143799,0,0.0,0.0,,,,,0,,1
Raw,76989238,76962281000000,,,-1163522538120983296,0.0,254.73593268543482,-1.5650690663724593,14.617669262016646,49,7,0.0,15,569100321021368,132,14.3,-676.1610107421875,4.208000183105469,0,0.0,0.0,,,,,0,,1
