# 
# Header Description:
# 
# Version: 1.4.0.0, Platform: N
# 
# Raw,ElapsedRealtimeMillis,TimeNanos,LeapSecond,TimeUncertaintyNanos,FullBiasNanos,BiasNanos,BiasUncertaintyNanos,DriftNanosPerSecond,DriftUncertaintyNanosPerSecond,HardwareClockDiscontinuityCount, Svid,TimeOffsetNanos,State,ReceivedSvTimeNanos,ReceivedSvTimeUncertaintyNanos,Cn0DbHz,PseudorangeRateMetersPerSecond,PseudorangeRateUncertaintyMetersPerSecond,AccumulatedDeltaRangeState,AccumulatedDeltaRangeMeters,AccumulatedDeltaRangeUncertaintyMeters,CarrierFrequencyHz,CarrierCycles,CarrierPhase,CarrierPhaseUncertainty,MultipathIndicator,SnrInDb,ConstellationType
# 
# Fix,Provider,Latitude,Longitude,Altitude,Speed,Accuracy,(UTC)TimeInMs
# 
# Nav,Svid,Type,Status,MessageId,Sub-messageId,Data(Bytes)
# 
Raw,5489015,5492005000000,,,-1170854148395495424,0.0,58.84054917260073,42.862125423215225,9.701674979683256,1,5,0.0,15,571640314577593,217,12.3,720.3091430664062,6.847500324249268,0,0.0,0.0,,,,,0,,1
Raw,5489015,5492005000000,,,-1170854148395495424,0.0,58.84054917260073,42.862125423215225,9.701674979683256,1,10,0.0,15,571640319031716,12,32.3,-501.5675964355469,0.03739999979734421,0,0.0,0.0,,,,,0,,1
Raw,5489016,5492005000000,,,-1170854148395495424,0.0,58.84054917260073,42.862125423215225,9.701674979683256,1,12,0.0,15,571640318088204,46,20.9,-767.7683715820312,0.8734999895095825,0,0.0,0.0,,,,,0,,1
Raw,5489016,5492005000000,,,-1170854148395495424,0.0,58.84054917260073,42.862125423215225,9.701674979683256,1,13,0.0,15,571640330921251,10,34.0,386.7734375,0.03710000216960907,0,0.0,0.0,,,,,0,,1
Raw,5489017,5492005000000,,,-1170854148395495424,0.0,58.84054917260073,42.862125423215225,9.701674979683256,1,15,0.0,15,571640332485953,16,29.8,37.09999084472656,0.044700004160404205,0,0.0,0.0,,,,,0,,1
Raw,5489017,5492005000000,,,-1170854148395495424,0.0,58.84054917260073,42.862125423215225,9.701674979683256,1,17,0.0,15,571640320994424,9,35.2,-437.834228515625,0.02160000056028366,0,0.0,0.0,,,,,0,,1
Raw,5489018,5492005000000,,,-1170854148395495424,0.0,58.84054917260073,42.862125423215225,9.701674979683256,1,18,0.0,15,571640323721577,9,35.4,-207.3771514892578,0.026100002229213715,0,0.0,0.0,,,,,0,,1
Raw,5489018,5492005000000,,,-1170854148395495424,0.0,58.84054917260073,42.862125423215225,9.701674979683256,1,19,0.0,15,571640318636988,24,25.8,-647.1973266601562,0.3937999904155731,0,0.0,0.0,,,,,0,,1
Raw,5489019,5492005000000,,,-1170854148395495424,0.0,58.84054917260073,42.862125423215225,9.701674979683256,1,20,0.0,15,571640324656261,24,25.0,575.8001098632812,0.6225000023841858,0,0.0,0.0,,,,,0,,1
Raw,5489019,5492005000000,,,-1170854148395495424,0.0,58.84054917260073,42.862125423215225,9.701674979683256,1,24,0.0,15,571640328411493,10,34.5,-448.25238037109375,0.0341000035405159,0,0.0,0.0,,,,,0,,1
Raw,5489020,5492005000000,,,-1170854148395495424,0.0,58.84054917260073,42.862125423215225,9.701674979683256,1,28,0.0,15,571640324949451,7,37.1,465.5237731933594,0.026600001379847527,0,0.0,0.0,,,,,0,,1
Raw,5489020,5492005000000,,,-1170854148395495424,0.0,58.84054917260073,42.862125423215225,9.701674979683256,1,30,0.0,15,571640317416599,13,31.0,649.83642578125,0.050700001418590546,0,0.0,0.0,,,,,0,,1
Fix,gps,51.532009,-0.159981,87.000000,0.000000,4.000000,1486824423000
Raw,5490095,5493005000000,,,-1170854148395495424,0.0,42.95748294680379,30.182156080438286,9.341173519890372,1,5,0.0,15,571641314575191,262,12.3,720.3091430664062,8.34749984741211,0,0.0,0.0,,,,,0,,1
Raw,5490096,5493005000000,,,-1170854148395495424,0.0,42.95748294680379,30.182156080438286,9.341173519890372,1,10,0.0,15,571641319033375,12,32.2,-502.55267333984375,0.03739999979734421,0,0.0,0.0,,,,,0,,1
Raw,5490097,5493005000000,,,-1170854148395495424,0.0,42.95748294680379,30.182156080438286,9.341173519890372,1,12,0.0,15,571641318090758,31,23.5,-767.8159790039062,0.6934999823570251,0,0.0,0.0,,,,,0,,1
Raw,5490098,5493005000000,,,-1170854148395495424,0.0,42.95748294680379,30.182156080438286,9.341173519890372,1,13,0.0,15,571641330919968,10,34.0,385.87432861328125,0.03710000216960907,0,0.0,0.0,,,,,0,,1
Raw,5490099,5493005000000,,,-1170854148395495424,0.0,42.95748294680379,30.182156080438286,9.341173519890372,1,15,0.0,15,571641332485805,14,30.0,36.19490432739258,0.043800003826618195,0,0.0,0.0,,,,,0,,1
Raw,5490099,5493005000000,,,-1170854148395495424,0.0,42.95748294680379,30.182156080438286,9.341173519890372,1,17,0.0,15,571641320995891,8,36.7,-438.7922058105469,0.021199999377131462,0,0.0,0.0,,,,,0,,1
Raw,5490100,5493005000000,,,-1170854148395495424,0.0,42.95748294680379,30.182156080438286,9.341173519890372,1,18,0.0,15,571641323722276,10,34.5,-208.36570739746094,0.026600001379847527,0,0.0,0.0,,,,,0,,1
Raw,5490101,5493005000000,,,-1170854148395495424,0.0,42.95748294680379,30.182156080438286,9.341173519890372,1,19,0.0,15,571641318639227,40,21.4,-647.607421875,0.8585000038146973,0,0.0,0.0,,,,,0,,1
Raw,5490102,5493005000000,,,-1170854148395495424,0.0,42.95748294680379,30.182156080438286,9.341173519890372,1,20,0.0,15,571641324654331,17,28.5,574.6767578125,0.03930000215768814,0,0.0,0.0,,,,,0,,1
Raw,5490103,5493005000000,,,-1170854148395495424,0.0,42.95748294680379,30.182156080438286,9.341173519890372,1,24,0.0,15,571641328412988,9,35.8,-449.336181640625,0.03360000252723694,0,0.0,0.0,,,,,0,,1
Raw,5490104,5493005000000,,,-1170854148395495424,0.0,42.95748294680379,30.182156080438286,9.341173519890372,1,28,0.0,15,571641324947886,5,40.3,464.5073547363281,0.02540000155568123,0,0.0,0.0,,,,,0,,1
Raw,5490105,5493005000000,,,-1170854148395495424,0.0,42.95748294680379,30.182156080438286,9.341173519890372,1,30,0.0,15,571641317414430,16,29.5,648.6703491210938,0.05220000445842743,0,0.0,0.0,,,,,0,,1
Fix,gps,51.532002,-0.159988,86.000000,0.000000,3.000000,1486824424000
Fix,gps,51.532009,-0.159991,86.000000,0.000000,3.000000,1486824425000
Raw,5491097,5494005000000,,,-1170854148395495424,0.0,39.316131733357906,26.76326852728298,12.784658250313669,1,5,0.0,15,571642314572534,90,16.3,718.8533935546875,2.7775001525878906,0,0.0,0.0,,,,,0,,1
Raw,5491098,5494005000000,,,-1170854148395495424,0.0,39.316131733357906,26.76326852728298,12.784658250313669,1,10,0.0,15,571642319035056,11,33.2,-498.2079162597656,0.036400001496076584,0,0.0,0.0,,,,,0,,1
Raw,5491099,5494005000000,,,-1170854148395495424,0.0,39.316131733357906,26.76326852728298,12.784658250313669,1,12,0.0,15,571642318093315,31,23.3,-764.1908569335938,0.7534999847412109,0,0.0,0.0,,,,,0,,1
Raw,5491100,5494005000000,,,-1170854148395495424,0.0,39.316131733357906,26.76326852728298,12.784658250313669,1,13,0.0,15,571642330918664,11,33.5,390.20538330078125,0.03790000081062317,0,0.0,0.0,,,,,0,,1
Raw,5491101,5494005000000,,,-1170854148395495424,0.0,39.316131733357906,26.76326852728298,12.784658250313669,1,15,0.0,15,571642332485664,16,29.3,40.56776428222656,0.044700004160404205,0,0.0,0.0,,,,,0,,1
Raw,5491102,5494005000000,,,-1170854148395495424,0.0,39.316131733357906,26.76326852728298,12.784658250313669,1,17,0.0,15,571642320997338,9,35.7,-434.40570068359375,0.02160000056028366,0,0.0,0.0,,,,,0,,1
Raw,5491104,5494005000000,,,-1170854148395495424,0.0,39.316131733357906,26.76326852728298,12.784658250313669,1,18,0.0,15,571642323722956,10,34.6,-203.92633056640625,0.026600001379847527,0,0.0,0.0,,,,,0,,1
Raw,5491105,5494005000000,,,-1170854148395495424,0.0,39.316131733357906,26.76326852728298,12.784658250313669,1,19,0.0,15,571642318641342,27,24.0,-644.5626831054688,0.6784999966621399,0,0.0,0.0,,,,,0,,1
Raw,5491106,5494005000000,,,-1170854148395495424,0.0,39.316131733357906,26.76326852728298,12.784658250313669,1,20,0.0,15,571642324652412,19,27.4,579.0972290039062,0.047300003468990326,0,0.0,0.0,,,,,0,,1
Raw,5491107,5494005000000,,,-1170854148395495424,0.0,39.316131733357906,26.76326852728298,12.784658250313669,1,24,0.0,15,571642328414470,9,35.3,-444.9369812011719,0.03360000252723694,0,0.0,0.0,,,,,0,,1
Raw,5491107,5494005000000,,,-1170854148395495424,0.0,39.316131733357906,26.76326852728298,12.784658250313669,1,28,0.0,15,571642324946322,5,40.1,468.90289306640625,0.02540000155568123,0,0.0,0.0,,,,,0,,1
Raw,5491108,5494005000000,,,-1170854148395495424,0.0,39.316131733357906,26.76326852728298,12.784658250313669,1,30,0.0,15,571642317412254,13,31.5,653.0737915039062,0.050700001418590546,0,0.0,0.0,,,,,0,,1
Raw,5492055,5495005000000,,,-1170854148395495424,0.0,29.92298686876893,40.919672918009155,9.004030193032214,1,5,0.0,15,571643314570209,70,17.2,719.0817260742188,1.1875,0,0.0,0.0,,,,,0,,1
Raw,5492057,5495005000000,,,-1170854148395495424,0.0,29.92298686876893,40.919672918009155,9.004030193032214,1,10,0.0,15,571643319036702,13,31.9,-498.5188293457031,0.03869999945163727,0,0.0,0.0,,,,,0,,1
Raw,5492058,5495005000000,,,-1170854148395495424,0.0,29.92298686876893,40.919672918009155,9.004030193032214,1,12,0.0,15,571643318095825,35,22.7,-764.466796875,0.7534999847412109,0,0.0,0.0,,,,,0,,1
Raw,5492060,5495005000000,,,-1170854148395495424,0.0,29.92298686876893,40.919672918009155,9.004030193032214,1,13,0.0,15,571643330917380,12,32.7,389.8929748535156,0.03889999911189079,0,0.0,0.0,,,,,0,,1
Raw,5492061,5495005000000,,,-1170854148395495424,0.0,29.92298686876893,40.919672918009155,9.004030193032214,1,15,0.0,15,571643332485543,16,29.3,40.203895568847656,0.044700004160404205,0,0.0,0.0,,,,,0,,1
Raw,5492062,5495005000000,,,-1170854148395495424,0.0,29.92298686876893,40.919672918009155,9.004030193032214,1,17,0.0,15,571643320998794,8,36.5,-434.8178405761719,0.021199999377131462,0,0.0,0.0,,,,,0,,1
Raw,5492063,5495005000000,,,-1170854148395495424,0.0,29.92298686876893,40.919672918009155,9.004030193032214,1,18,0.0,15,571643323723631,9,35.8,-204.3743133544922,0.026100002229213715,0,0.0,0.0,,,,,0,,1
Raw,5492064,5495005000000,,,-1170854148395495424,0.0,29.92298686876893,40.919672918009155,9.004030193032214,1,19,0.0,15,571643318643413,31,23.8,-644.6388549804688,0.6784999966621399,0,0.0,0.0,,,,,0,,1
Raw,5492065,5495005000000,,,-1170854148395495424,0.0,29.92298686876893,40.919672918009155,9.004030193032214,1,20,0.0,15,571643324650463,14,30.2,578.6513671875,0.03180000185966492,0,0.0,0.0,,,,,0,,1
Raw,5492066,5495005000000,,,-1170854148395495424,0.0,29.92298686876893,40.919672918009155,9.004030193032214,1,24,0.0,15,571643328415960,9,35.9,-445.2987060546875,0.03360000252723694,0,0.0,0.0,,,,,0,,1
Raw,5492067,5495005000000,,,-1170854148395495424,0.0,29.92298686876893,40.919672918009155,9.004030193032214,1,28,0.0,15,571643324944764,5,40.3,468.4353332519531,0.02540000155568123,0,0.0,0.0,,,,,0,,1
Raw,5492069,5495005000000,,,-1170854148395495424,0.0,29.92298686876893,40.919672918009155,9.004030193032214,1,30,0.0,15,571643317410080,14,30.2,652.7797241210938,0.05130000412464142,0,0.0,0.0,,,,,0,,1
Fix,gps,51.532008,-0.159990,86.000000,0.000000,3.000000,1486824426000
Fix,gps,51.532006,-0.159991,86.000000,0.000000,3.000000,1486824427000
Raw,5493105,5496005000000,,,-1170854148395495424,0.0,28.324880986474454,39.96101207006952,10.939183629630644,1,5,0.0,15,571644314567728,61,18.6,718.9104614257812,1.0175000429153442,0,0.0,0.0,,,,,0,,1
Raw,5493106,5496005000000,,,-1170854148395495424,0.0,28.324880986474454,39.96101207006952,10.939183629630644,1,10,0.0,15,571644319038382,12,32.5,-499.77374267578125,0.03739999979734421,0,0.0,0.0,,,,,0,,1
Raw,5493107,5496005000000,,,-1170854148395495424,0.0,28.324880986474454,39.96101207006952,10.939183629630644,1,12,0.0,15,571644318098420,31,23.0,-765.1708374023438,0.7534999847412109,0,0.0,0.0,,,,,0,,1
Raw,5493107,5496005000000,,,-1170854148395495424,0.0,28.324880986474454,39.96101207006952,10.939183629630644,1,13,0.0,15,571644330916078,12,32.1,388.58203125,0.03889999911189079,0,0.0,0.0,,,,,0,,1
Raw,5493108,5496005000000,,,-1170854148395495424,0.0,28.324880986474454,39.96101207006952,10.939183629630644,1,15,0.0,15,571644332485405,13,31.0,39.0479621887207,0.04320000112056732,0,0.0,0.0,,,,,0,,1
Raw,5493109,5496005000000,,,-1170854148395495424,0.0,28.324880986474454,39.96101207006952,10.939183629630644,1,17,0.0,15,571644321000254,8,36.4,-436.03546142578125,0.022700000554323196,0,0.0,0.0,,,,,0,,1
Raw,5493110,5496005000000,,,-1170854148395495424,0.0,28.324880986474454,39.96101207006952,10.939183629630644,1,18,0.0,15,571644323724323,8,36.0,-205.51820373535156,0.025700001046061516,0,0.0,0.0,,,,,0,,1
Raw,5493111,5496005000000,,,-1170854148395495424,0.0,28.324880986474454,39.96101207006952,10.939183629630644,1,19,0.0,15,571644318645601,24,25.7,-645.3143920898438,0.5885000228881836,0,0.0,0.0,,,,,0,,1
Raw,5493112,5496005000000,,,-1170854148395495424,0.0,28.324880986474454,39.96101207006952,10.939183629630644,1,20,0.0,15,571644324648557,17,28.7,577.4835205078125,0.03930000215768814,0,0.0,0.0,,,,,0,,1
Raw,5493113,5496005000000,,,-1170854148395495424,0.0,28.324880986474454,39.96101207006952,10.939183629630644,1,24,0.0,15,571644328417457,6,38.5,-446.50146484375,0.03210000321269035,0,0.0,0.0,,,,,0,,1
Raw,5493114,5496005000000,,,-1170854148395495424,0.0,28.324880986474454,39.96101207006952,10.939183629630644,1,28,0.0,15,571644324943210,5,40.1,467.2391052246094,0.02540000155568123,0,0.0,0.0,,,,,0,,1
Raw,5493115,5496005000000,,,-1170854148395495424,0.0,28.324880986474454,39.96101207006952,10.939183629630644,1,30,0.0,15,571644317407907,13,31.0,651.3932495117188,0.050700001418590546,0,0.0,0.0,,,,,0,,1
Fix,gps,51.531991,-0.159992,85.000000,0.000000,3.000000,1486824428000
Raw,5494080,5497005000000,,,-1170854148395495424,0.0,22.901851480128244,35.35164944906796,8.937295169809154,1,5,0.0,15,571645314565438,61,18.9,719.376708984375,1.0175000429153442,0,0.0,0.0,,,,,0,,1
Raw,5494082,5497005000000,,,-1170854148395495424,0.0,22.901851480128244,35.35164944906796,8.937295169809154,1,10,0.0,15,571645319040037,12,32.6,-499.958251953125,0.03739999979734421,0,0.0,0.0,,,,,0,,1
Raw,5494083,5497005000000,,,-1170854148395495424,0.0,22.901851480128244,35.35164944906796,8.937295169809154,1,12,0.0,15,571645318100894,61,18.8,-764.790283203125,1.0234999656677246,0,0.0,0.0,,,,,0,,1
Raw,5494084,5497005000000,,,-1170854148395495424,0.0,22.901851480128244,35.35164944906796,8.937295169809154,1,13,0.0,15,571645330914767,14,30.6,388.5164489746094,0.040800001472234726,0,0.0,0.0,,,,,0,,1
Raw,5494086,5497005000000,,,-1170854148395495424,0.0,22.901851480128244,35.35164944906796,8.937295169809154,1,15,0.0,15,571645332485289,13,31.0,38.90327835083008,0.04320000112056732,0,0.0,0.0,,,,,0,,1
Raw,5494087,5497005000000,,,-1170854148395495424,0.0,22.901851480128244,35.35164944906796,8.937295169809154,1,17,0.0,15,571645321001704,7,37.2,-436.2109375,0.022100001573562622,0,0.0,0.0,,,,,0,,1
Raw,5494089,5497005000000,,,-1170854148395495424,0.0,22.901851480128244,35.35164944906796,8.937295169809154,1,18,0.0,15,571645323725003,8,36.3,-205.6553955078125,0.025700001046061516,0,0.0,0.0,,,,,0,,1
Raw,5494090,5497005000000,,,-1170854148395495424,0.0,22.901851480128244,35.35164944906796,8.937295169809154,1,19,0.0,15,571645318647741,21,26.7,-645.6080932617188,0.12319999933242798,0,0.0,0.0,,,,,0,,1
Raw,5494091,5497005000000,,,-1170854148395495424,0.0,22.901851480128244,35.35164944906796,8.937295169809154,1,20,0.0,15,571645324646608,14,30.3,577.2676391601562,0.03180000185966492,0,0.0,0.0,,,,,0,,1
Raw,5494093,5497005000000,,,-1170854148395495424,0.0,22.901851480128244,35.35164944906796,8.937295169809154,1,24,0.0,15,571645328418937,6,38.4,-446.77520751953125,0.03210000321269035,0,0.0,0.0,,,,,0,,1
Raw,5494094,5497005000000,,,-1170854148395495424,0.0,22.901851480128244,35.35164944906796,8.937295169809154,1,28,0.0,15,571645324941645,5,40.3,467.06048583984375,0.02540000155568123,0,0.0,0.0,,,,,0,,1
Raw,5494095,5497005000000,,,-1170854148395495424,0.0,22.901851480128244,35.35164944906796,8.937295169809154,1,30,0.0,15,571645317405748,14,30.5,650.9642333984375,0.05130000412464142,0,0.0,0.0,,,,,0,,1
Fix,gps,51.531985,-0.159992,86.000000,0.000000,3.000000,1486824429000
Raw,5495015,5498005000000,,,-1170854148395495168,0.0,21.204374206718057,34.10019876689564,8.879597694598425,1,5,0.0,15,571646314563038,69,18.9,719.376708984375,2.5174999237060547,0,0.0,0.0,,,,,0,,1
Raw,5495015,5498005000000,,,-1170854148395495168,0.0,21.204374206718057,34.10019876689564,8.879597694598425,1,10,0.0,15,571646319041703,12,32.2,-501.28314208984375,0.03739999979734421,0,0.0,0.0,,,,,0,,1
Raw,5495016,5498005000000,,,-1170854148395495168,0.0,21.204374206718057,34.10019876689564,8.879597694598425,1,12,0.0,15,571646318103503,53,19.0,-767.6922607421875,1.0234999656677246,0,0.0,0.0,,,,,0,,1
Raw,5495017,5498005000000,,,-1170854148395495168,0.0,21.204374206718057,34.10019876689564,8.879597694598425,1,13,0.0,15,571646330913477,11,33.5,387.2485046386719,0.03790000081062317,0,0.0,0.0,,,,,0,,1
Raw,5495018,5498005000000,,,-1170854148395495168,0.0,21.204374206718057,34.10019876689564,8.879597694598425,1,15,0.0,15,571646332485174,14,30.7,37.63355255126953,0.043800003826618195,0,0.0,0.0,,,,,0,,1
Raw,5495019,5498005000000,,,-1170854148395495168,0.0,21.204374206718057,34.10019876689564,8.879597694598425,1,17,0.0,15,571646321003159,8,36.8,-437.59698486328125,0.022700000554323196,0,0.0,0.0,,,,,0,,1
Raw,5495020,5498005000000,,,-1170854148395495168,0.0,21.204374206718057,34.10019876689564,8.879597694598425,1,18,0.0,15,571646323725701,8,36.0,-206.98193359375,0.025700001046061516,0,0.0,0.0,,,,,0,,1
Raw,5495021,5498005000000,,,-1170854148395495168,0.0,21.204374206718057,34.10019876689564,8.879597694598425,1,19,0.0,15,571646318649892,27,24.2,-647.6835327148438,0.6784999966621399,0,0.0,0.0,,,,,0,,1
Raw,5495021,5498005000000,,,-1170854148395495168,0.0,21.204374206718057,34.10019876689564,8.879597694598425,1,20,0.0,15,571646324644704,19,27.7,575.955322265625,0.047300003468990326,0,0.0,0.0,,,,,0,,1
Raw,5495022,5498005000000,,,-1170854148395495168,0.0,21.204374206718057,34.10019876689564,8.879597694598425,1,24,0.0,15,571646328420423,6,38.4,-448.085205078125,0.03210000321269035,0,0.0,0.0,,,,,0,,1
Raw,5495023,5498005000000,,,-1170854148395495168,0.0,21.204374206718057,34.10019876689564,8.879597694598425,1,28,0.0,15,571646324940090,5,40.1,465.7168884277344,0.02540000155568123,0,0.0,0.0,,,,,0,,1
Raw,5495024,5498005000000,,,-1170854148395495168,0.0,21.204374206718057,34.10019876689564,8.879597694598425,1,30,0.0,15,571646317403560,16,29.4,649.731689453125,0.05220000445842743,0,0.0,0.0,,,,,0,,1
Fix,gps,51.531989,-0.159989,86.000000,0.000000,3.000000,1486824430000
Raw,5496051,5499005000000,,,-1170854148395495168,0.0,19.62641727004666,29.441325270405187,7.98375750774557,1,5,0.0,15,571647314560654,73,17.2,716.3510131835938,1.9375,0,0.0,0.0,,,,,0,,1
Raw,5496052,5499005000000,,,-1170854148395495168,0.0,19.62641727004666,29.441325270405187,7.98375750774557,1,10,0.0,15,571647319043395,11,33.2,-503.1584777832031,0.036400001496076584,0,0.0,0.0,,,,,0,,1
Raw,5496052,5499005000000,,,-1170854148395495168,0.0,19.62641727004666,29.441325270405187,7.98375750774557,1,12,0.0,15,571647318106114,46,20.6,-768.9672241210938,0.8734999895095825,0,0.0,0.0,,,,,0,,1
Raw,5496053,5499005000000,,,-1170854148395495168,0.0,19.62641727004666,29.441325270405187,7.98375750774557,1,13,0.0,15,571647330912216,11,33.1,385.2663879394531,0.03790000081062317,0,0.0,0.0,,,,,0,,1
Raw,5496054,5499005000000,,,-1170854148395495168,0.0,19.62641727004666,29.441325270405187,7.98375750774557,1,15,0.0,15,571647332485009,14,30.8,35.760292053222656,0.043800003826618195,0,0.0,0.0,,,,,0,,1
Raw,5496054,5499005000000,,,-1170854148395495168,0.0,19.62641727004666,29.441325270405187,7.98375750774557,1,17,0.0,15,571647321004634,8,36.6,-439.42059326171875,0.022700000554323196,0,0.0,0.0,,,,,0,,1
Raw,5496055,5499005000000,,,-1170854148395495168,0.0,19.62641727004666,29.441325270405187,7.98375750774557,1,18,0.0,15,571647323726393,9,35.8,-208.8207550048828,0.026100002229213715,0,0.0,0.0,,,,,0,,1
Raw,5496056,5499005000000,,,-1170854148395495168,0.0,19.62641727004666,29.441325270405187,7.98375750774557,1,19,0.0,15,571647318652040,24,25.3,-648.9185791015625,0.3937999904155731,0,0.0,0.0,,,,,0,,1
Raw,5496057,5499005000000,,,-1170854148395495168,0.0,19.62641727004666,29.441325270405187,7.98375750774557,1,20,0.0,15,571647324642816,17,28.5,573.9528198242188,0.03930000215768814,0,0.0,0.0,,,,,0,,1
Raw,5496057,5499005000000,,,-1170854148395495168,0.0,19.62641727004666,29.441325270405187,7.98375750774557,1,24,0.0,15,571647328421930,6,38.2,-449.9656982421875,0.03210000321269035,0,0.0,0.0,,,,,0,,1
Raw,5496058,5499005000000,,,-1170854148395495168,0.0,19.62641727004666,29.441325270405187,7.98375750774557,1,28,0.0,15,571647324938545,5,40.6,463.8634033203125,0.02540000155568123,0,0.0,0.0,,,,,0,,1
Raw,5496059,5499005000000,,,-1170854148395495168,0.0,19.62641727004666,29.441325270405187,7.98375750774557,1,30,0.0,15,571647317401421,13,31.1,647.7393188476562,0.050700001418590546,0,0.0,0.0,,,,,0,,1
Fix,gps,51.531987,-0.159989,86.000000,0.000000,3.000000,1486824431000
Raw,5497073,5500005000000,,,-1170854148395495168,0.0,19.76799831027165,23.102991597756038,9.747552226443851,1,5,0.0,15,571648314558107,70,17.9,716.7410888671875,1.097499966621399,0,0.0,0.0,,,,,0,,1
Raw,5497074,5500005000000,,,-1170854148395495168,0.0,19.76799831027165,23.102991597756038,9.747552226443851,1,10,0.0,15,571648319045062,11,33.4,-501.7183532714844,0.036400001496076584,0,0.0,0.0,,,,,0,,1
Raw,5497075,5500005000000,,,-1170854148395495168,0.0,19.76799831027165,23.102991597756038,9.747552226443851,1,12,0.0,15,571648318108614,53,19.9,-768.5961303710938,0.9434999823570251,0,0.0,0.0,,,,,0,,1
Raw,5497076,5500005000000,,,-1170854148395495168,0.0,19.76799831027165,23.102991597756038,9.747552226443851,1,13,0.0,15,571648330910910,12,32.7,386.68841552734375,0.03889999911189079,0,0.0,0.0,,,,,0,,1
Raw,5497077,5500005000000,,,-1170854148395495168,0.0,19.76799831027165,23.102991597756038,9.747552226443851,1,15,0.0,15,571648332484936,13,31.8,37.276668548583984,0.04320000112056732,0,0.0,0.0,,,,,0,,1
Raw,5497078,5500005000000,,,-1170854148395495168,0.0,19.76799831027165,23.102991597756038,9.747552226443851,1,17,0.0,15,571648321006088,7,37.3,-437.9478759765625,0.022100001573562622,0,0.0,0.0,,,,,0,,1
Raw,5497079,5500005000000,,,-1170854148395495168,0.0,19.76799831027165,23.102991597756038,9.747552226443851,1,18,0.0,15,571648323727092,8,36.2,-207.31410217285156,0.025700001046061516,0,0.0,0.0,,,,,0,,1
Raw,5497080,5500005000000,,,-1170854148395495168,0.0,19.76799831027165,23.102991597756038,9.747552226443851,1,19,0.0,15,571648318654190,31,23.3,-647.58837890625,0.7384999990463257,0,0.0,0.0,,,,,0,,1
Raw,5497081,5500005000000,,,-1170854148395495168,0.0,19.76799831027165,23.102991597756038,9.747552226443851,1,20,0.0,15,571648324640865,17,28.4,575.5108032226562,0.03930000215768814,0,0.0,0.0,,,,,0,,1
Raw,5497082,5500005000000,,,-1170854148395495168,0.0,19.76799831027165,23.102991597756038,9.747552226443851,1,24,0.0,15,571648328423421,6,38.4,-448.5174865722656,0.03210000321269035,0,0.0,0.0,,,,,0,,1
Raw,5497083,5500005000000,,,-1170854148395495168,0.0,19.76799831027165,23.102991597756038,9.747552226443851,1,28,0.0,15,571648324936995,5,40.1,465.2936706542969,0.02540000155568123,0,0.0,0.0,,,,,0,,1
Raw,5497083,5500005000000,,,-1170854148395495168,0.0,19.76799831027165,23.102991597756038,9.747552226443851,1,30,0.0,15,571648317399241,16,29.8,649.1699829101562,0.05220000445842743,0,0.0,0.0,,,,,0,,1
Raw,5498063,5501005000000,,,-1170854148395495168,0.0,18.30278961278964,27.7023877851347,8.840764231958318,1,5,0.0,15,571649314555844,80,16.9,715.875244140625,1.1875,0,0.0,0.0,,,,,0,,1
Raw,5498064,5501005000000,,,-1170854148395495168,0.0,18.30278961278964,27.7023877851347,8.840764231958318,1,10,0.0,15,571649319046746,12,32.8,-503.14385986328125,0.03739999979734421,0,0.0,0.0,,,,,0,,1
Raw,5498065,5501005000000,,,-1170854148395495168,0.0,18.30278961278964,27.7023877851347,8.840764231958318,1,12,0.0,15,571649318111275,40,21.4,-769.5856323242188,0.8734999895095825,0,0.0,0.0,,,,,0,,1
Raw,5498066,5501005000000,,,-1170854148395495168,0.0,18.30278961278964,27.7023877851347,8.840764231958318,1,13,0.0,15,571649330909631,12,32.1,385.3518371582031,0.03889999911189079,0,0.0,0.0,,,,,0,,1
Raw,5498067,5501005000000,,,-1170854148395495168,0.0,18.30278961278964,27.7023877851347,8.840764231958318,1,15,0.0,15,571649332484790,13,31.5,35.88656234741211,0.04320000112056732,0,0.0,0.0,,,,,0,,1
Raw,5498068,5501005000000,,,-1170854148395495168,0.0,18.30278961278964,27.7023877851347,8.840764231958318,1,17,0.0,15,571649321007549,6,38.2,-439.41436767578125,0.02160000056028366,0,0.0,0.0,,,,,0,,1
Raw,5498069,5501005000000,,,-1170854148395495168,0.0,18.30278961278964,27.7023877851347,8.840764231958318,1,18,0.0,15,571649323727794,8,36.3,-208.75787353515625,0.025700001046061516,0,0.0,0.0,,,,,0,,1
Raw,5498070,5501005000000,,,-1170854148395495168,0.0,18.30278961278964,27.7023877851347,8.840764231958318,1,19,0.0,15,571649318656373,21,26.3,-648.9644165039062,0.12319999933242798,0,0.0,0.0,,,,,0,,1
Raw,5498073,5501005000000,,,-1170854148395495168,0.0,18.30278961278964,27.7023877851347,8.840764231958318,1,20,0.0,15,571649324638959,21,26.9,574.0166015625,0.11720000207424164,0,0.0,0.0,,,,,0,,1
Raw,5498075,5501005000000,,,-1170854148395495168,0.0,18.30278961278964,27.7023877851347,8.840764231958318,1,24,0.0,15,571649328424935,6,38.4,-449.966796875,0.03210000321269035,0,0.0,0.0,,,,,0,,1
Raw,5498076,5501005000000,,,-1170854148395495168,0.0,18.30278961278964,27.7023877851347,8.840764231958318,1,28,0.0,15,571649324935443,5,40.2,463.862060546875,0.02540000155568123,0,0.0,0.0,,,,,0,,1
Raw,5498077,5501005000000,,,-1170854148395495168,0.0,18.30278961278964,27.7023877851347,8.840764231958318,1,30,0.0,15,571649317397104,13,31.6,647.6634521484375,0.050700001418590546,0,0.0,0.0,,,,,0,,1
Fix,gps,51.531984,-0.159990,85.000000,0.000000,3.000000,1486824432000
Fix,gps,51.531984,-0.159992,86.000000,0.000000,3.000000,1486824433000
Raw,5499077,5502005000000,,,-1170854148395495168,0.0,17.597929399926215,22.715528596893627,8.710126968512892,1,5,0.0,15,571650314553457,90,16.9,715.875244140625,2.6875,0,0.0,0.0,,,,,0,,1
Raw,5499078,5502005000000,,,-1170854148395495168,0.0,17.597929399926215,22.715528596893627,8.710126968512892,1,10,0.0,15,571650319048415,12,32.6,-503.5226135253906,0.03739999979734421,0,0.0,0.0,,,,,0,,1
Raw,5499080,5502005000000,,,-1170854148395495168,0.0,17.597929399926215,22.715528596893627,8.710126968512892,1,12,0.0,15,571650318113746,31,23.0,-769.7854614257812,0.7534999847412109,0,0.0,0.0,,,,,0,,1
Raw,5499081,5502005000000,,,-1170854148395495168,0.0,17.597929399926215,22.715528596893627,8.710126968512892,1,13,0.0,15,571650330908343,11,33.4,384.9815979003906,0.03790000081062317,0,0.0,0.0,,,,,0,,1
Raw,5499082,5502005000000,,,-1170854148395495168,0.0,17.597929399926215,22.715528596893627,8.710126968512892,1,15,0.0,15,571650332484679,14,30.3,35.54961395263672,0.043800003826618195,0,0.0,0.0,,,,,0,,1
Raw,5499083,5502005000000,,,-1170854148395495168,0.0,17.597929399926215,22.715528596893627,8.710126968512892,1,17,0.0,15,571650321009025,7,37.9,-439.8730163574219,0.022100001573562622,0,0.0,0.0,,,,,0,,1
Raw,5499084,5502005000000,,,-1170854148395495168,0.0,17.597929399926215,22.715528596893627,8.710126968512892,1,18,0.0,15,571650323728493,9,35.0,-209.10728454589844,0.026100002229213715,0,0.0,0.0,,,,,0,,1
Raw,5499086,5502005000000,,,-1170854148395495168,0.0,17.597929399926215,22.715528596893627,8.710126968512892,1,19,0.0,15,571650318658533,21,26.7,-649.38671875,0.12319999933242798,0,0.0,0.0,,,,,0,,1
Raw,5499087,5502005000000,,,-1170854148395495168,0.0,17.597929399926215,22.715528596893627,8.710126968512892,1,20,0.0,15,571650324637029,17,28.3,573.79443359375,0.03930000215768814,0,0.0,0.0,,,,,0,,1
Raw,5499088,5502005000000,,,-1170854148395495168,0.0,17.597929399926215,22.715528596893627,8.710126968512892,1,24,0.0,15,571650328426433,8,36.4,-450.3836669921875,0.03320000320672989,0,0.0,0.0,,,,,0,,1
Raw,5499089,5502005000000,,,-1170854148395495168,0.0,17.597929399926215,22.715528596893627,8.710126968512892,1,28,0.0,15,571650324933899,5,40.5,463.4595947265625,0.02540000155568123,0,0.0,0.0,,,,,0,,1
Raw,5499090,5502005000000,,,-1170854148395495168,0.0,17.597929399926215,22.715528596893627,8.710126968512892,1,30,0.0,15,571650317394931,14,30.6,647.1878662109375,0.05130000412464142,0,0.0,0.0,,,,,0,,1
Fix,gps,51.531986,-0.159990,85.000000,0.000000,3.000000,1486824434000
Raw,5500078,5503005000000,,,-1170854148395495168,0.0,17.942156773642637,21.058872244362664,9.683486158793599,1,5,0.0,15,571651314551069,109,16.9,715.875244140625,4.1875,0,0.0,0.0,,,,,0,,1
Raw,5500081,5503005000000,,,-1170854148395495168,0.0,17.942156773642637,21.058872244362664,9.683486158793599,1,10,0.0,15,571651319050109,11,33.5,-503.21966552734375,0.036400001496076584,0,0.0,0.0,,,,,0,,1
Raw,5500082,5503005000000,,,-1170854148395495168,0.0,17.942156773642637,21.058872244362664,9.683486158793599,1,12,0.0,15,571651318116359,24,25.9,-769.43359375,0.40880000591278076,0,0.0,0.0,,,,,0,,1
Raw,5500084,5503005000000,,,-1170854148395495168,0.0,17.942156773642637,21.058872244362664,9.683486158793599,1,13,0.0,15,571651330907055,13,31.6,385.2451477050781,0.04020000249147415,0,0.0,0.0,,,,,0,,1
Raw,5500086,5503005000000,,,-1170854148395495168,0.0,17.942156773642637,21.058872244362664,9.683486158793599,1,15,0.0,15,571651332484569,12,32.4,35.79047775268555,0.04190000146627426,0,0.0,0.0,,,,,0,,1
Raw,5500087,5503005000000,,,-1170854148395495168,0.0,17.942156773642637,21.058872244362664,9.683486158793599,1,17,0.0,15,571651321010495,7,37.2,-439.51446533203125,0.022100001573562622,0,0.0,0.0,,,,,0,,1
Raw,5500089,5503005000000,,,-1170854148395495168,0.0,17.942156773642637,21.058872244362664,9.683486158793599,1,18,0.0,15,571651323729183,8,36.2,-208.75131225585938,0.025700001046061516,0,0.0,0.0,,,,,0,,1
Raw,5500090,5503005000000,,,-1170854148395495168,0.0,17.942156773642637,21.058872244362664,9.683486158793599,1,19,0.0,15,571651318660697,31,23.7,-649.5198974609375,0.6784999966621399,0,0.0,0.0,,,,,0,,1
Raw,5500092,5503005000000,,,-1170854148395495168,0.0,17.942156773642637,21.058872244362664,9.683486158793599,1,20,0.0,15,571651324635118,16,29.8,573.9866333007812,0.03270000219345093,0,0.0,0.0,,,,,0,,1
Raw,5500093,5503005000000,,,-1170854148395495168,0.0,17.942156773642637,21.058872244362664,9.683486158793599,1,24,0.0,15,571651328427930,6,38.3,-450.13702392578125,0.03210000321269035,0,0.0,0.0,,,,,0,,1
Raw,5500095,5503005000000,,,-1170854148395495168,0.0,17.942156773642637,21.058872244362664,9.683486158793599,1,28,0.0,15,571651324932351,5,40.4,463.7916259765625,0.02540000155568123,0,0.0,0.0,,,,,0,,1
Raw,5500097,5503005000000,,,-1170854148395495168,0.0,17.942156773642637,21.058872244362664,9.683486158793599,1,30,0.0,15,571651317392783,13,31.3,647.453857421875,0.050700001418590546,0,0.0,0.0,,,,,0,,1
Fix,gps,51.531983,-0.159988,83.000000,0.000000,3.000000,1486824435000
Raw,5501084,5504426000000,,,-1170854148394741248,0.0,4085.605498403311,20.19625244254775,6.184875089442913,2,10,0.0,15,571652739298626,12,32.3,-504.284912109375,0.3882000148296356,0,0.0,0.0,,,,,0,,1
Raw,5501085,5504426000000,,,-1170854148394741248,0.0,4085.605498403311,20.19625244254775,6.184875089442913,2,13,0.0,15,571652751151285,10,34.0,384.0910949707031,0.2932000160217285,0,0.0,0.0,,,,,0,,1
Raw,5501085,5504426000000,,,-1170854148394741248,0.0,4085.605498403311,20.19625244254775,6.184875089442913,2,15,0.0,15,571652752730513,10,34.1,34.70901107788086,0.2946999967098236,0,0.0,0.0,,,,,0,,1
Raw,5501086,5504426000000,,,-1170854148394741248,0.0,4085.605498403311,20.19625244254775,6.184875089442913,2,17,0.0,15,571652741258680,7,37.2,-440.68194580078125,0.22749999165534973,0,0.0,0.0,,,,,0,,1
Raw,5501087,5504426000000,,,-1170854148394741248,0.0,4085.605498403311,20.19625244254775,6.184875089442913,2,18,0.0,15,571652743976267,8,36.9,-210.02854919433594,0.25040000677108765,0,0.0,0.0,,,,,0,,1
Raw,5501088,5504426000000,,,-1170854148394741248,0.0,4085.605498403311,20.19625244254775,6.184875089442913,2,19,0.0,15,571652738909900,19,27.7,-650.758544921875,0.6015000343322754,0,0.0,0.0,,,,,0,,1
Raw,5501088,5504426000000,,,-1170854148394741248,0.0,4085.605498403311,20.19625244254775,6.184875089442913,2,20,0.0,15,571652744878525,19,27.8,572.1962890625,0.6105000376701355,0,0.0,0.0,,,,,0,,1
Raw,5501096,5504426000000,,,-1170854148394741248,0.0,4085.605498403311,20.19625244254775,6.184875089442913,2,24,0.0,15,571652748676160,6,39.2,-451.490234375,0.1662999987602234,0,0.0,0.0,,,,,0,,1
Raw,5501097,5504426000000,,,-1170854148394741248,0.0,4085.605498403311,20.19625244254775,6.184875089442913,2,28,0.0,15,571652745176254,5,40.5,462.32177734375,0.17480000853538513,0,0.0,0.0,,,,,0,,1
Raw,5501097,5504426000000,,,-1170854148394741248,0.0,4085.605498403311,20.19625244254775,6.184875089442913,2,30,0.0,15,571652737635856,12,32.0,646.0757446289062,0.38520002365112305,0,0.0,0.0,,,,,0,,1
Fix,gps,51.531983,-0.159988,83.000000,0.000000,3.000000,1486824436000
Fix,gps,51.531984,-0.159990,82.000000,0.000000,3.000000,1486824437000
Raw,5503074,5506478000000,,,-1170854148394498048,0.0,19.941646314691752,13.251316702264083,2.729729583964106,3,10,0.0,15,571654791058800,10,34.2,-505.29473876953125,0.2932000160217285,0,0.0,0.0,,,,,0,,1
Raw,5503076,5506478000000,,,-1170854148394498048,0.0,19.941646314691752,13.251316702264083,2.729729583964106,3,12,0.0,15,571654790128117,25,25.5,-772.9063110351562,1.0865000486373901,0,0.0,0.0,,,,,0,,1
Raw,5503077,5506478000000,,,-1170854148394498048,0.0,19.941646314691752,13.251316702264083,2.729729583964106,3,13,0.0,15,571654802905387,13,31.7,383.58245849609375,0.43130001425743103,0,0.0,0.0,,,,,0,,1
Raw,5503078,5506478000000,,,-1170854148394498048,0.0,19.941646314691752,13.251316702264083,2.729729583964106,3,15,0.0,15,571654804486975,11,33.1,34.11797332763672,0.34459999203681946,0,0.0,0.0,,,,,0,,1
Raw,5503078,5506478000000,,,-1170854148394498048,0.0,19.941646314691752,13.251316702264083,2.729729583964106,3,17,0.0,15,571654793018404,6,38.4,-441.4393005371094,0.1898999959230423,0,0.0,0.0,,,,,0,,1
Raw,5503079,5506478000000,,,-1170854148394498048,0.0,19.941646314691752,13.251316702264083,2.729729583964106,3,18,0.0,15,571654795734433,7,37.8,-210.44638061523438,0.21850000321865082,0,0.0,0.0,,,,,0,,1
Raw,5503080,5506478000000,,,-1170854148394498048,0.0,19.941646314691752,13.251316702264083,2.729729583964106,3,20,0.0,15,571654796631345,14,30.6,571.8939208984375,0.47769999504089355,0,0.0,0.0,,,,,0,,1
Raw,5503081,5506478000000,,,-1170854148394498048,0.0,19.941646314691752,13.251316702264083,2.729729583964106,3,24,0.0,15,571654800435956,6,38.8,-451.9473876953125,0.2003999948501587,0,0.0,0.0,,,,,0,,1
Raw,5503082,5506478000000,,,-1170854148394498048,0.0,19.941646314691752,13.251316702264083,2.729729583964106,3,28,0.0,15,571654796929790,5,41.2,461.877685546875,0.14499999582767487,0,0.0,0.0,,,,,0,,1
Raw,5503082,5506478000000,,,-1170854148394498048,0.0,19.941646314691752,13.251316702264083,2.729729583964106,3,30,0.0,15,571654789388102,12,32.0,645.4577026367188,0.40320003032684326,0,0.0,0.0,,,,,0,,1
Raw,5504067,5507413000000,,,-1170854148394491392,0.0,4119.310528039932,14.454549632237562,7.924638074083059,4,10,0.0,15,571655726053753,10,34.0,-506.18505859375,0.3156999945640564,0,0.0,0.0,,,,,0,,1
Raw,5504068,5507413000000,,,-1170854148394491392,0.0,4119.310528039932,14.454549632237562,7.924638074083059,4,13,0.0,15,571655737897663,12,32.8,382.2657775878906,0.38520002365112305,0,0.0,0.0,,,,,0,,1
Raw,5504069,5507413000000,,,-1170854148394491392,0.0,4119.310528039932,14.454549632237562,7.924638074083059,4,15,0.0,15,571655739480376,13,31.8,33.093345642089844,0.426800012588501,0,0.0,0.0,,,,,0,,1
Raw,5504070,5507413000000,,,-1170854148394491392,0.0,4119.310528039932,14.454549632237562,7.924638074083059,4,17,0.0,15,571655728013193,7,37.8,-442.3963623046875,0.23800000548362732,0,0.0,0.0,,,,,0,,1
Raw,5504072,5507413000000,,,-1170854148394491392,0.0,4119.310528039932,14.454549632237562,7.924638074083059,4,18,0.0,15,571655730728479,7,37.3,-211.4490966796875,0.210999995470047,0,0.0,0.0,,,,,0,,1
Raw,5504073,5507413000000,,,-1170854148394491392,0.0,4119.310528039932,14.454549632237562,7.924638074083059,4,20,0.0,15,571655731622916,14,30.0,571.03955078125,0.4702000021934509,0,0.0,0.0,,,,,0,,1
Raw,5504074,5507413000000,,,-1170854148394491392,0.0,4119.310528039932,14.454549632237562,7.924638074083059,4,24,0.0,15,571655735430812,6,38.9,-453.0450439453125,0.19290000200271606,0,0.0,0.0,,,,,0,,1
Raw,5504075,5507413000000,,,-1170854148394491392,0.0,4119.310528039932,14.454549632237562,7.924638074083059,4,28,0.0,15,571655731921786,5,41.0,460.91278076171875,0.13750000298023224,0,0.0,0.0,,,,,0,,1
Raw,5504076,5507413000000,,,-1170854148394491392,0.0,4119.310528039932,14.454549632237562,7.924638074083059,4,30,0.0,15,571655724379554,13,31.6,644.1989135742188,0.4343000054359436,0,0.0,0.0,,,,,0,,1
Fix,gps,51.531983,-0.159990,82.000000,0.000000,3.000000,1486824438000
Fix,gps,51.531984,-0.159991,82.000000,0.000000,3.000000,1486824439000
Raw,5505075,5508428000000,,,-1170854148394052864,0.0,4141.480196267366,11.015014256216697,10.09276922343763,5,10,0.0,15,571656740618356,11,33.4,-505.3816223144531,0.3386000096797943,0,0.0,0.0,,,,,0,,1
Raw,5505076,5508428000000,,,-1170854148394052864,0.0,4141.480196267366,11.015014256216697,10.09276922343763,5,12,0.0,15,571656739689392,21,26.6,-771.9833984375,0.5399999618530273,0,0.0,0.0,,,,,0,,1
Raw,5505077,5508428000000,,,-1170854148394052864,0.0,4141.480196267366,11.015014256216697,10.09276922343763,5,13,0.0,15,571656752459222,12,32.0,383.3407897949219,0.37770000100135803,0,0.0,0.0,,,,,0,,1
Raw,5505078,5508428000000,,,-1170854148394052864,0.0,4141.480196267366,11.015014256216697,10.09276922343763,5,15,0.0,15,571656754043108,12,32.2,33.89577102661133,0.380700021982193,0,0.0,0.0,,,,,0,,1
Raw,5505079,5508428000000,,,-1170854148394052864,0.0,4141.480196267366,11.015014256216697,10.09276922343763,5,17,0.0,15,571656742577584,7,37.1,-441.5132751464844,0.2290000021457672,0,0.0,0.0,,,,,0,,1
Raw,5505080,5508428000000,,,-1170854148394052864,0.0,4141.480196267366,11.015014256216697,10.09276922343763,5,18,0.0,15,571656745292061,7,37.3,-210.76751708984375,0.23350000381469727,0,0.0,0.0,,,,,0,,1
Raw,5505082,5508428000000,,,-1170854148394052864,0.0,4141.480196267366,11.015014256216697,10.09276922343763,5,20,0.0,15,571656746183852,14,30.1,571.6307983398438,0.4926999807357788,0,0.0,0.0,,,,,0,,1
Raw,5505084,5508428000000,,,-1170854148394052864,0.0,4141.480196267366,11.015014256216697,10.09276922343763,5,24,0.0,15,571656749995231,6,39.3,-452.2500915527344,0.19779999554157257,0,0.0,0.0,,,,,0,,1
Raw,5505085,5508428000000,,,-1170854148394052864,0.0,4141.480196267366,11.015014256216697,10.09276922343763,5,28,0.0,15,571656746483113,5,40.9,461.48016357421875,0.17630000412464142,0,0.0,0.0,,,,,0,,1
Raw,5505086,5508428000000,,,-1170854148394052864,0.0,4141.480196267366,11.015014256216697,10.09276922343763,5,30,0.0,15,571656738940264,13,31.8,644.9661254882812,0.4253000020980835,0,0.0,0.0,,,,,0,,1
Raw,5506052,5509417000000,,,-1170854148393330176,0.0,4148.723091930151,13.644074669218195,9.103130676608838,6,10,0.0,15,571657728896021,11,33.9,-507.6988220214844,0.350600004196167,0,0.0,0.0,,,,,0,,1
Raw,5506053,5509417000000,,,-1170854148393330176,0.0,4148.723091930151,13.644074669218195,9.103130676608838,6,13,0.0,15,571657740734010,12,32.0,381.1062316894531,0.3897000253200531,0,0.0,0.0,,,,,0,,1
Raw,5506054,5509417000000,,,-1170854148393330176,0.0,4148.723091930151,13.644074669218195,9.103130676608838,6,15,0.0,15,571657742318943,12,32.5,31.64028549194336,0.3927000164985657,0,0.0,0.0,,,,,0,,1
Raw,5506055,5509417000000,,,-1170854148393330176,0.0,4148.723091930151,13.644074669218195,9.103130676608838,6,17,0.0,15,571657730855039,8,36.8,-443.77593994140625,0.23089998960494995,0,0.0,0.0,,,,,0,,1
Raw,5506055,5509417000000,,,-1170854148393330176,0.0,4148.723091930151,13.644074669218195,9.103130676608838,6,18,0.0,15,571657733568766,6,38.0,-213.0494384765625,0.1898999959230423,0,0.0,0.0,,,,,0,,1
Raw,5506056,5509417000000,,,-1170854148393330176,0.0,4148.723091930151,13.644074669218195,9.103130676608838,6,20,0.0,15,571657734458008,16,29.4,569.3077392578125,0.5954999923706055,0,0.0,0.0,,,,,0,,1
Raw,5506057,5509417000000,,,-1170854148393330176,0.0,4148.723091930151,13.644074669218195,9.103130676608838,6,24,0.0,15,571657738272728,6,38.9,-454.5622863769531,0.19740000367164612,0,0.0,0.0,,,,,0,,1
Raw,5506057,5509417000000,,,-1170854148393330176,0.0,4148.723091930151,13.644074669218195,9.103130676608838,6,28,0.0,15,571657734757595,5,40.8,459.3749084472656,0.1583000123500824,0,0.0,0.0,,,,,0,,1
Raw,5506058,5509417000000,,,-1170854148393330176,0.0,4148.723091930151,13.644074669218195,9.103130676608838,6,30,0.0,15,571657727214071,12,32.1,642.6226806640625,0.4002000093460083,0,0.0,0.0,,,,,0,,1
Fix,gps,51.531980,-0.159994,82.000000,0.000000,3.000000,1486824440000
Raw,5507055,5510432000000,,,-1170854148392577536,0.0,4157.313611358404,5.559926338081674,9.090384743663252,7,10,0.0,15,571658743145110,10,34.2,-506.407958984375,0.31120002269744873,0,0.0,0.0,,,,,0,,1
Raw,5507056,5510432000000,,,-1170854148392577536,0.0,4157.313611358404,5.559926338081674,9.090384743663252,7,12,0.0,15,571658742217959,21,26.8,-773.0394897460938,0.5444999933242798,0,0.0,0.0,,,,,0,,1
Raw,5507057,5510432000000,,,-1170854148392577536,0.0,4157.313611358404,5.559926338081674,9.090384743663252,7,13,0.0,15,571658754980066,11,33.0,382.3634948730469,0.3296000063419342,0,0.0,0.0,,,,,0,,1
Raw,5507068,5510432000000,,,-1170854148392577536,0.0,4157.313611358404,5.559926338081674,9.090384743663252,7,15,0.0,15,571658756566210,11,33.2,32.73060607910156,0.3325999975204468,0,0.0,0.0,,,,,0,,1
Raw,5507068,5510432000000,,,-1170854148392577536,0.0,4157.313611358404,5.559926338081674,9.090384743663252,7,17,0.0,15,571658745103950,7,37.8,-442.8173522949219,0.23350000381469727,0,0.0,0.0,,,,,0,,1
Raw,5507069,5510432000000,,,-1170854148392577536,0.0,4157.313611358404,5.559926338081674,9.090384743663252,7,18,0.0,15,571658747816898,8,36.6,-211.8052215576172,0.2563999891281128,0,0.0,0.0,,,,,0,,1
Raw,5507070,5510432000000,,,-1170854148392577536,0.0,4157.313611358404,5.559926338081674,9.090384743663252,7,20,0.0,15,571658748703490,14,30.8,570.8230590820312,0.49570000171661377,0,0.0,0.0,,,,,0,,1
Raw,5507071,5510432000000,,,-1170854148392577536,0.0,4157.313611358404,5.559926338081674,9.090384743663252,7,24,0.0,15,571658752521634,6,39.2,-453.4215087890625,0.17229999601840973,0,0.0,0.0,,,,,0,,1
Raw,5507072,5510432000000,,,-1170854148392577536,0.0,4157.313611358404,5.559926338081674,9.090384743663252,7,28,0.0,15,571658749003447,5,40.0,460.5186767578125,0.18080000579357147,0,0.0,0.0,,,,,0,,1
Raw,5507072,5510432000000,,,-1170854148392577536,0.0,4157.313611358404,5.559926338081674,9.090384743663252,7,30,0.0,15,571658741459298,12,32.5,643.6928100585938,0.3912000060081482,0,0.0,0.0,,,,,0,,1
Fix,gps,51.531976,-0.159993,82.000000,0.000000,3.000000,1486824441000
Fix,gps,51.531974,-0.159992,82.000000,0.000000,3.000000,1486824442000
Raw,5508054,5511443000000,,,-1170854148391793664,0.0,4153.203219175339,9.085238494702692,9.135869917987199,8,10,0.0,15,571659753364327,10,34.5,-506.701416015625,0.2962000072002411,0,0.0,0.0,,,,,0,,1
Raw,5508056,5511443000000,,,-1170854148391793664,0.0,4153.203219175339,9.085238494702692,9.135869917987199,8,13,0.0,15,571659765196248,12,32.1,381.9767150878906,0.3972000181674957,0,0.0,0.0,,,,,0,,1
Raw,5508056,5511443000000,,,-1170854148391793664,0.0,4153.203219175339,9.085238494702692,9.135869917987199,8,15,0.0,15,571659766783680,12,32.1,32.7515869140625,0.3986999988555908,0,0.0,0.0,,,,,0,,1
Raw,5508057,5511443000000,,,-1170854148391793664,0.0,4153.203219175339,9.085238494702692,9.135869917987199,8,17,0.0,15,571659755322932,7,37.5,-442.9593505859375,0.21850000321865082,0,0.0,0.0,,,,,0,,1
Raw,5508058,5511443000000,,,-1170854148391793664,0.0,4153.203219175339,9.085238494702692,9.135869917987199,8,18,0.0,15,571659758035069,7,37.5,-212.1265869140625,0.22300000488758087,0,0.0,0.0,,,,,0,,1
Raw,5508059,5511443000000,,,-1170854148391793664,0.0,4153.203219175339,9.085238494702692,9.135869917987199,8,20,0.0,15,571659758919056,17,28.9,570.202880859375,0.6015000343322754,0,0.0,0.0,,,,,0,,1
Raw,5508060,5511443000000,,,-1170854148391793664,0.0,4153.203219175339,9.085238494702692,9.135869917987199,8,24,0.0,15,571659762740657,6,39.0,-453.6921081542969,0.18729999661445618,0,0.0,0.0,,,,,0,,1
Raw,5508061,5511443000000,,,-1170854148391793664,0.0,4153.203219175339,9.085238494702692,9.135869917987199,8,28,0.0,15,571659759219382,5,40.5,460.24908447265625,0.16580000519752502,0,0.0,0.0,,,,,0,,1
Raw,5508062,5511443000000,,,-1170854148391793664,0.0,4153.203219175339,9.085238494702692,9.135869917987199,8,30,0.0,15,571659751674626,12,32.1,643.1692504882812,0.37620002031326294,0,0.0,0.0,,,,,0,,1
Fix,gps,51.531975,-0.159991,82.000000,0.000000,3.000000,1486824443000
Raw,5509087,5512435000000,,,-1170854148391197440,0.0,4153.350368142128,7.86761658583207,9.057464974002702,9,10,0.0,15,571660744768768,11,33.8,-508.37933349609375,0.34459999203681946,0,0.0,0.0,,,,,0,,1
Raw,5509088,5512435000000,,,-1170854148391197440,0.0,4153.350368142128,7.86761658583207,9.057464974002702,9,13,0.0,15,571660756597817,12,32.1,380.2723083496094,0.38370001316070557,0,0.0,0.0,,,,,0,,1
Raw,5509089,5512435000000,,,-1170854148391197440,0.0,4153.350368142128,7.86761658583207,9.057464974002702,9,15,0.0,15,571660758186333,12,32.3,30.959888458251953,0.38670000433921814,0,0.0,0.0,,,,,0,,1
Raw,5509090,5512435000000,,,-1170854148391197440,0.0,4153.350368142128,7.86761658583207,9.057464974002702,9,17,0.0,15,571660746727200,8,36.5,-444.7558288574219,0.2548999786376953,0,0.0,0.0,,,,,0,,1
Raw,5509091,5512435000000,,,-1170854148391197440,0.0,4153.350368142128,7.86761658583207,9.057464974002702,9,18,0.0,15,571660749438643,8,36.4,-213.6536865234375,0.25940001010894775,0,0.0,0.0,,,,,0,,1
Raw,5509092,5512435000000,,,-1170854148391197440,0.0,4153.350368142128,7.86761658583207,9.057464974002702,9,20,0.0,15,571660750319863,16,29.7,568.7337646484375,0.5895000100135803,0,0.0,0.0,,,,,0,,1
Raw,5509092,5512435000000,,,-1170854148391197440,0.0,4153.350368142128,7.86761658583207,9.057464974002702,9,24,0.0,15,571660754144984,6,38.6,-455.4820251464844,0.19139999151229858,0,0.0,0.0,,,,,0,,1
Raw,5509093,5512435000000,,,-1170854148391197440,0.0,4153.350368142128,7.86761658583207,9.057464974002702,9,28,0.0,15,571660750620676,5,41.0,458.4759521484375,0.13599999248981476,0,0.0,0.0,,,,,0,,1
Raw,5509094,5512435000000,,,-1170854148391197440,0.0,4153.350368142128,7.86761658583207,9.057464974002702,9,30,0.0,15,571660743075286,11,33.5,641.5597534179688,0.34310001134872437,0,0.0,0.0,,,,,0,,1
Raw,5510083,5513430000000,,,-1170854148390515712,0.0,4170.771688222885,2.1430265842273895,9.087313377029705,10,10,0.0,15,571661739088299,11,33.6,-509.90325927734375,0.33709999918937683,0,0.0,0.0,,,,,0,,1
Raw,5510085,5513430000000,,,-1170854148390515712,0.0,4170.771688222885,2.1430265842273895,9.087313377029705,10,13,0.0,15,571661750914334,12,32.0,378.67730712890625,0.37470000982284546,0,0.0,0.0,,,,,0,,1
Raw,5510086,5513430000000,,,-1170854148390515712,0.0,4170.771688222885,2.1430265842273895,9.087313377029705,10,15,0.0,15,571661752504026,13,31.8,29.530710220336914,0.4162999987602234,0,0.0,0.0,,,,,0,,1
Raw,5510087,5513430000000,,,-1170854148390515712,0.0,4170.771688222885,2.1430265842273895,9.087313377029705,10,17,0.0,15,571661741046489,7,37.4,-446.1694641113281,0.22749999165534973,0,0.0,0.0,,,,,0,,1
Raw,5510089,5513430000000,,,-1170854148390515712,0.0,4170.771688222885,2.1430265842273895,9.087313377029705,10,18,0.0,15,571661743757132,8,36.9,-215.3092803955078,0.25040000677108765,0,0.0,0.0,,,,,0,,1
Raw,5510089,5513430000000,,,-1170854148390515712,0.0,4170.771688222885,2.1430265842273895,9.087313377029705,10,20,0.0,15,571661744635830,14,30.0,566.840576171875,0.48969998955726624,0,0.0,0.0,,,,,0,,1
Raw,5510090,5513430000000,,,-1170854148390515712,0.0,4170.771688222885,2.1430265842273895,9.087313377029705,10,24,0.0,15,571661748464278,6,38.5,-456.95880126953125,0.21240000426769257,0,0.0,0.0,,,,,0,,1
Raw,5510092,5513430000000,,,-1170854148390515712,0.0,4170.771688222885,2.1430265842273895,9.087313377029705,10,28,0.0,15,571661744936951,5,40.8,456.98858642578125,0.17329999804496765,0,0.0,0.0,,,,,0,,1
Raw,5510093,5513430000000,,,-1170854148390515712,0.0,4170.771688222885,2.1430265842273895,9.087313377029705,10,30,0.0,15,571661737391020,12,32.6,640.1041259765625,0.38520002365112305,0,0.0,0.0,,,,,0,,1
Fix,gps,51.531975,-0.159990,82.000000,0.000000,3.000000,1486824444000
Raw,5511056,5514423000000,,,-1170854148389945600,0.0,4165.520891547203,-3.0937485617839635,8.10413010802704,11,10,0.0,15,571662731519860,11,33.1,-508.7585754394531,0.32510000467300415,0,0.0,0.0,,,,,0,,1
Raw,5511057,5514423000000,,,-1170854148389945600,0.0,4165.520891547203,-3.0937485617839635,8.10413010802704,11,12,0.0,15,571662730596250,21,26.9,-776.8739013671875,0.5264999866485596,0,0.0,0.0,,,,,0,,1
Raw,5511057,5514423000000,,,-1170854148389945600,0.0,4165.520891547203,-3.0937485617839635,8.10413010802704,11,13,0.0,15,571662743343037,11,33.7,379.7417907714844,0.34310001134872437,0,0.0,0.0,,,,,0,,1
Raw,5511058,5514423000000,,,-1170854148389945600,0.0,4165.520891547203,-3.0937485617839635,8.10413010802704,11,15,0.0,15,571662744933809,16,29.6,30.62713050842285,0.6105000376701355,0,0.0,0.0,,,,,0,,1
Raw,5511059,5514423000000,,,-1170854148389945600,0.0,4165.520891547203,-3.0937485617839635,8.10413010802704,11,17,0.0,15,571662733477901,6,38.4,-445.22015380859375,0.1898999959230423,0,0.0,0.0,,,,,0,,1
Raw,5511064,5514423000000,,,-1170854148389945600,0.0,4165.520891547203,-3.0937485617839635,8.10413010802704,11,18,0.0,15,571662736187788,9,35.9,-214.04269409179688,0.265500009059906,0,0.0,0.0,,,,,0,,1
Raw,5511064,5514423000000,,,-1170854148389945600,0.0,4165.520891547203,-3.0937485617839635,8.10413010802704,11,19,0.0,15,571662731136154,24,25.5,-656.4987182617188,0.5910000205039978,0,0.0,0.0,,,,,0,,1
Raw,5511065,5514423000000,,,-1170854148389945600,0.0,4165.520891547203,-3.0937485617839635,8.10413010802704,11,20,0.0,15,571662737063897,16,29.4,568.12060546875,0.6000000238418579,0,0.0,0.0,,,,,0,,1
Raw,5511066,5514423000000,,,-1170854148389945600,0.0,4165.520891547203,-3.0937485617839635,8.10413010802704,11,24,0.0,15,571662740895750,7,37.6,-456.01568603515625,0.22599999606609344,0,0.0,0.0,,,,,0,,1
Raw,5511066,5514423000000,,,-1170854148389945600,0.0,4165.520891547203,-3.0937485617839635,8.10413010802704,11,28,0.0,15,571662737365351,5,40.6,457.9828186035156,0.16279999911785126,0,0.0,0.0,,,,,0,,1
Raw,5511067,5514423000000,,,-1170854148389945600,0.0,4165.520891547203,-3.0937485617839635,8.10413010802704,11,30,0.0,15,571662729818837,13,31.4,640.69873046875,0.44179999828338623,0,0.0,0.0,,,,,0,,1
Fix,gps,51.531975,-0.159990,82.000000,0.000000,3.000000,1486824445000
Raw,5512045,5515434000000,,,-1170854148389562368,0.0,4179.544281214476,-0.12030080151945947,9.108435981324632,12,10,0.0,15,571663742139589,10,34.1,-507.77813720703125,0.30970001220703125,0,0.0,0.0,,,,,0,,1
Raw,5512047,5515434000000,,,-1170854148389562368,0.0,4179.544281214476,-0.12030080151945947,9.108435981324632,12,13,0.0,15,571663753959741,12,32.7,381.0152587890625,0.3792000114917755,0,0.0,0.0,,,,,0,,1
Raw,5512048,5515434000000,,,-1170854148389562368,0.0,4179.544281214476,-0.12030080151945947,9.108435981324632,12,15,0.0,15,571663755551712,12,32.8,31.38788604736328,0.3822000026702881,0,0.0,0.0,,,,,0,,1
Raw,5512049,5515434000000,,,-1170854148389562368,0.0,4179.544281214476,-0.12030080151945947,9.108435981324632,12,17,0.0,15,571663744097384,7,37.3,-444.3505859375,0.23199999332427979,0,0.0,0.0,,,,,0,,1
Raw,5512051,5515434000000,,,-1170854148389562368,0.0,4179.544281214476,-0.12030080151945947,9.108435981324632,12,18,0.0,15,571663746806472,7,37.0,-213.12733459472656,0.23499999940395355,0,0.0,0.0,,,,,0,,1
Raw,5512052,5515434000000,,,-1170854148389562368,0.0,4179.544281214476,-0.12030080151945947,9.108435981324632,12,20,0.0,15,571663747680037,14,30.1,568.8929443359375,0.4941999912261963,0,0.0,0.0,,,,,0,,1
Raw,5512054,5515434000000,,,-1170854148389562368,0.0,4179.544281214476,-0.12030080151945947,9.108435981324632,12,24,0.0,15,571663751515248,6,38.6,-455.1332092285156,0.18690000474452972,0,0.0,0.0,,,,,0,,1
Raw,5512055,5515434000000,,,-1170854148389562368,0.0,4179.544281214476,-0.12030080151945947,9.108435981324632,12,28,0.0,15,571663747981822,5,40.2,458.9407653808594,0.1777999997138977,0,0.0,0.0,,,,,0,,1
Raw,5512057,5515434000000,,,-1170854148389562368,0.0,4179.544281214476,-0.12030080151945947,9.108435981324632,12,30,0.0,15,571663740434624,12,32.3,641.5118408203125,0.3897000253200531,0,0.0,0.0,,,,,0,,1
Fix,gps,51.531975,-0.159990,82.000000,0.000000,3.000000,1486824446000
Raw,5513054,5516440000000,,,-1170854148388616704,0.0,4186.392296105623,2.6264511033369016,9.137225073021783,13,10,0.0,15,571664747195939,11,33.9,-508.6331481933594,0.3490999937057495,0,0.0,0.0,,,,,0,,1
Raw,5513055,5516440000000,,,-1170854148388616704,0.0,4186.392296105623,2.6264511033369016,9.137225073021783,13,13,0.0,15,571664759013075,11,33.5,380.1187744140625,0.3671000003814697,0,0.0,0.0,,,,,0,,1
Raw,5513057,5516440000000,,,-1170854148388616704,0.0,4186.392296105623,2.6264511033369016,9.137225073021783,13,15,0.0,15,571664760606207,12,32.0,30.785015106201172,0.419700026512146,0,0.0,0.0,,,,,0,,1
Raw,5513059,5516440000000,,,-1170854148388616704,0.0,4186.392296105623,2.6264511033369016,9.137225073021783,13,17,0.0,15,571664749153465,7,37.1,-445.1380615234375,0.2395000010728836,0,0.0,0.0,,,,,0,,1
Raw,5513060,5516440000000,,,-1170854148388616704,0.0,4186.392296105623,2.6264511033369016,9.137225073021783,13,18,0.0,15,571664751861820,7,37.3,-213.830078125,0.24250000715255737,0,0.0,0.0,,,,,0,,1
Raw,5513062,5516440000000,,,-1170854148388616704,0.0,4186.392296105623,2.6264511033369016,9.137225073021783,13,19,0.0,15,571664746813134,24,25.8,-654.8881225585938,0.6134999990463257,0,0.0,0.0,,,,,0,,1
Raw,5513063,5516440000000,,,-1170854148388616704,0.0,4186.392296105623,2.6264511033369016,9.137225073021783,13,20,0.0,15,571664752732711,14,30.1,568.2416381835938,0.5016999840736389,0,0.0,0.0,,,,,0,,1
Raw,5513064,5516440000000,,,-1170854148388616704,0.0,4186.392296105623,2.6264511033369016,9.137225073021783,13,24,0.0,15,571664756571386,6,39.0,-455.73309326171875,0.20829999446868896,0,0.0,0.0,,,,,0,,1
Raw,5513065,5516440000000,,,-1170854148388616704,0.0,4186.392296105623,2.6264511033369016,9.137225073021783,13,28,0.0,15,571664753034870,5,40.4,458.1006164550781,0.1868000030517578,0,0.0,0.0,,,,,0,,1
Raw,5513066,5516440000000,,,-1170854148388616704,0.0,4186.392296105623,2.6264511033369016,9.137225073021783,13,30,0.0,15,571664745487087,12,32.8,640.965087890625,0.3972000181674957,0,0.0,0.0,,,,,0,,1
Fix,gps,51.531975,-0.159990,82.000000,0.000000,3.000000,1486824447000
Fix,gps,51.531975,-0.159990,82.000000,0.000000,3.000000,1486824448000
Raw,5514077,5517438000000,,,-1170854148388176896,0.0,4178.601782768965,-0.043288399991698936,8.23060488235802,14,10,0.0,15,571665744755478,10,34.1,-509.24090576171875,0.3127000033855438,0,0.0,0.0,,,,,0,,1
Raw,5514078,5517438000000,,,-1170854148388176896,0.0,4178.601782768965,-0.043288399991698936,8.23060488235802,14,12,0.0,15,571665743834584,19,27.0,-776.5789184570312,0.5460000038146973,0,0.0,0.0,,,,,0,,1
Raw,5514079,5517438000000,,,-1170854148388176896,0.0,4178.601782768965,-0.043288399991698936,8.23060488235802,14,13,0.0,15,571665756569732,13,31.6,379.1546630859375,0.4223000109195709,0,0.0,0.0,,,,,0,,1
Raw,5514080,5517438000000,,,-1170854148388176896,0.0,4178.601782768965,-0.043288399991698936,8.23060488235802,14,15,0.0,15,571665758164032,12,32.4,30.360429763793945,0.38670000433921814,0,0.0,0.0,,,,,0,,1
Raw,5514081,5517438000000,,,-1170854148388176896,0.0,4178.601782768965,-0.043288399991698936,8.23060488235802,14,17,0.0,15,571665746712909,8,36.8,-445.6090087890625,0.2548999786376953,0,0.0,0.0,,,,,0,,1
Raw,5514082,5517438000000,,,-1170854148388176896,0.0,4178.601782768965,-0.043288399991698936,8.23060488235802,14,18,0.0,15,571665749420444,8,36.5,-214.41001892089844,0.25940001010894775,0,0.0,0.0,,,,,0,,1
Raw,5514083,5517438000000,,,-1170854148388176896,0.0,4178.601782768965,-0.043288399991698936,8.23060488235802,14,19,0.0,15,571665744373169,21,26.3,-655.7568359375,0.6105000376701355,0,0.0,0.0,,,,,0,,1
Raw,5514084,5517438000000,,,-1170854148388176896,0.0,4178.601782768965,-0.043288399991698936,8.23060488235802,14,20,0.0,15,571665750288805,16,29.0,567.7377319335938,0.5895000100135803,0,0.0,0.0,,,,,0,,1
Raw,5514084,5517438000000,,,-1170854148388176896,0.0,4178.601782768965,-0.043288399991698936,8.23060488235802,14,24,0.0,15,571665754130826,6,38.4,-456.2929992675781,0.19139999151229858,0,0.0,0.0,,,,,0,,1
Raw,5514085,5517438000000,,,-1170854148388176896,0.0,4178.601782768965,-0.043288399991698936,8.23060488235802,14,28,0.0,15,571665750591281,5,40.8,457.67694091796875,0.15230000019073486,0,0.0,0.0,,,,,0,,1
Raw,5514086,5517438000000,,,-1170854148388176896,0.0,4178.601782768965,-0.043288399991698936,8.23060488235802,14,30,0.0,15,571665743042906,12,32.4,640.2763671875,0.39420002698898315,0,0.0,0.0,,,,,0,,1
Raw,5515072,5518431000000,,,-1170854148387913728,0.0,4177.724942564964,-2.2287478941329057,8.15000655950886,15,10,0.0,15,571666737493814,10,34.6,-510.05908203125,0.3022000193595886,0,0.0,0.0,,,,,0,,1
Raw,5515073,5518431000000,,,-1170854148387913728,0.0,4177.724942564964,-2.2287478941329057,8.15000655950886,15,13,0.0,15,571666749305065,12,32.4,378.5802001953125,0.373199999332428,0,0.0,0.0,,,,,0,,1
Raw,5515073,5518431000000,,,-1170854148387913728,0.0,4177.724942564964,-2.2287478941329057,8.15000655950886,15,15,0.0,15,571666750900564,11,33.7,29.291088104248047,0.32359999418258667,0,0.0,0.0,,,,,0,,1
Raw,5515076,5518431000000,,,-1170854148387913728,0.0,4177.724942564964,-2.2287478941329057,8.15000655950886,15,17,0.0,15,571666739450960,8,36.8,-446.68182373046875,0.2443999946117401,0,0.0,0.0,,,,,0,,1
Raw,5515077,5518431000000,,,-1170854148387913728,0.0,4177.724942564964,-2.2287478941329057,8.15000655950886,15,18,0.0,15,571666742157718,7,37.0,-215.4473419189453,0.2290000021457672,0,0.0,0.0,,,,,0,,1
Raw,5515077,5518431000000,,,-1170854148387913728,0.0,4177.724942564964,-2.2287478941329057,8.15000655950886,15,20,0.0,15,571666743023515,16,29.0,566.3031616210938,0.609000027179718,0,0.0,0.0,,,,,0,,1
Raw,5515078,5518431000000,,,-1170854148387913728,0.0,4177.724942564964,-2.2287478941329057,8.15000655950886,15,24,0.0,15,571666746868948,6,39.0,-457.3518371582031,0.19329999387264252,0,0.0,0.0,,,,,0,,1
Raw,5515079,5518431000000,,,-1170854148387913728,0.0,4177.724942564964,-2.2287478941329057,8.15000655950886,15,28,0.0,15,571666743326359,5,41.1,456.63818359375,0.15549999475479126,0,0.0,0.0,,,,,0,,1
Raw,5515080,5518431000000,,,-1170854148387913728,0.0,4177.724942564964,-2.2287478941329057,8.15000655950886,15,30,0.0,15,571666735777385,12,32.4,639.4349365234375,0.3822000026702881,0,0.0,0.0,,,,,0,,1
Fix,gps,51.531975,-0.159990,82.000000,0.000000,3.000000,1486824449000
Fix,gps,51.531975,-0.159990,82.000000,0.000000,3.000000,1486824450000
Raw,5516041,5519425000000,,,-1170854148387627776,0.0,4185.813944786787,-5.477791536636965,9.055095838528509,16,10,0.0,15,571667731212193,10,34.5,-508.65386962890625,0.2932000160217285,0,0.0,0.0,,,,,0,,1
Raw,5516043,5519425000000,,,-1170854148387627776,0.0,4185.813944786787,-5.477791536636965,9.055095838528509,16,13,0.0,15,571667743020473,12,32.3,379.8450927734375,0.39420002698898315,0,0.0,0.0,,,,,0,,1
Raw,5516044,5519425000000,,,-1170854148387627776,0.0,4185.813944786787,-5.477791536636965,9.055095838528509,16,15,0.0,15,571667744617079,11,33.0,30.96409797668457,0.34459999203681946,0,0.0,0.0,,,,,0,,1
Raw,5516045,5519425000000,,,-1170854148387627776,0.0,4185.813944786787,-5.477791536636965,9.055095838528509,16,17,0.0,15,571667733169107,7,37.0,-444.8843994140625,0.21549999713897705,0,0.0,0.0,,,,,0,,1
Raw,5516046,5519425000000,,,-1170854148387627776,0.0,4185.813944786787,-5.477791536636965,9.055095838528509,16,18,0.0,15,571667735875122,8,36.6,-213.630615234375,0.23839999735355377,0,0.0,0.0,,,,,0,,1
Raw,5516047,5519425000000,,,-1170854148387627776,0.0,4185.813944786787,-5.477791536636965,9.055095838528509,16,20,0.0,15,571667736738227,16,29.6,568.1925048828125,0.5985000133514404,0,0.0,0.0,,,,,0,,1
