# 
# Header Description:
# 
# Version: 1.4.0.0, Platform: N
# 
# Raw,ElapsedRealtimeMillis,TimeNanos,LeapSecond,TimeUncertaintyNanos,FullBiasNanos,BiasNanos,BiasUncertaintyNanos,DriftNanosPerSecond,DriftUncertaintyNanosPerSecond,HardwareClockDiscontinuityCount, Svid,TimeOffsetNanos,State,ReceivedSvTimeNanos,ReceivedSvTimeUncertaintyNanos,Cn0DbHz,PseudorangeRateMetersPerSecond,PseudorangeRateUncertaintyMetersPerSecond,AccumulatedDeltaRangeState,AccumulatedDeltaRangeMeters,AccumulatedDeltaRangeUncertaintyMeters,CarrierFrequencyHz,CarrierCycles,CarrierPhase,CarrierPhaseUncertainty,MultipathIndicator,SnrInDb,ConstellationType
# 
# Fix,Provider,Latitude,Longitude,Altitude,Speed,Accuracy,(UTC)TimeInMs
# 
# Nav,Svid,Type,Status,MessageId,Sub-messageId,Data(Bytes)
# 
Raw,14498120,14502785000000,,,-1163849822619809280,0.0,81.22642611851916,-1.7359659261233489,8.813933911886858,539,2,0.0,15,229125333106712,125,14.6,87.67781066894531,3.625999927520752,0,0.0,0.0,,,,,0,,1
Raw,14498121,14502785000000,,,-1163849822619809280,0.0,81.22642611851916,-1.7359659261233489,8.813933911886858,539,5,0.0,15,229125330006679,11,33.8,-550.4262084960938,0.03790000081062317,0,0.0,0.0,,,,,0,,1
Raw,14498121,14502785000000,,,-1163849822619809280,0.0,81.22642611851916,-1.7359659261233489,8.813933911886858,539,6,0.0,15,229125330993331,10,34.7,559.60888671875,0.03710000216960907,0,0.0,0.0,,,,,0,,1
Raw,14498122,14502785000000,,,-1163849822619809280,0.0,81.22642611851916,-1.7359659261233489,8.813933911886858,539,7,0.0,15,229125334689165,10,34.7,-236.7471160888672,0.04309999942779541,0,0.0,0.0,,,,,0,,1
Raw,14498122,14502785000000,,,-1163849822619809280,0.0,81.22642611851916,-1.7359659261233489,8.813933911886858,539,9,0.0,15,229125334890208,21,26.4,369.5188903808594,0.13220000267028809,0,0.0,0.0,,,,,0,,1
Raw,14498123,14502785000000,,,-1163849822619809280,0.0,81.22642611851916,-1.7359659261233489,8.813933911886858,539,16,0.0,15,229125324508989,69,19.8,29.419403076171875,3.1725001335144043,0,0.0,0.0,,,,,0,,1
Raw,14498123,14502785000000,,,-1163849822619809280,0.0,81.22642611851916,-1.7359659261233489,8.813933911886858,539,23,0.0,15,229125325734946,14,30.3,574.6065063476562,0.0333000011742115,0,0.0,0.0,,,,,0,,1
Raw,14498124,14502785000000,,,-1163849822619809280,0.0,81.22642611851916,-1.7359659261233489,8.813933911886858,539,30,0.0,15,229125330468863,6,39.1,-598.0413208007812,0.03460000082850456,0,0.0,0.0,,,,,0,,1
Fix,gps,51.513179,-0.078042,53.000000,0.000000,5.000000,1479829109000
Raw,14499191,14503785000000,,,-1163849822619809280,0.0,82.87932723760605,1.3025474429507382,9.79241310692851,539,2,0.0,15,229126333106483,35,22.6,85.13739013671875,0.7459999918937683,0,0.0,0.0,,,,,0,,1
Raw,14499192,14503785000000,,,-1163849822619809280,0.0,82.87932723760605,1.3025474429507382,9.79241310692851,539,5,0.0,15,229126330008526,8,36.6,-554.3407592773438,0.03620000183582306,0,0.0,0.0,,,,,0,,1
Raw,14499193,14503785000000,,,-1163849822619809280,0.0,82.87932723760605,1.3025474429507382,9.79241310692851,539,6,0.0,15,229126330991490,10,34.4,555.7017822265625,0.03710000216960907,0,0.0,0.0,,,,,0,,1
Raw,14499194,14503785000000,,,-1163849822619809280,0.0,82.87932723760605,1.3025474429507382,9.79241310692851,539,7,0.0,15,229126334689944,11,33.0,-240.60406494140625,0.04390000179409981,0,0.0,0.0,,,,,0,,1
Raw,14499195,14503785000000,,,-1163849822619809280,0.0,82.87932723760605,1.3025474429507382,9.79241310692851,539,9,0.0,15,229126334888983,27,24.7,366.9908752441406,0.6375000476837158,0,0.0,0.0,,,,,0,,1
Raw,14499196,14503785000000,,,-1163849822619809280,0.0,82.87932723760605,1.3025474429507382,9.79241310692851,539,16,0.0,15,229126324508872,33,23.1,28.410844802856445,1.4825000762939453,0,0.0,0.0,,,,,0,,1
Raw,14499197,14503785000000,,,-1163849822619809280,0.0,82.87932723760605,1.3025474429507382,9.79241310692851,539,23,0.0,15,229126325733041,11,33.0,570.6442260742188,0.030400000512599945,0,0.0,0.0,,,,,0,,1
Raw,14499198,14503785000000,,,-1163849822619809280,0.0,82.87932723760605,1.3025474429507382,9.79241310692851,539,30,0.0,15,229126330470857,5,41.0,-601.8948364257812,0.0340999998152256,0,0.0,0.0,,,,,0,,1
Fix,gps,51.513178,-0.078048,54.000000,0.000000,5.000000,1479829110000
Raw,14500160,14504785000000,,,-1163849822619809280,0.0,85.83451563026756,-10.570924225376277,13.461887435501792,539,2,0.0,15,229127333106198,35,22.3,87.9251937866211,0.8059999942779541,0,0.0,0.0,,,,,0,,1
Raw,14500162,14504785000000,,,-1163849822619809280,0.0,85.83451563026756,-10.570924225376277,13.461887435501792,539,5,0.0,15,229127330010349,7,37.3,-551.9893188476562,0.035599999129772186,0,0.0,0.0,,,,,0,,1
Raw,14500163,14504785000000,,,-1163849822619809280,0.0,85.83451563026756,-10.570924225376277,13.461887435501792,539,6,0.0,15,229127330989619,9,35.1,558.0847778320312,0.03660000115633011,0,0.0,0.0,,,,,0,,1
Raw,14500165,14504785000000,,,-1163849822619809280,0.0,85.83451563026756,-10.570924225376277,13.461887435501792,539,7,0.0,15,229127334690738,12,32.6,-238.24142456054688,0.04490000009536743,0,0.0,0.0,,,,,0,,1
Raw,14500166,14504785000000,,,-1163849822619809280,0.0,85.83451563026756,-10.570924225376277,13.461887435501792,539,9,0.0,15,229127334887774,17,28.0,367.9582824707031,0.05430000275373459,0,0.0,0.0,,,,,0,,1
Raw,14500167,14504785000000,,,-1163849822619809280,0.0,85.83451563026756,-10.570924225376277,13.461887435501792,539,16,0.0,15,229127324508746,24,25.0,29.752416610717773,0.6225000023841858,0,0.0,0.0,,,,,0,,1
Raw,14500169,14504785000000,,,-1163849822619809280,0.0,85.83451563026756,-10.570924225376277,13.461887435501792,539,23,0.0,15,229127325731156,9,35.0,572.9605712890625,0.029100000858306885,0,0.0,0.0,,,,,0,,1
Raw,14500170,14504785000000,,,-1163849822619809280,0.0,85.83451563026756,-10.570924225376277,13.461887435501792,539,30,0.0,15,229127330472863,6,39.6,-599.534912109375,0.03460000082850456,0,0.0,0.0,,,,,0,,1
Fix,gps,51.513178,-0.078055,54.000000,0.000000,5.000000,1479829111000
Fix,gps,51.513180,-0.078064,55.000000,0.000000,5.000000,1479829112000
Raw,14501175,14505785000000,,,-1163849822619809280,0.0,76.97330875089392,-4.003496981513771,8.927863163523844,539,2,0.0,15,229128333105943,27,24.1,89.21918487548828,0.6859999895095825,0,0.0,0.0,,,,,0,,1
Raw,14501177,14505785000000,,,-1163849822619809280,0.0,76.97330875089392,-4.003496981513771,8.927863163523844,539,5,0.0,15,229128330012199,7,37.9,-549.9823608398438,0.035599999129772186,0,0.0,0.0,,,,,0,,1
Raw,14501178,14505785000000,,,-1163849822619809280,0.0,76.97330875089392,-4.003496981513771,8.927863163523844,539,6,0.0,15,229128330987759,9,35.6,560.1375122070312,0.03660000115633011,0,0.0,0.0,,,,,0,,1
Raw,14501181,14505785000000,,,-1163849822619809280,0.0,76.97330875089392,-4.003496981513771,8.927863163523844,539,7,0.0,15,229128334691553,11,33.5,-236.0875701904297,0.04390000179409981,0,0.0,0.0,,,,,0,,1
Raw,14501183,14505785000000,,,-1163849822619809280,0.0,76.97330875089392,-4.003496981513771,8.927863163523844,539,9,0.0,15,229128334886528,19,27.7,369.9967346191406,0.062300004065036774,0,0.0,0.0,,,,,0,,1
Raw,14501184,14505785000000,,,-1163849822619809280,0.0,76.97330875089392,-4.003496981513771,8.927863163523844,539,16,0.0,15,229128324508536,27,24.7,31.02738380432129,0.6225000023841858,0,0.0,0.0,,,,,0,,1
Raw,14501186,14505785000000,,,-1163849822619809280,0.0,76.97330875089392,-4.003496981513771,8.927863163523844,539,23,0.0,15,229128325729220,8,36.2,574.8832397460938,0.028699999675154686,0,0.0,0.0,,,,,0,,1
Raw,14501188,14505785000000,,,-1163849822619809280,0.0,76.97330875089392,-4.003496981513771,8.927863163523844,539,30,0.0,15,229128330474860,5,40.2,-597.5326538085938,0.03440000116825104,0,0.0,0.0,,,,,0,,1
Raw,14502172,14506785000000,,,-1163849822619809280,0.0,78.85301602073014,2.147120281727696,8.826038850138856,539,2,0.0,15,229129333105644,27,24.3,89.25724792480469,0.6859999895095825,0,0.0,0.0,,,,,0,,1
Raw,14502174,14506785000000,,,-1163849822619809280,0.0,78.85301602073014,2.147120281727696,8.826038850138856,539,5,0.0,15,229129330014035,7,37.0,-550.2739868164062,0.035599999129772186,0,0.0,0.0,,,,,0,,1
Raw,14502175,14506785000000,,,-1163849822619809280,0.0,78.85301602073014,2.147120281727696,8.826038850138856,539,6,0.0,15,229129330985875,9,35.2,559.8970947265625,0.03660000115633011,0,0.0,0.0,,,,,0,,1
Raw,14502176,14506785000000,,,-1163849822619809280,0.0,78.85301602073014,2.147120281727696,8.826038850138856,539,7,0.0,15,229129334692335,13,31.0,-236.3718719482422,0.04619999974966049,0,0.0,0.0,,,,,0,,1
Raw,14502178,14506785000000,,,-1163849822619809280,0.0,78.85301602073014,2.147120281727696,8.826038850138856,539,9,0.0,15,229129334885356,21,26.7,369.8946228027344,0.13220000267028809,0,0.0,0.0,,,,,0,,1
Raw,14502179,14506785000000,,,-1163849822619809280,0.0,78.85301602073014,2.147120281727696,8.826038850138856,539,16,0.0,15,229129324508503,46,20.3,30.3898983001709,0.92249995470047,0,0.0,0.0,,,,,0,,1
Raw,14502180,14506785000000,,,-1163849822619809280,0.0,78.85301602073014,2.147120281727696,8.826038850138856,539,23,0.0,15,229129325727315,9,35.5,574.5982666015625,0.029100000858306885,0,0.0,0.0,,,,,0,,1
Raw,14502181,14506785000000,,,-1163849822619809280,0.0,78.85301602073014,2.147120281727696,8.826038850138856,539,30,0.0,15,229129330476859,6,39.6,-597.8251953125,0.03460000082850456,0,0.0,0.0,,,,,0,,1
Fix,gps,51.513182,-0.078071,56.000000,0.000000,4.000000,1479829113000
Fix,gps,51.513184,-0.078080,56.000000,0.000000,4.000000,1479829114000
Raw,14503177,14507785000000,,,-1163849822619809280,0.0,73.43167089857161,1.2699757071646072,8.815825084816577,539,2,0.0,15,229130333105351,24,25.4,89.2060775756836,0.40130001306533813,0,0.0,0.0,,,,,0,,1
Raw,14503178,14507785000000,,,-1163849822619809280,0.0,73.43167089857161,1.2699757071646072,8.815825084816577,539,5,0.0,15,229130330015872,7,37.8,-550.3168334960938,0.035599999129772186,0,0.0,0.0,,,,,0,,1
Raw,14503178,14507785000000,,,-1163849822619809280,0.0,73.43167089857161,1.2699757071646072,8.815825084816577,539,6,0.0,15,229130330984007,9,35.5,559.9024047851562,0.03660000115633011,0,0.0,0.0,,,,,0,,1
Raw,14503179,14507785000000,,,-1163849822619809280,0.0,73.43167089857161,1.2699757071646072,8.815825084816577,539,7,0.0,15,229130334693135,13,31.8,-236.3717041015625,0.04619999974966049,0,0.0,0.0,,,,,0,,1
Raw,14503180,14507785000000,,,-1163849822619809280,0.0,73.43167089857161,1.2699757071646072,8.815825084816577,539,9,0.0,15,229130334884080,27,24.2,369.64544677734375,0.6875,0,0.0,0.0,,,,,0,,1
Raw,14503180,14507785000000,,,-1163849822619809280,0.0,73.43167089857161,1.2699757071646072,8.815825084816577,539,16,0.0,15,229130324508230,31,23.4,30.32329750061035,0.7324999570846558,0,0.0,0.0,,,,,0,,1
Raw,14503181,14507785000000,,,-1163849822619809280,0.0,73.43167089857161,1.2699757071646072,8.815825084816577,539,23,0.0,15,229130325725396,8,36.0,574.5450439453125,0.028699999675154686,0,0.0,0.0,,,,,0,,1
Raw,14503182,14507785000000,,,-1163849822619809280,0.0,73.43167089857161,1.2699757071646072,8.815825084816577,539,30,0.0,15,229130330478852,6,39.2,-597.8546752929688,0.03460000082850456,0,0.0,0.0,,,,,0,,1
Raw,14504117,14508785000000,,,-1163849822619809280,0.0,70.17328607616946,1.0990580707556905,8.814320417372073,539,2,0.0,15,229131333105034,21,26.1,88.27933502197266,0.1307000070810318,0,0.0,0.0,,,,,0,,1
Raw,14504118,14508785000000,,,-1163849822619809280,0.0,70.17328607616946,1.0990580707556905,8.814320417372073,539,5,0.0,15,229131330017717,6,38.2,-551.3944091796875,0.035100001841783524,0,0.0,0.0,,,,,0,,1
Raw,14504131,14508785000000,,,-1163849822619809280,0.0,70.17328607616946,1.0990580707556905,8.814320417372073,539,6,0.0,15,229131330982155,8,36.0,558.8047485351562,0.03620000183582306,0,0.0,0.0,,,,,0,,1
Raw,14504132,14508785000000,,,-1163849822619809280,0.0,70.17328607616946,1.0990580707556905,8.814320417372073,539,7,0.0,15,229131334693935,12,32.1,-237.33929443359375,0.04490000009536743,0,0.0,0.0,,,,,0,,1
Raw,14504133,14508785000000,,,-1163849822619809280,0.0,70.17328607616946,1.0990580707556905,8.814320417372073,539,9,0.0,15,229131334882797,19,27.3,368.6824035644531,0.062300004065036774,0,0.0,0.0,,,,,0,,1
Raw,14504133,14508785000000,,,-1163849822619809280,0.0,70.17328607616946,1.0990580707556905,8.814320417372073,539,16,0.0,15,229131324508288,19,27.1,29.988624572753906,0.03230000287294388,0,0.0,0.0,,,,,0,,1
Raw,14504134,14508785000000,,,-1163849822619809280,0.0,70.17328607616946,1.0990580707556905,8.814320417372073,539,23,0.0,15,229131325723503,10,34.4,573.447265625,0.029600000008940697,0,0.0,0.0,,,,,0,,1
Raw,14504134,14508785000000,,,-1163849822619809280,0.0,70.17328607616946,1.0990580707556905,8.814320417372073,539,30,0.0,15,229131330480837,6,38.3,-598.878173828125,0.035100001841783524,0,0.0,0.0,,,,,0,,1
Fix,gps,51.513185,-0.078084,56.000000,0.000000,4.000000,1479829115000
Raw,14505123,14509785000000,,,-1163849822619809280,0.0,65.34306885441765,-2.8230718515619113,6.934105633909859,539,2,0.0,15,229132333104712,24,25.4,88.89176940917969,0.40130001306533813,0,0.0,0.0,,,,,0,,1
Raw,14505124,14509785000000,,,-1163849822619809280,0.0,65.34306885441765,-2.8230718515619113,6.934105633909859,539,5,0.0,15,229132330019545,6,38.2,-550.7848510742188,0.035100001841783524,0,0.0,0.0,,,,,0,,1
Raw,14505125,14509785000000,,,-1163849822619809280,0.0,65.34306885441765,-2.8230718515619113,6.934105633909859,539,6,0.0,15,229132330980281,9,35.4,559.418212890625,0.03660000115633011,0,0.0,0.0,,,,,0,,1
Raw,14505126,14509785000000,,,-1163849822619809280,0.0,65.34306885441765,-2.8230718515619113,6.934105633909859,539,7,0.0,15,229132334694736,12,32.7,-236.6775665283203,0.04490000009536743,0,0.0,0.0,,,,,0,,1
Raw,14505126,14509785000000,,,-1163849822619809280,0.0,65.34306885441765,-2.8230718515619113,6.934105633909859,539,9,0.0,15,229132334881590,19,27.1,369.1917419433594,0.062300004065036774,0,0.0,0.0,,,,,0,,1
Raw,14505127,14509785000000,,,-1163849822619809280,0.0,65.34306885441765,-2.8230718515619113,6.934105633909859,539,16,0.0,15,229132324508179,21,26.6,30.696495056152344,0.11720000207424164,0,0.0,0.0,,,,,0,,1
Raw,14505128,14509785000000,,,-1163849822619809280,0.0,65.34306885441765,-2.8230718515619113,6.934105633909859,539,23,0.0,15,229132325721599,10,34.7,573.964599609375,0.029600000008940697,0,0.0,0.0,,,,,0,,1
Raw,14505128,14509785000000,,,-1163849822619809280,0.0,65.34306885441765,-2.8230718515619113,6.934105633909859,539,30,0.0,15,229132330482812,6,38.5,-598.3185424804688,0.035100001841783524,0,0.0,0.0,,,,,0,,1
Fix,gps,51.513186,-0.078085,56.000000,0.000000,4.000000,1479829116000
Raw,14506152,14510785000000,,,-1163849822619809280,0.0,69.1786190145649,-1.2195091054064597,8.643187558644357,539,2,0.0,15,229133333104378,24,25.2,88.97510528564453,0.40130001306533813,0,0.0,0.0,,,,,0,,1
Raw,14506154,14510785000000,,,-1163849822619809280,0.0,69.1786190145649,-1.2195091054064597,8.643187558644357,539,5,0.0,15,229133330021371,6,38.9,-550.7900390625,0.035100001841783524,0,0.0,0.0,,,,,0,,1
Raw,14506155,14510785000000,,,-1163849822619809280,0.0,69.1786190145649,-1.2195091054064597,8.643187558644357,539,6,0.0,15,229133330978411,9,35.4,559.434814453125,0.03660000115633011,0,0.0,0.0,,,,,0,,1
Raw,14506156,14510785000000,,,-1163849822619809280,0.0,69.1786190145649,-1.2195091054064597,8.643187558644357,539,7,0.0,15,229133334695543,12,32.2,-236.6578369140625,0.04490000009536743,0,0.0,0.0,,,,,0,,1
Raw,14506156,14510785000000,,,-1163849822619809280,0.0,69.1786190145649,-1.2195091054064597,8.643187558644357,539,9,0.0,15,229133334880347,16,29.4,369.3417053222656,0.047700002789497375,0,0.0,0.0,,,,,0,,1
Raw,14506157,14510785000000,,,-1163849822619809280,0.0,69.1786190145649,-1.2195091054064597,8.643187558644357,539,16,0.0,15,229133324508134,19,27.3,30.747526168823242,0.047300003468990326,0,0.0,0.0,,,,,0,,1
Raw,14506158,14510785000000,,,-1163849822619809280,0.0,69.1786190145649,-1.2195091054064597,8.643187558644357,539,23,0.0,15,229133325719692,10,34.5,573.95654296875,0.029600000008940697,0,0.0,0.0,,,,,0,,1
Raw,14506159,14510785000000,,,-1163849822619809280,0.0,69.1786190145649,-1.2195091054064597,8.643187558644357,539,30,0.0,15,229133330484800,6,39.0,-598.2623291015625,0.03460000082850456,0,0.0,0.0,,,,,0,,1
Fix,gps,51.513187,-0.078085,56.000000,0.000000,4.000000,1479829117000
Fix,gps,51.513187,-0.078084,56.000000,0.000000,4.000000,1479829118000
Raw,14507179,14511785000000,,,-1163849822619809280,0.0,72.8209997760132,-1.2391497077020042,8.783313293168199,539,2,0.0,15,229134333104131,24,25.5,90.3730697631836,0.40130001306533813,0,0.0,0.0,,,,,0,,1
Raw,14507180,14511785000000,,,-1163849822619809280,0.0,72.8209997760132,-1.2391497077020042,8.783313293168199,539,5,0.0,15,229134330023203,6,39.4,-549.5001220703125,0.03460000082850456,0,0.0,0.0,,,,,0,,1
Raw,14507181,14511785000000,,,-1163849822619809280,0.0,72.8209997760132,-1.2391497077020042,8.783313293168199,539,6,0.0,15,229134330976542,8,36.6,560.8121948242188,0.03620000183582306,0,0.0,0.0,,,,,0,,1
Raw,14507182,14511785000000,,,-1163849822619809280,0.0,72.8209997760132,-1.2391497077020042,8.783313293168199,539,7,0.0,15,229134334696266,12,32.1,-235.20025634765625,0.04490000009536743,0,0.0,0.0,,,,,0,,1
Raw,14507182,14511785000000,,,-1163849822619809280,0.0,72.8209997760132,-1.2391497077020042,8.783313293168199,539,9,0.0,15,229134334879099,14,30.3,370.65234375,0.046800002455711365,0,0.0,0.0,,,,,0,,1
Raw,14507183,14511785000000,,,-1163849822619809280,0.0,72.8209997760132,-1.2391497077020042,8.783313293168199,539,16,0.0,15,229134324508060,19,27.8,32.249061584472656,0.047300003468990326,0,0.0,0.0,,,,,0,,1
Raw,14507184,14511785000000,,,-1163849822619809280,0.0,72.8209997760132,-1.2391497077020042,8.783313293168199,539,23,0.0,15,229134325717772,9,35.4,575.2314453125,0.029100000858306885,0,0.0,0.0,,,,,0,,1
Raw,14507184,14511785000000,,,-1163849822619809280,0.0,72.8209997760132,-1.2391497077020042,8.783313293168199,539,30,0.0,15,229134330486796,6,39.7,-596.9366455078125,0.03460000082850456,0,0.0,0.0,,,,,0,,1
Raw,14508172,14512785000000,,,-1163849822619809280,0.0,75.33052848884836,2.761995038011566,6.837678082299923,539,2,0.0,15,229135333103736,27,24.8,90.51318359375,0.6360000371932983,0,0.0,0.0,,,,,0,,1
Raw,14508173,14512785000000,,,-1163849822619809280,0.0,75.33052848884836,2.761995038011566,6.837678082299923,539,5,0.0,15,229135330025050,6,39.4,-549.3439331054688,0.03460000082850456,0,0.0,0.0,,,,,0,,1
Raw,14508174,14512785000000,,,-1163849822619809280,0.0,75.33052848884836,2.761995038011566,6.837678082299923,539,6,0.0,15,229135330974682,9,35.6,560.9191284179688,0.03660000115633011,0,0.0,0.0,,,,,0,,1
Raw,14508175,14512785000000,,,-1163849822619809280,0.0,75.33052848884836,2.761995038011566,6.837678082299923,539,7,0.0,15,229135334697094,11,33.8,-235.05337524414062,0.04390000179409981,0,0.0,0.0,,,,,0,,1
Raw,14508177,14512785000000,,,-1163849822619809280,0.0,75.33052848884836,2.761995038011566,6.837678082299923,539,9,0.0,15,229135334877890,14,30.5,370.8074951171875,0.046800002455711365,0,0.0,0.0,,,,,0,,1
Raw,14508178,14512785000000,,,-1163849822619809280,0.0,75.33052848884836,2.761995038011566,6.837678082299923,539,16,0.0,15,229135324507847,27,24.2,32.86371612548828,0.67249995470047,0,0.0,0.0,,,,,0,,1
Raw,14508179,14512785000000,,,-1163849822619809280,0.0,75.33052848884836,2.761995038011566,6.837678082299923,539,23,0.0,15,229135325715859,9,35.4,575.3567504882812,0.029100000858306885,0,0.0,0.0,,,,,0,,1
Raw,14508180,14512785000000,,,-1163849822619809280,0.0,75.33052848884836,2.761995038011566,6.837678082299923,539,30,0.0,15,229135330488779,6,39.4,-596.7611694335938,0.03460000082850456,0,0.0,0.0,,,,,0,,1
Fix,gps,51.513187,-0.078084,56.000000,0.000000,4.000000,1479829119000
Fix,gps,51.513188,-0.078084,56.000000,0.000000,4.000000,1479829120000
Raw,14509179,14513785000000,,,-1163849822619809280,0.0,75.52932220278308,3.180090586774276,6.837993012695284,539,2,0.0,15,229136333103562,27,24.2,89.88521575927734,0.6859999895095825,0,0.0,0.0,,,,,0,,1
Raw,14509181,14513785000000,,,-1163849822619809280,0.0,75.52932220278308,3.180090586774276,6.837993012695284,539,5,0.0,15,229136330026881,5,40.0,-550.4554443359375,0.03440000116825104,0,0.0,0.0,,,,,0,,1
Raw,14509182,14513785000000,,,-1163849822619809280,0.0,75.52932220278308,3.180090586774276,6.837993012695284,539,6,0.0,15,229136330972811,9,35.5,559.9257202148438,0.03660000115633011,0,0.0,0.0,,,,,0,,1
Raw,14509183,14513785000000,,,-1163849822619809280,0.0,75.52932220278308,3.180090586774276,6.837993012695284,539,7,0.0,15,229136334697868,11,33.0,-236.06710815429688,0.04390000179409981,0,0.0,0.0,,,,,0,,1
Raw,14509184,14513785000000,,,-1163849822619809280,0.0,75.52932220278308,3.180090586774276,6.837993012695284,539,9,0.0,15,229136334876654,16,29.1,369.7509765625,0.047700002789497375,0,0.0,0.0,,,,,0,,1
Raw,14509186,14513785000000,,,-1163849822619809280,0.0,75.52932220278308,3.180090586774276,6.837993012695284,539,16,0.0,15,229136324507851,24,25.7,31.60407257080078,0.37279999256134033,0,0.0,0.0,,,,,0,,1
Raw,14509188,14513785000000,,,-1163849822619809280,0.0,75.52932220278308,3.180090586774276,6.837993012695284,539,23,0.0,15,229136325713940,9,35.0,574.2051391601562,0.029100000858306885,0,0.0,0.0,,,,,0,,1
Raw,14509190,14513785000000,,,-1163849822619809280,0.0,75.52932220278308,3.180090586774276,6.837993012695284,539,30,0.0,15,229136330490771,6,39.8,-597.8380126953125,0.03460000082850456,0,0.0,0.0,,,,,0,,1
Fix,gps,51.513188,-0.078084,56.000000,0.000000,5.000000,1479829121000
Raw,14510160,14514785000000,,,-1163849822619809280,0.0,78.5499723860994,-0.5536272063212675,8.634317814453796,539,2,0.0,15,229137333103356,40,21.1,89.39997100830078,0.8659999966621399,0,0.0,0.0,,,,,0,,1
Raw,14510162,14514785000000,,,-1163849822619809280,0.0,78.5499723860994,-0.5536272063212675,8.634317814453796,539,5,0.0,15,229137330028709,5,40.0,-549.9452514648438,0.03440000116825104,0,0.0,0.0,,,,,0,,1
Raw,14510164,14514785000000,,,-1163849822619809280,0.0,78.5499723860994,-0.5536272063212675,8.634317814453796,539,6,0.0,15,229137330970956,10,34.3,560.4163208007812,0.03710000216960907,0,0.0,0.0,,,,,0,,1
Raw,14510166,14514785000000,,,-1163849822619809280,0.0,78.5499723860994,-0.5536272063212675,8.634317814453796,539,7,0.0,15,229137334698651,10,34.6,-235.59791564941406,0.04309999942779541,0,0.0,0.0,,,,,0,,1
Raw,14510168,14514785000000,,,-1163849822619809280,0.0,78.5499723860994,-0.5536272063212675,8.634317814453796,539,9,0.0,15,229137334875401,17,28.7,370.3576354980469,0.05430000275373459,0,0.0,0.0,,,,,0,,1
Raw,14510170,14514785000000,,,-1163849822619809280,0.0,78.5499723860994,-0.5536272063212675,8.634317814453796,539,16,0.0,15,229137324507725,24,25.3,32.37464141845703,0.37279999256134033,0,0.0,0.0,,,,,0,,1
Raw,14510171,14514785000000,,,-1163849822619809280,0.0,78.5499723860994,-0.5536272063212675,8.634317814453796,539,23,0.0,15,229137325712027,10,34.8,574.7612915039062,0.029600000008940697,0,0.0,0.0,,,,,0,,1
Raw,14510173,14514785000000,,,-1163849822619809280,0.0,78.5499723860994,-0.5536272063212675,8.634317814453796,539,30,0.0,15,229137330492768,6,38.3,-597.3052368164062,0.035100001841783524,0,0.0,0.0,,,,,0,,1
Fix,gps,51.513188,-0.078084,56.000000,0.000000,5.000000,1479829122000
Raw,14511207,14515785000000,,,-1163849822619809280,0.0,82.73762068711221,1.1291585771547374,8.786773551123291,539,2,0.0,15,229138333103122,53,19.3,89.46656799316406,1.0160000324249268,0,0.0,0.0,,,,,0,,1
Raw,14511208,14515785000000,,,-1163849822619809280,0.0,82.73762068711221,1.1291585771547374,8.786773551123291,539,5,0.0,15,229138330030553,6,39.0,-550.3513793945312,0.03460000082850456,0,0.0,0.0,,,,,0,,1
Raw,14511209,14515785000000,,,-1163849822619809280,0.0,82.73762068711221,1.1291585771547374,8.786773551123291,539,6,0.0,15,229138330969093,8,36.6,560.030029296875,0.03620000183582306,0,0.0,0.0,,,,,0,,1
Raw,14511210,14515785000000,,,-1163849822619809280,0.0,82.73762068711221,1.1291585771547374,8.786773551123291,539,7,0.0,15,229138334699426,12,32.4,-235.8050537109375,0.04490000009536743,0,0.0,0.0,,,,,0,,1
Raw,14511211,14515785000000,,,-1163849822619809280,0.0,82.73762068711221,1.1291585771547374,8.786773551123291,539,9,0.0,15,229138334874171,16,29.7,369.8503723144531,0.047700002789497375,0,0.0,0.0,,,,,0,,1
Raw,14511211,14515785000000,,,-1163849822619809280,0.0,82.73762068711221,1.1291585771547374,8.786773551123291,539,16,0.0,15,229138324507615,19,27.6,31.529447555541992,0.047300003468990326,0,0.0,0.0,,,,,0,,1
Raw,14511212,14515785000000,,,-1163849822619809280,0.0,82.73762068711221,1.1291585771547374,8.786773551123291,539,23,0.0,15,229138325710124,10,34.0,574.28662109375,0.029600000008940697,0,0.0,0.0,,,,,0,,1
Raw,14511213,14515785000000,,,-1163849822619809280,0.0,82.73762068711221,1.1291585771547374,8.786773551123291,539,30,0.0,15,229138330494766,6,38.7,-597.7225341796875,0.035100001841783524,0,0.0,0.0,,,,,0,,1
Fix,gps,51.513188,-0.078084,56.000000,0.000000,5.000000,1479829123000
Raw,14512168,14516785000000,,,-1163849822619809280,0.0,83.19449989357963,-0.655126399801574,8.79995211572311,539,2,0.0,15,229139333102749,53,19.2,90.06599426269531,1.0160000324249268,0,0.0,0.0,,,,,0,,1
Raw,14512170,14516785000000,,,-1163849822619809280,0.0,83.19449989357963,-0.655126399801574,8.79995211572311,539,5,0.0,15,229139330032379,5,40.0,-550.0921020507812,0.03440000116825104,0,0.0,0.0,,,,,0,,1
Raw,14512171,14516785000000,,,-1163849822619809280,0.0,83.19449989357963,-0.655126399801574,8.79995211572311,539,6,0.0,15,229139330967237,9,35.1,560.3347778320312,0.03660000115633011,0,0.0,0.0,,,,,0,,1
Raw,14512173,14516785000000,,,-1163849822619809280,0.0,83.19449989357963,-0.655126399801574,8.79995211572311,539,7,0.0,15,229139334700212,9,35.5,-235.5574493408203,0.04260000213980675,0,0.0,0.0,,,,,0,,1
Raw,14512174,14516785000000,,,-1163849822619809280,0.0,83.19449989357963,-0.655126399801574,8.79995211572311,539,9,0.0,15,229139334872935,19,27.2,370.1700744628906,0.062300004065036774,0,0.0,0.0,,,,,0,,1
Raw,14512175,14516785000000,,,-1163849822619809280,0.0,83.19449989357963,-0.655126399801574,8.79995211572311,539,16,0.0,15,229139324507491,21,26.2,31.907398223876953,0.11720000207424164,0,0.0,0.0,,,,,0,,1
Raw,14512176,14516785000000,,,-1163849822619809280,0.0,83.19449989357963,-0.655126399801574,8.79995211572311,539,23,0.0,15,229139325708172,11,33.5,574.5319213867188,0.030400000512599945,0,0.0,0.0,,,,,0,,1
Raw,14512178,14516785000000,,,-1163849822619809280,0.0,83.19449989357963,-0.655126399801574,8.79995211572311,539,30,0.0,15,229139330496726,9,35.8,-597.498779296875,0.03660000115633011,0,0.0,0.0,,,,,0,,1
Fix,gps,51.513188,-0.078084,56.000000,0.000000,5.000000,1479829124000
Raw,14513164,14517785000000,,,-1163849822619809280,0.0,86.81709005031735,0.04103169394792766,9.78482217101002,539,2,0.0,15,229140333102404,40,21.0,88.91471862792969,0.8659999966621399,0,0.0,0.0,,,,,0,,1
Raw,14513166,14517785000000,,,-1163849822619809280,0.0,86.81709005031735,0.04103169394792766,9.78482217101002,539,5,0.0,15,229140330034220,6,39.4,-551.0736694335938,0.03460000082850456,0,0.0,0.0,,,,,0,,1
Raw,14513167,14517785000000,,,-1163849822619809280,0.0,86.81709005031735,0.04103169394792766,9.78482217101002,539,6,0.0,15,229140330965333,8,36.0,559.4052734375,0.03620000183582306,0,0.0,0.0,,,,,0,,1
Raw,14513169,14517785000000,,,-1163849822619809280,0.0,86.81709005031735,0.04103169394792766,9.78482217101002,539,7,0.0,15,229140334700993,12,32.9,-236.45458984375,0.04490000009536743,0,0.0,0.0,,,,,0,,1
Raw,14513170,14517785000000,,,-1163849822619809280,0.0,86.81709005031735,0.04103169394792766,9.78482217101002,539,9,0.0,15,229140334871635,27,24.6,369.68353271484375,0.6375000476837158,0,0.0,0.0,,,,,0,,1
Raw,14513171,14517785000000,,,-1163849822619809280,0.0,86.81709005031735,0.04103169394792766,9.78482217101002,539,16,0.0,15,229140324507446,19,27.6,31.06563949584961,0.047300003468990326,0,0.0,0.0,,,,,0,,1
Raw,14513173,14517785000000,,,-1163849822619809280,0.0,86.81709005031735,0.04103169394792766,9.78482217101002,539,23,0.0,15,229140325706266,12,32.6,573.50830078125,0.03139999881386757,0,0.0,0.0,,,,,0,,1
Raw,14513174,14517785000000,,,-1163849822619809280,0.0,86.81709005031735,0.04103169394792766,9.78482217101002,539,30,0.0,15,229140330498719,9,35.9,-598.4449462890625,0.03660000115633011,0,0.0,0.0,,,,,0,,1
Raw,14514173,14518785000000,,,-1163849822619809280,0.0,88.03268428891897,-3.303943128160548,8.805604161985311,539,2,0.0,15,229141333102165,40,21.2,90.22774505615234,0.8659999966621399,0,0.0,0.0,,,,,0,,1
Raw,14514175,14518785000000,,,-1163849822619809280,0.0,88.03268428891897,-3.303943128160548,8.805604161985311,539,5,0.0,15,229141330036053,6,39.3,-550.3243408203125,0.03460000082850456,0,0.0,0.0,,,,,0,,1
Raw,14514176,14518785000000,,,-1163849822619809280,0.0,88.03268428891897,-3.303943128160548,8.805604161985311,539,6,0.0,15,229141330963441,8,36.6,560.2142333984375,0.03620000183582306,0,0.0,0.0,,,,,0,,1
Raw,14514177,14518785000000,,,-1163849822619809280,0.0,88.03268428891897,-3.303943128160548,8.805604161985311,539,7,0.0,15,229141334701792,12,32.7,-235.62168884277344,0.04490000009536743,0,0.0,0.0,,,,,0,,1
Raw,14514178,14518785000000,,,-1163849822619809280,0.0,88.03268428891897,-3.303943128160548,8.805604161985311,539,9,0.0,15,229141334870456,31,23.6,369.67401123046875,0.6875,0,0.0,0.0,,,,,0,,1
Raw,14514179,14518785000000,,,-1163849822619809280,0.0,88.03268428891897,-3.303943128160548,8.805604161985311,539,16,0.0,15,229141324507373,17,28.2,31.9774169921875,0.03930000215768814,0,0.0,0.0,,,,,0,,1
Raw,14514180,14518785000000,,,-1163849822619809280,0.0,88.03268428891897,-3.303943128160548,8.805604161985311,539,23,0.0,15,229141325704357,12,32.2,574.26513671875,0.03139999881386757,0,0.0,0.0,,,,,0,,1
Raw,14514181,14518785000000,,,-1163849822619809280,0.0,88.03268428891897,-3.303943128160548,8.805604161985311,539,30,0.0,15,229141330500724,8,36.3,-597.6217041015625,0.03620000183582306,0,0.0,0.0,,,,,0,,1
Fix,gps,51.513188,-0.078084,56.000000,0.000000,5.000000,1479829125000
Raw,14515194,14519785000000,,,-1163849822619809280,0.0,92.20288484357297,-0.983235359762504,8.803207191753952,539,2,0.0,15,229142333101805,31,23.7,90.07550811767578,0.6859999895095825,0,0.0,0.0,,,,,0,,1
Raw,14515195,14519785000000,,,-1163849822619809280,0.0,92.20288484357297,-0.983235359762504,8.803207191753952,539,5,0.0,15,229142330037897,6,39.2,-550.3446655273438,0.03460000082850456,0,0.0,0.0,,,,,0,,1
Raw,14515196,14519785000000,,,-1163849822619809280,0.0,92.20288484357297,-0.983235359762504,8.803207191753952,539,6,0.0,15,229142330961590,7,37.1,560.2093505859375,0.035599999129772186,0,0.0,0.0,,,,,0,,1
Raw,14515197,14519785000000,,,-1163849822619809280,0.0,92.20288484357297,-0.983235359762504,8.803207191753952,539,7,0.0,15,229142334702600,12,32.7,-235.58541870117188,0.04490000009536743,0,0.0,0.0,,,,,0,,1
Raw,14515198,14519785000000,,,-1163849822619809280,0.0,92.20288484357297,-0.983235359762504,8.803207191753952,539,9,0.0,15,229142334869254,24,25.9,369.82623291015625,0.5975000262260437,0,0.0,0.0,,,,,0,,1
Raw,14515199,14519785000000,,,-1163849822619809280,0.0,92.20288484357297,-0.983235359762504,8.803207191753952,539,16,0.0,15,229142324507300,17,28.6,31.968761444091797,0.03930000215768814,0,0.0,0.0,,,,,0,,1
Raw,14515201,14519785000000,,,-1163849822619809280,0.0,92.20288484357297,-0.983235359762504,8.803207191753952,539,23,0.0,15,229142325702457,12,32.1,574.2031860351562,0.03139999881386757,0,0.0,0.0,,,,,0,,1
Raw,14515201,14519785000000,,,-1163849822619809280,0.0,92.20288484357297,-0.983235359762504,8.803207191753952,539,30,0.0,15,229142330502709,8,36.4,-597.5914916992188,0.03620000183582306,0,0.0,0.0,,,,,0,,1
Fix,gps,51.513188,-0.078084,56.000000,0.000000,5.000000,1479829126000
Raw,14516160,14520785000000,,,-1163849822619809280,0.0,90.07427433971316,-1.1820668835754038,8.802182077411477,539,2,0.0,15,229143333101477,27,24.3,90.51318359375,0.6859999895095825,0,0.0,0.0,,,,,0,,1
Raw,14516162,14520785000000,,,-1163849822619809280,0.0,90.07427433971316,-1.1820668835754038,8.802182077411477,539,5,0.0,15,229143330039724,6,38.9,-549.8489990234375,0.035100001841783524,0,0.0,0.0,,,,,0,,1
Raw,14516164,14520785000000,,,-1163849822619809280,0.0,90.07427433971316,-1.1820668835754038,8.802182077411477,539,6,0.0,15,229143330959713,7,37.0,560.693359375,0.035599999129772186,0,0.0,0.0,,,,,0,,1
Raw,14516165,14520785000000,,,-1163849822619809280,0.0,90.07427433971316,-1.1820668835754038,8.802182077411477,539,7,0.0,15,229143334703359,12,32.4,-235.05372619628906,0.04490000009536743,0,0.0,0.0,,,,,0,,1
Raw,14516167,14520785000000,,,-1163849822619809280,0.0,90.07427433971316,-1.1820668835754038,8.802182077411477,539,9,0.0,15,229143334868002,17,28.6,370.6191101074219,0.05430000275373459,0,0.0,0.0,,,,,0,,1
Raw,14516169,14520785000000,,,-1163849822619809280,0.0,90.07427433971316,-1.1820668835754038,8.802182077411477,539,16,0.0,15,229143324507129,24,25.4,32.51688766479492,0.387800008058548,0,0.0,0.0,,,,,0,,1
Raw,14516170,14520785000000,,,-1163849822619809280,0.0,90.07427433971316,-1.1820668835754038,8.802182077411477,539,23,0.0,15,229143325700537,10,34.4,574.6705932617188,0.029600000008940697,0,0.0,0.0,,,,,0,,1
Raw,14516173,14520785000000,,,-1163849822619809280,0.0,90.07427433971316,-1.1820668835754038,8.802182077411477,539,30,0.0,15,229143330504694,10,34.4,-597.1239013671875,0.03710000216960907,0,0.0,0.0,,,,,0,,1
Fix,gps,51.513188,-0.078084,56.000000,0.000000,5.000000,1479829127000
Raw,14517156,14521785000000,,,-1163849822619809280,0.0,89.6070632734336,0.208450669135226,8.806878993863503,539,2,0.0,15,229144333101143,31,23.9,90.50366973876953,0.6859999895095825,0,0.0,0.0,,,,,0,,1
Raw,14517158,14521785000000,,,-1163849822619809280,0.0,89.6070632734336,0.208450669135226,8.806878993863503,539,5,0.0,15,229144330041568,7,37.0,-549.9518432617188,0.035599999129772186,0,0.0,0.0,,,,,0,,1
Raw,14517159,14521785000000,,,-1163849822619809280,0.0,89.6070632734336,0.208450669135226,8.806878993863503,539,6,0.0,15,229144330957870,7,37.0,560.6296997070312,0.035599999129772186,0,0.0,0.0,,,,,0,,1
Raw,14517160,14521785000000,,,-1163849822619809280,0.0,89.6070632734336,0.208450669135226,8.806878993863503,539,7,0.0,15,229144334704149,13,31.0,-234.98577880859375,0.04619999974966049,0,0.0,0.0,,,,,0,,1
Raw,14517162,14521785000000,,,-1163849822619809280,0.0,89.6070632734336,0.208450669135226,8.806878993863503,539,9,0.0,15,229144334866771,17,28.4,370.5150146484375,0.05430000275373459,0,0.0,0.0,,,,,0,,1
Raw,14517163,14521785000000,,,-1163849822619809280,0.0,89.6070632734336,0.208450669135226,8.806878993863503,539,16,0.0,15,229144324507111,31,23.7,31.855161666870117,0.67249995470047,0,0.0,0.0,,,,,0,,1
Raw,14517164,14521785000000,,,-1163849822619809280,0.0,89.6070632734336,0.208450669135226,8.806878993863503,539,23,0.0,15,229144325698611,10,34.2,574.6229858398438,0.029600000008940697,0,0.0,0.0,,,,,0,,1
Raw,14517165,14521785000000,,,-1163849822619809280,0.0,89.6070632734336,0.208450669135226,8.806878993863503,539,30,0.0,15,229144330506696,11,33.3,-597.2997436523438,0.03790000081062317,0,0.0,0.0,,,,,0,,1
Fix,gps,51.513187,-0.078084,55.000000,0.000000,5.000000,1479829128000
Raw,14518158,14522785000000,,,-1163849822619809280,0.0,92.17161277774721,-0.4076890774519809,10.759259759311206,539,2,0.0,15,229145333100938,27,24.2,89.61880493164062,0.6859999895095825,0,0.0,0.0,,,,,0,,1
Raw,14518160,14522785000000,,,-1163849822619809280,0.0,92.17161277774721,-0.4076890774519809,10.759259759311206,539,5,0.0,15,229145330043402,6,38.4,-551.5142822265625,0.035100001841783524,0,0.0,0.0,,,,,0,,1
Raw,14518162,14522785000000,,,-1163849822619809280,0.0,92.17161277774721,-0.4076890774519809,10.759259759311206,539,6,0.0,15,229145330956007,8,36.7,559.1799926757812,0.03620000183582306,0,0.0,0.0,,,,,0,,1
Raw,14518163,14522785000000,,,-1163849822619809280,0.0,92.17161277774721,-0.4076890774519809,10.759259759311206,539,7,0.0,15,229145334704949,11,33.2,-236.4669952392578,0.04390000179409981,0,0.0,0.0,,,,,0,,1
Raw,14518164,14522785000000,,,-1163849822619809280,0.0,92.17161277774721,-0.4076890774519809,10.759259759311206,539,9,0.0,15,229145334865550,21,26.6,368.90631103515625,0.13220000267028809,0,0.0,0.0,,,,,0,,1
Raw,14518165,14522785000000,,,-1163849822619809280,0.0,92.17161277774721,-0.4076890774519809,10.759259759311206,539,16,0.0,15,229145324506958,21,26.5,30.872217178344727,0.11720000207424164,0,0.0,0.0,,,,,0,,1
Raw,14518166,14522785000000,,,-1163849822619809280,0.0,92.17161277774721,-0.4076890774519809,10.759259759311206,539,23,0.0,15,229145325696685,10,34.0,572.9947509765625,0.029600000008940697,0,0.0,0.0,,,,,0,,1
Raw,14518167,14522785000000,,,-1163849822619809280,0.0,92.17161277774721,-0.4076890774519809,10.759259759311206,539,30,0.0,15,229145330508623,27,24.7,-597.5316772460938,0.6315000057220459,0,0.0,0.0,,,,,0,,1
Fix,gps,51.513183,-0.078083,54.000000,0.000000,5.000000,1479829129000
Raw,14519186,14523785000000,,,-1163849822619809280,0.0,87.2239688760601,-5.557943310453308,8.931550075930142,539,2,0.0,15,229146333100580,27,24.7,90.42755126953125,0.6360000371932983,0,0.0,0.0,,,,,0,,1
Raw,14519188,14523785000000,,,-1163849822619809280,0.0,87.2239688760601,-5.557943310453308,8.931550075930142,539,5,0.0,15,229146330045224,5,40.0,-550.7070922851562,0.03440000116825104,0,0.0,0.0,,,,,0,,1
Raw,14519189,14523785000000,,,-1163849822619809280,0.0,87.2239688760601,-5.557943310453308,8.931550075930142,539,6,0.0,15,229146330954126,8,36.4,559.9175415039062,0.03620000183582306,0,0.0,0.0,,,,,0,,1
Raw,14519191,14523785000000,,,-1163849822619809280,0.0,87.2239688760601,-5.557943310453308,8.931550075930142,539,7,0.0,15,229146334705746,11,33.4,-235.73406982421875,0.04390000179409981,0,0.0,0.0,,,,,0,,1
Raw,14519192,14523785000000,,,-1163849822619809280,0.0,87.2239688760601,-5.557943310453308,8.931550075930142,539,9,0.0,15,229146334864245,19,27.0,369.73681640625,0.062300004065036774,0,0.0,0.0,,,,,0,,1
Raw,14519193,14523785000000,,,-1163849822619809280,0.0,87.2239688760601,-5.557943310453308,8.931550075930142,539,16,0.0,15,229146324506773,31,23.6,31.817100524902344,0.67249995470047,0,0.0,0.0,,,,,0,,1
Raw,14519195,14523785000000,,,-1163849822619809280,0.0,87.2239688760601,-5.557943310453308,8.931550075930142,539,23,0.0,15,229146325694750,11,33.0,573.7479248046875,0.030400000512599945,0,0.0,0.0,,,,,0,,1
Raw,14519195,14523785000000,,,-1163849822619809280,0.0,87.2239688760601,-5.557943310453308,8.931550075930142,539,30,0.0,15,229146330510658,10,34.1,-597.976318359375,0.03710000216960907,0,0.0,0.0,,,,,0,,1
Fix,gps,51.513181,-0.078084,55.000000,0.000000,5.000000,1479829130000
Raw,14520164,14524785000000,,,-1163849822619809280,0.0,91.9136728043668,-3.1930856407964967,8.816548788502887,539,2,0.0,15,229147333100374,31,23.7,90.39900970458984,0.6859999895095825,0,0.0,0.0,,,,,0,,1
Raw,14520166,14524785000000,,,-1163849822619809280,0.0,91.9136728043668,-3.1930856407964967,8.816548788502887,539,5,0.0,15,229147330047064,5,40.0,-550.1469116210938,0.03440000116825104,0,0.0,0.0,,,,,0,,1
Raw,14520167,14524785000000,,,-1163849822619809280,0.0,91.9136728043668,-3.1930856407964967,8.816548788502887,539,6,0.0,15,229147330952258,8,36.5,560.5308837890625,0.03620000183582306,0,0.0,0.0,,,,,0,,1
Raw,14520169,14524785000000,,,-1163849822619809280,0.0,91.9136728043668,-3.1930856407964967,8.816548788502887,539,7,0.0,15,229147334706525,11,33.5,-235.21876525878906,0.04390000179409981,0,0.0,0.0,,,,,0,,1
Raw,14520171,14524785000000,,,-1163849822619809280,0.0,91.9136728043668,-3.1930856407964967,8.816548788502887,539,9,0.0,15,229147334863068,16,29.1,370.2933044433594,0.047700002789497375,0,0.0,0.0,,,,,0,,1
Raw,14520172,14524785000000,,,-1163849822619809280,0.0,91.9136728043668,-3.1930856407964967,8.816548788502887,539,16,0.0,15,229147324506605,24,25.9,32.607540130615234,0.37279999256134033,0,0.0,0.0,,,,,0,,1
Raw,14520174,14524785000000,,,-1163849822619809280,0.0,91.9136728043668,-3.1930856407964967,8.816548788502887,539,23,0.0,15,229147325692796,11,33.2,574.2401123046875,0.030400000512599945,0,0.0,0.0,,,,,0,,1
Raw,14520175,14524785000000,,,-1163849822619809280,0.0,91.9136728043668,-3.1930856407964967,8.816548788502887,539,30,0.0,15,229147330512670,10,34.8,-597.39453125,0.03710000216960907,0,0.0,0.0,,,,,0,,1
Fix,gps,51.513179,-0.078085,54.000000,0.000000,5.000000,1479829131000
Raw,14521172,14525785000000,,,-1163849822619809280,0.0,98.58318662736565,-1.3098177821125863,8.806109164008175,539,2,0.0,15,229148333100062,27,24.0,91.61688995361328,0.6859999895095825,0,0.0,0.0,,,,,0,,1
Raw,14521173,14525785000000,,,-1163849822619809280,0.0,98.58318662736565,-1.3098177821125863,8.806109164008175,539,5,0.0,15,229148330048906,6,39.1,-549.3709106445312,0.03460000082850456,0,0.0,0.0,,,,,0,,1
Raw,14521174,14525785000000,,,-1163849822619809280,0.0,98.58318662736565,-1.3098177821125863,8.806109164008175,539,6,0.0,15,229148330950353,8,36.8,561.3035888671875,0.03620000183582306,0,0.0,0.0,,,,,0,,1
Raw,14521175,14525785000000,,,-1163849822619809280,0.0,98.58318662736565,-1.3098177821125863,8.806109164008175,539,7,0.0,15,229148334707306,11,33.7,-234.2827911376953,0.04390000179409981,0,0.0,0.0,,,,,0,,1
Raw,14521176,14525785000000,,,-1163849822619809280,0.0,98.58318662736565,-1.3098177821125863,8.806109164008175,539,9,0.0,15,229148334861760,16,29.3,371.0089111328125,0.047700002789497375,0,0.0,0.0,,,,,0,,1
Raw,14521177,14525785000000,,,-1163849822619809280,0.0,98.58318662736565,-1.3098177821125863,8.806109164008175,539,16,0.0,15,229148324506535,21,26.9,33.42310333251953,0.11720000207424164,0,0.0,0.0,,,,,0,,1
Raw,14521181,14525785000000,,,-1163849822619809280,0.0,98.58318662736565,-1.3098177821125863,8.806109164008175,539,23,0.0,15,229148325690857,9,35.4,574.9571533203125,0.029100000858306885,0,0.0,0.0,,,,,0,,1
Raw,14521182,14525785000000,,,-1163849822619809280,0.0,98.58318662736565,-1.3098177821125863,8.806109164008175,539,30,0.0,15,229148330514666,10,34.5,-596.55224609375,0.03710000216960907,0,0.0,0.0,,,,,0,,1
Fix,gps,51.513179,-0.078084,55.000000,0.000000,6.000000,1479829132000
Raw,14522160,14526785000000,,,-1163849822619809280,0.0,102.9021805152297,0.9827975587962254,8.770506919035624,539,2,0.0,15,229149333099767,35,22.3,91.00794982910156,0.8059999942779541,0,0.0,0.0,,,,,0,,1
Raw,14522165,14526785000000,,,-1163849822619809280,0.0,102.9021805152297,0.9827975587962254,8.770506919035624,539,5,0.0,15,229149330050733,6,39.2,-550.3936157226562,0.03460000082850456,0,0.0,0.0,,,,,0,,1
Raw,14522168,14526785000000,,,-1163849822619809280,0.0,102.9021805152297,0.9827975587962254,8.770506919035624,539,6,0.0,15,229149330948489,7,37.1,560.4019775390625,0.035599999129772186,0,0.0,0.0,,,,,0,,1
Raw,14522169,14526785000000,,,-1163849822619809280,0.0,102.9021805152297,0.9827975587962254,8.770506919035624,539,7,0.0,15,229149334708099,11,33.5,-235.1456298828125,0.04390000179409981,0,0.0,0.0,,,,,0,,1
Raw,14522171,14526785000000,,,-1163849822619809280,0.0,102.9021805152297,0.9827975587962254,8.770506919035624,539,9,0.0,15,229149334860558,17,28.1,370.0881652832031,0.05430000275373459,0,0.0,0.0,,,,,0,,1
Raw,14522171,14526785000000,,,-1163849822619809280,0.0,102.9021805152297,0.9827975587962254,8.770506919035624,539,16,0.0,15,229149324506463,19,27.5,32.40560531616211,0.047300003468990326,0,0.0,0.0,,,,,0,,1
Raw,14522173,14526785000000,,,-1163849822619809280,0.0,102.9021805152297,0.9827975587962254,8.770506919035624,539,23,0.0,15,229149325688932,9,35.4,574.0173950195312,0.029100000858306885,0,0.0,0.0,,,,,0,,1
Raw,14522174,14526785000000,,,-1163849822619809280,0.0,102.9021805152297,0.9827975587962254,8.770506919035624,539,30,0.0,15,229149330516649,12,32.7,-597.5506591796875,0.03889999911189079,0,0.0,0.0,,,,,0,,1
Fix,gps,51.513178,-0.078082,56.000000,0.000000,6.000000,1479829133000
Fix,gps,51.513178,-0.078079,56.000000,0.000000,6.000000,1479829134000
Raw,14523161,14527785000000,,,-1163849822619809280,0.0,107.37173579400405,-2.3436577245009023,11.692653009974546,539,2,0.0,15,229150333099424,35,22.9,90.18016815185547,0.7459999918937683,0,0.0,0.0,,,,,0,,1
Raw,14523163,14527785000000,,,-1163849822619809280,0.0,107.37173579400405,-2.3436577245009023,11.692653009974546,539,5,0.0,15,229150330052573,6,39.1,-551.2811889648438,0.03460000082850456,0,0.0,0.0,,,,,0,,1
Raw,14523164,14527785000000,,,-1163849822619809280,0.0,107.37173579400405,-2.3436577245009023,11.692653009974546,539,6,0.0,15,229150330946620,7,37.3,559.4597778320312,0.035599999129772186,0,0.0,0.0,,,,,0,,1
Raw,14523165,14527785000000,,,-1163849822619809280,0.0,107.37173579400405,-2.3436577245009023,11.692653009974546,539,7,0.0,15,229150334708896,11,33.5,-236.0543212890625,0.04390000179409981,0,0.0,0.0,,,,,0,,1
Raw,14523167,14527785000000,,,-1163849822619809280,0.0,107.37173579400405,-2.3436577245009023,11.692653009974546,539,9,0.0,15,229150334859342,21,26.0,369.1531066894531,0.13220000267028809,0,0.0,0.0,,,,,0,,1
Raw,14523168,14527785000000,,,-1163849822619809280,0.0,107.37173579400405,-2.3436577245009023,11.692653009974546,539,16,0.0,15,229150324506367,19,27.3,31.567495346069336,0.047300003468990326,0,0.0,0.0,,,,,0,,1
Raw,14523169,14527785000000,,,-1163849822619809280,0.0,107.37173579400405,-2.3436577245009023,11.692653009974546,539,23,0.0,15,229150325686989,10,34.6,573.077880859375,0.029600000008940697,0,0.0,0.0,,,,,0,,1
Raw,14523171,14527785000000,,,-1163849822619809280,0.0,107.37173579400405,-2.3436577245009023,11.692653009974546,539,29,0.0,15,229150323099401,1161,15.3,32.701969146728516,3.701000213623047,0,0.0,0.0,,,,,0,,1
Raw,14523172,14527785000000,,,-1163849822619809280,0.0,107.37173579400405,-2.3436577245009023,11.692653009974546,539,30,0.0,15,229150330518667,12,32.5,-598.4551391601562,0.03889999911189079,0,0.0,0.0,,,,,0,,1
Fix,gps,51.513179,-0.078079,57.000000,0.000000,6.000000,1479829135000
Raw,14524174,14528785000000,,,-1163849822619809280,0.0,106.35277430992573,-5.4966587303226895,8.794482188300652,539,2,0.0,15,229151333099118,31,23.4,90.5512466430664,0.7459999918937683,0,0.0,0.0,,,,,0,,1
Raw,14524176,14528785000000,,,-1163849822619809280,0.0,106.35277430992573,-5.4966587303226895,8.794482188300652,539,5,0.0,15,229151330054419,6,38.7,-550.1063842773438,0.035100001841783524,0,0.0,0.0,,,,,0,,1
Raw,14524177,14528785000000,,,-1163849822619809280,0.0,106.35277430992573,-5.4966587303226895,8.794482188300652,539,6,0.0,15,229151330944741,7,37.0,560.6522827148438,0.035599999129772186,0,0.0,0.0,,,,,0,,1
Raw,14524179,14528785000000,,,-1163849822619809280,0.0,106.35277430992573,-5.4966587303226895,8.794482188300652,539,7,0.0,15,229151334709663,11,33.9,-234.8304901123047,0.04390000179409981,0,0.0,0.0,,,,,0,,1
Raw,14524181,14528785000000,,,-1163849822619809280,0.0,106.35277430992573,-5.4966587303226895,8.794482188300652,539,9,0.0,15,229151334858118,21,26.5,370.4529113769531,0.13220000267028809,0,0.0,0.0,,,,,0,,1
Raw,14524182,14528785000000,,,-1163849822619809280,0.0,106.35277430992573,-5.4966587303226895,8.794482188300652,539,16,0.0,15,229151324506278,19,27.5,32.91718673706055,0.047300003468990326,0,0.0,0.0,,,,,0,,1
Raw,14524184,14528785000000,,,-1163849822619809280,0.0,106.35277430992573,-5.4966587303226895,8.794482188300652,539,23,0.0,15,229151325685080,9,35.3,574.199951171875,0.029100000858306885,0,0.0,0.0,,,,,0,,1
Raw,14524185,14528785000000,,,-1163849822619809280,0.0,106.35277430992573,-5.4966587303226895,8.794482188300652,539,30,0.0,15,229151330520673,10,34.2,-597.266845703125,0.03710000216960907,0,0.0,0.0,,,,,0,,1
Raw,14525161,14529785000000,,,-1163849822619809280,0.0,105.21346121095121,-1.9510003603119757,8.80066548078533,539,2,0.0,15,229152333098825,31,23.9,91.14115905761719,0.6859999895095825,0,0.0,0.0,,,,,0,,1
Raw,14525162,14529785000000,,,-1163849822619809280,0.0,105.21346121095121,-1.9510003603119757,8.80066548078533,539,5,0.0,15,229152330056239,6,39.2,-549.388916015625,0.03460000082850456,0,0.0,0.0,,,,,0,,1
Raw,14525164,14529785000000,,,-1163849822619809280,0.0,105.21346121095121,-1.9510003603119757,8.80066548078533,539,6,0.0,15,229152330942900,7,37.0,561.3677978515625,0.035599999129772186,0,0.0,0.0,,,,,0,,1
Raw,14525165,14529785000000,,,-1163849822619809280,0.0,105.21346121095121,-1.9510003603119757,8.80066548078533,539,7,0.0,15,229152334710431,11,33.6,-234.0398712158203,0.04390000179409981,0,0.0,0.0,,,,,0,,1
Raw,14525167,14529785000000,,,-1163849822619809280,0.0,105.21346121095121,-1.9510003603119757,8.80066548078533,539,9,0.0,15,229152334856830,17,28.0,370.9913330078125,0.05430000275373459,0,0.0,0.0,,,,,0,,1
Raw,14525168,14529785000000,,,-1163849822619809280,0.0,105.21346121095121,-1.9510003603119757,8.80066548078533,539,16,0.0,15,229152324506146,21,26.7,33.603389739990234,0.11720000207424164,0,0.0,0.0,,,,,0,,1
Raw,14525169,14529785000000,,,-1163849822619809280,0.0,105.21346121095121,-1.9510003603119757,8.80066548078533,539,23,0.0,15,229152325683213,10,34.5,574.9024658203125,0.029600000008940697,0,0.0,0.0,,,,,0,,1
Raw,14525171,14529785000000,,,-1163849822619809280,0.0,105.21346121095121,-1.9510003603119757,8.80066548078533,539,30,0.0,15,229152330522675,10,34.8,-596.6904296875,0.03710000216960907,0,0.0,0.0,,,,,0,,1
Fix,gps,51.513177,-0.078080,57.000000,0.000000,6.000000,1479829136000
Fix,gps,51.513176,-0.078082,57.000000,0.000000,6.000000,1479829137000
Raw,14526188,14530785000000,,,-1163849822619809280,0.0,101.30407463293523,0.05050428740984151,8.770057586527091,539,2,0.0,15,229153333098514,35,22.3,92.568359375,0.8059999942779541,0,0.0,0.0,,,,,0,,1
Raw,14526190,14530785000000,,,-1163849822619809280,0.0,101.30407463293523,0.05050428740984151,8.770057586527091,539,5,0.0,15,229153330058074,6,39.9,-548.777587890625,0.03460000082850456,0,0.0,0.0,,,,,0,,1
Raw,14526191,14530785000000,,,-1163849822619809280,0.0,101.30407463293523,0.05050428740984151,8.770057586527091,539,6,0.0,15,229153330941030,7,37.5,562.1318359375,0.035599999129772186,0,0.0,0.0,,,,,0,,1
Raw,14526192,14530785000000,,,-1163849822619809280,0.0,101.30407463293523,0.05050428740984151,8.770057586527091,539,7,0.0,15,229153334711183,13,31.2,-233.296142578125,0.04619999974966049,0,0.0,0.0,,,,,0,,1
Raw,14526193,14530785000000,,,-1163849822619809280,0.0,101.30407463293523,0.05050428740984151,8.770057586527091,539,9,0.0,15,229153334855590,19,27.7,371.6452941894531,0.062300004065036774,0,0.0,0.0,,,,,0,,1
Raw,14526194,14530785000000,,,-1163849822619809280,0.0,101.30407463293523,0.05050428740984151,8.770057586527091,539,16,0.0,15,229153324506009,27,24.0,34.23383331298828,0.67249995470047,0,0.0,0.0,,,,,0,,1
Raw,14526195,14530785000000,,,-1163849822619809280,0.0,101.30407463293523,0.05050428740984151,8.770057586527091,539,23,0.0,15,229153325681281,9,35.2,575.4951782226562,0.029100000858306885,0,0.0,0.0,,,,,0,,1
Raw,14526196,14530785000000,,,-1163849822619809280,0.0,101.30407463293523,0.05050428740984151,8.770057586527091,539,30,0.0,15,229153330524666,9,35.3,-595.851806640625,0.03660000115633011,0,0.0,0.0,,,,,0,,1
Raw,14527156,14531785000000,,,-1163849822619809280,0.0,101.63224214920774,2.064820261117239,8.79735234940383,539,2,0.0,15,229154333098230,31,23.8,92.41612243652344,0.6859999895095825,0,0.0,0.0,,,,,0,,1
Raw,14527195,14531785000000,,,-1163849822619809280,0.0,101.63224214920774,2.064820261117239,8.79735234940383,539,5,0.0,15,229154330059907,5,40.1,-548.7188720703125,0.03440000116825104,0,0.0,0.0,,,,,0,,1
Raw,14527196,14531785000000,,,-1163849822619809280,0.0,101.63224214920774,2.064820261117239,8.79735234940383,539,6,0.0,15,229154330939152,7,37.8,562.1356201171875,0.035599999129772186,0,0.0,0.0,,,,,0,,1
Raw,14527198,14531785000000,,,-1163849822619809280,0.0,101.63224214920774,2.064820261117239,8.79735234940383,539,7,0.0,15,229154334711998,12,32.4,-233.21385192871094,0.04490000009536743,0,0.0,0.0,,,,,0,,1
Raw,14527199,14531785000000,,,-1163849822619809280,0.0,101.63224214920774,2.064820261117239,8.79735234940383,539,9,0.0,15,229154334854380,16,29.2,371.7753601074219,0.047700002789497375,0,0.0,0.0,,,,,0,,1
Raw,14527201,14531785000000,,,-1163849822619809280,0.0,101.63224214920774,2.064820261117239,8.79735234940383,539,16,0.0,15,229154324505920,24,25.1,34.40543746948242,0.387800008058548,0,0.0,0.0,,,,,0,,1
Raw,14527202,14531785000000,,,-1163849822619809280,0.0,101.63224214920774,2.064820261117239,8.79735234940383,539,23,0.0,15,229154325679338,9,35.3,575.5228271484375,0.029100000858306885,0,0.0,0.0,,,,,0,,1
Raw,14527204,14531785000000,,,-1163849822619809280,0.0,101.63224214920774,2.064820261117239,8.79735234940383,539,30,0.0,15,229154330526650,9,35.2,-595.7863159179688,0.03660000115633011,0,0.0,0.0,,,,,0,,1
Fix,gps,51.513174,-0.078083,57.000000,0.000000,6.000000,1479829138000
Fix,gps,51.513174,-0.078084,57.000000,0.000000,5.000000,1479829139000
Raw,14528167,14532785000000,,,-1163849822619809280,0.0,98.94685354083776,2.1630888830939954,8.76807575181689,539,2,0.0,15,229155333097873,35,22.9,92.21631622314453,0.7459999918937683,0,0.0,0.0,,,,,0,,1
Raw,14528171,14532785000000,,,-1163849822619809280,0.0,98.94685354083776,2.1630888830939954,8.76807575181689,539,5,0.0,15,229155330061753,6,39.4,-548.8623046875,0.03460000082850456,0,0.0,0.0,,,,,0,,1
Raw,14528172,14532785000000,,,-1163849822619809280,0.0,98.94685354083776,2.1630888830939954,8.76807575181689,539,6,0.0,15,229155330937259,7,37.3,562.0592651367188,0.035599999129772186,0,0.0,0.0,,,,,0,,1
Raw,14528174,14532785000000,,,-1163849822619809280,0.0,98.94685354083776,2.1630888830939954,8.76807575181689,539,7,0.0,15,229155334712786,12,32.3,-233.32284545898438,0.04490000009536743,0,0.0,0.0,,,,,0,,1
Raw,14528175,14532785000000,,,-1163849822619809280,0.0,98.94685354083776,2.1630888830939954,8.76807575181689,539,9,0.0,15,229155334853193,16,29.4,371.69537353515625,0.047700002789497375,0,0.0,0.0,,,,,0,,1
Raw,14528177,14532785000000,,,-1163849822619809280,0.0,98.94685354083776,2.1630888830939954,8.76807575181689,539,16,0.0,15,229155324505770,21,26.8,34.50686264038086,0.11720000207424164,0,0.0,0.0,,,,,0,,1
Raw,14528178,14532785000000,,,-1163849822619809280,0.0,98.94685354083776,2.1630888830939954,8.76807575181689,539,23,0.0,15,229155325677422,9,35.2,575.3560791015625,0.029100000858306885,0,0.0,0.0,,,,,0,,1
Raw,14528179,14532785000000,,,-1163849822619809280,0.0,98.94685354083776,2.1630888830939954,8.76807575181689,539,30,0.0,15,229155330528642,9,35.8,-595.9051513671875,0.03660000115633011,0,0.0,0.0,,,,,0,,1
Fix,gps,51.513175,-0.078085,55.000000,0.000000,5.000000,1479829140000
Raw,14529170,14533785000000,,,-1163849822619809280,0.0,98.01783016882837,1.668360072640388,8.794732701115144,539,2,0.0,15,229156333097587,46,20.9,92.00698852539062,0.8659999966621399,0,0.0,0.0,,,,,0,,1
Raw,14529171,14533785000000,,,-1163849822619809280,0.0,98.01783016882837,1.668360072640388,8.794732701115144,539,5,0.0,15,229156330063581,6,38.8,-549.4005126953125,0.035100001841783524,0,0.0,0.0,,,,,0,,1
Raw,14529172,14533785000000,,,-1163849822619809280,0.0,98.01783016882837,1.668360072640388,8.794732701115144,539,6,0.0,15,229156330935391,8,36.7,561.4780883789062,0.03620000183582306,0,0.0,0.0,,,,,0,,1
Raw,14529174,14533785000000,,,-1163849822619809280,0.0,98.01783016882837,1.668360072640388,8.794732701115144,539,7,0.0,15,229156334713559,13,31.2,-233.84669494628906,0.04619999974966049,0,0.0,0.0,,,,,0,,1
Raw,14529175,14533785000000,,,-1163849822619809280,0.0,98.01783016882837,1.668360072640388,8.794732701115144,539,9,0.0,15,229156334851957,14,30.3,371.0431213378906,0.046800002455711365,0,0.0,0.0,,,,,0,,1
Raw,14529176,14533785000000,,,-1163849822619809280,0.0,98.01783016882837,1.668360072640388,8.794732701115144,539,16,0.0,15,229156324505685,21,26.0,33.936729431152344,0.11720000207424164,0,0.0,0.0,,,,,0,,1
Raw,14529177,14533785000000,,,-1163849822619809280,0.0,98.01783016882837,1.668360072640388,8.794732701115144,539,23,0.0,15,229156325675505,9,35.3,574.7781372070312,0.029100000858306885,0,0.0,0.0,,,,,0,,1
Raw,14529179,14533785000000,,,-1163849822619809280,0.0,98.01783016882837,1.668360072640388,8.794732701115144,539,30,0.0,15,229156330530625,8,36.1,-596.4913330078125,0.03620000183582306,0,0.0,0.0,,,,,0,,1
Fix,gps,51.513175,-0.078086,56.000000,0.000000,5.000000,1479829141000
Raw,14530172,14534785000000,,,-1163849822619809280,0.0,93.7041113502346,-0.2708724979157592,6.838942575554024,539,2,0.0,15,229157333097280,54,20.9,92.00698852539062,2.365999937057495,0,0.0,0.0,,,,,0,,1
Raw,14530174,14534785000000,,,-1163849822619809280,0.0,93.7041113502346,-0.2708724979157592,6.838942575554024,539,5,0.0,15,229157330065427,6,39.0,-550.5118408203125,0.03460000082850456,0,0.0,0.0,,,,,0,,1
Raw,14530175,14534785000000,,,-1163849822619809280,0.0,93.7041113502346,-0.2708724979157592,6.838942575554024,539,6,0.0,15,229157330933510,7,37.8,560.4208374023438,0.035599999129772186,0,0.0,0.0,,,,,0,,1
Raw,14530177,14534785000000,,,-1163849822619809280,0.0,93.7041113502346,-0.2708724979157592,6.838942575554024,539,7,0.0,15,229157334714386,16,29.9,-234.8267364501953,0.047700002789497375,0,0.0,0.0,,,,,0,,1
Raw,14530178,14534785000000,,,-1163849822619809280,0.0,93.7041113502346,-0.2708724979157592,6.838942575554024,539,9,0.0,15,229157334850660,14,30.1,370.0372009277344,0.046800002455711365,0,0.0,0.0,,,,,0,,1
Raw,14530180,14534785000000,,,-1163849822619809280,0.0,93.7041113502346,-0.2708724979157592,6.838942575554024,539,16,0.0,15,229157324505577,24,25.1,32.933990478515625,0.387800008058548,0,0.0,0.0,,,,,0,,1
Raw,14530181,14534785000000,,,-1163849822619809280,0.0,93.7041113502346,-0.2708724979157592,6.838942575554024,539,23,0.0,15,229157325673593,10,34.5,573.6552734375,0.029600000008940697,0,0.0,0.0,,,,,0,,1
Raw,14530183,14534785000000,,,-1163849822619809280,0.0,93.7041113502346,-0.2708724979157592,6.838942575554024,539,30,0.0,15,229157330532618,8,36.7,-597.5454711914062,0.03620000183582306,0,0.0,0.0,,,,,0,,1
Raw,14531142,14535785000000,,,-1163849822619809280,0.0,92.01697685057297,-4.021754594017565,8.629754504836164,539,2,0.0,15,229158333096974,72,20.9,92.00698852539062,3.866000175476074,0,0.0,0.0,,,,,0,,1
Raw,14531144,14535785000000,,,-1163849822619809280,0.0,92.01697685057297,-4.021754594017565,8.629754504836164,539,5,0.0,15,229158330067255,6,38.4,-549.7308349609375,0.035100001841783524,0,0.0,0.0,,,,,0,,1
Raw,14531146,14535785000000,,,-1163849822619809280,0.0,92.01697685057297,-4.021754594017565,8.629754504836164,539,6,0.0,15,229158330931639,7,37.7,561.2335815429688,0.035599999129772186,0,0.0,0.0,,,,,0,,1
Raw,14531147,14535785000000,,,-1163849822619809280,0.0,92.01697685057297,-4.021754594017565,8.629754504836164,539,7,0.0,15,229158334715149,16,29.6,-234.01644897460938,0.047700002789497375,0,0.0,0.0,,,,,0,,1
Raw,14531148,14535785000000,,,-1163849822619809280,0.0,92.01697685057297,-4.021754594017565,8.629754504836164,539,9,0.0,15,229158334849451,13,31.0,370.8734436035156,0.04619999974966049,0,0.0,0.0,,,,,0,,1
Raw,14531149,14535785000000,,,-1163849822619809280,0.0,92.01697685057297,-4.021754594017565,8.629754504836164,539,16,0.0,15,229158324505514,27,24.0,33.24430465698242,0.67249995470047,0,0.0,0.0,,,,,0,,1
Raw,14531149,14535785000000,,,-1163849822619809280,0.0,92.01697685057297,-4.021754594017565,8.629754504836164,539,23,0.0,15,229158325671663,11,33.5,574.3658447265625,0.030400000512599945,0,0.0,0.0,,,,,0,,1
Raw,14531151,14535785000000,,,-1163849822619809280,0.0,92.01697685057297,-4.021754594017565,8.629754504836164,539,30,0.0,15,229158330534607,7,37.6,-596.7854614257812,0.035599999129772186,0,0.0,0.0,,,,,0,,1
Fix,gps,51.513175,-0.078087,56.000000,0.000000,5.000000,1479829142000
Raw,14532199,14536785000000,,,-1163849822619809280,0.0,90.90204548556358,-1.989822887868912,8.764372138556292,539,2,0.0,15,229159333096667,100,20.9,92.00698852539062,5.366000175476074,0,0.0,0.0,,,,,0,,1
Raw,14532200,14536785000000,,,-1163849822619809280,0.0,90.90204548556358,-1.989822887868912,8.764372138556292,539,5,0.0,15,229159330069098,7,37.4,-549.1608276367188,0.035599999129772186,0,0.0,0.0,,,,,0,,1
Raw,14532201,14536785000000,,,-1163849822619809280,0.0,90.90204548556358,-1.989822887868912,8.764372138556292,539,6,0.0,15,229159330929781,6,38.1,561.830810546875,0.035100001841783524,0,0.0,0.0,,,,,0,,1
Raw,14532201,14536785000000,,,-1163849822619809280,0.0,90.90204548556358,-1.989822887868912,8.764372138556292,539,7,0.0,15,229159334716002,16,29.8,-233.3569793701172,0.047700002789497375,0,0.0,0.0,,,,,0,,1
Raw,14532202,14536785000000,,,-1163849822619809280,0.0,90.90204548556358,-1.989822887868912,8.764372138556292,539,9,0.0,15,229159334848224,13,31.6,371.46990966796875,0.04619999974966049,0,0.0,0.0,,,,,0,,1
