# 
# Header Description:
# 
# Version: 1.4.0.0, Platform: N
# 
# Raw,ElapsedRealtimeMillis,TimeNanos,LeapSecond,TimeUncertaintyNanos,FullBiasNanos,BiasNanos,BiasUncertaintyNanos,DriftNanosPerSecond,DriftUncertaintyNanosPerSecond,HardwareClockDiscontinuityCount, Svid,TimeOffsetNanos,State,ReceivedSvTimeNanos,ReceivedSvTimeUncertaintyNanos,Cn0DbHz,PseudorangeRateMetersPerSecond,PseudorangeRateUncertaintyMetersPerSecond,AccumulatedDeltaRangeState,AccumulatedDeltaRangeMeters,AccumulatedDeltaRangeUncertaintyMeters,CarrierFrequencyHz,CarrierCycles,CarrierPhase,CarrierPhaseUncertainty,MultipathIndicator,SnrInDb,ConstellationType
# 
# Fix,Provider,Latitude,Longitude,Altitude,Speed,Accuracy,(UTC)TimeInMs
# 
# Nav,Svid,Type,Status,MessageId,Sub-messageId,Data(Bytes)
# 
Raw,112779215,112752776000000,,,-1163522537620623104,0.0,120.46149640809745,2.9336108297761085,13.812567202409046,61,2,0.0,15,90316865355,170,15.0,-394.7356872558594,6.630500316619873,0,0.0,0.0,,,,,0,,1
Raw,112779216,112752776000000,,,-1163522537620623104,0.0,120.46149640809745,2.9336108297761085,13.812567202409046,61,12,0.0,15,90329381653,46,20.5,204.10897827148438,0.8600000143051147,0,0.0,0.0,,,,,0,,1
Raw,112779216,112752776000000,,,-1163522537620623104,0.0,120.46149640809745,2.9336108297761085,13.812567202409046,61,19,0.0,15,90315815705,257,14.1,672.8023071289062,8.999000549316406,0,0.0,0.0,,,,,0,,1
Raw,112779217,112752776000000,,,-1163522537620623104,0.0,120.46149640809745,2.9336108297761085,13.812567202409046,61,24,0.0,15,90322745454,31,23.4,547.3416748046875,0.7294999957084656,0,0.0,0.0,,,,,0,,1
Raw,112779217,112752776000000,,,-1163522537620623104,0.0,120.46149640809745,2.9336108297761085,13.812567202409046,61,25,0.0,15,90327440313,1483,12.3,-302.74774169921875,25.45199966430664,0,0.0,0.0,,,,,0,,1
Raw,112779218,112752776000000,,,-1163522537620623104,0.0,120.46149640809745,2.9336108297761085,13.812567202409046,61,29,0.0,15,90318804794,84,16.7,-716.4747314453125,1.9284999370574951,0,0.0,0.0,,,,,0,,1
Raw,112779219,112752776000000,,,-1163522537620623104,0.0,120.46149640809745,2.9336108297761085,13.812567202409046,61,31,0.0,15,90315529374,273,13.8,-633.5256958007812,8.999000549316406,0,0.0,0.0,,,,,0,,1
Raw,112779219,112752776000000,,,-1163522537620623104,0.0,120.46149640809745,2.9336108297761085,13.812567202409046,61,32,0.0,15,90324326617,135,14.6,38.686702728271484,4.362500190734863,0,0.0,0.0,,,,,0,,1
Fix,gps,51.519504,-0.139173,82.000000,0.000000,13.000000,1479600074000
Raw,112780248,112753776000000,,,-1163522537620623104,0.0,120.59776781825349,3.5942894683534745,14.60710636931163,61,2,0.0,15,91316866672,215,15.0,-394.7356872558594,8.130499839782715,0,0.0,0.0,,,,,0,,1
Raw,112780250,112753776000000,,,-1163522537620623104,0.0,120.59776781825349,3.5942894683534745,14.60710636931163,61,12,0.0,15,91329380985,46,20.3,203.5286102294922,0.9299999475479126,0,0.0,0.0,,,,,0,,1
Raw,112780251,112753776000000,,,-1163522537620623104,0.0,120.59776781825349,3.5942894683534745,14.60710636931163,61,19,0.0,15,91315813567,111,15.1,670.109619140625,3.629000186920166,0,0.0,0.0,,,,,0,,1
Raw,112780253,112753776000000,,,-1163522537620623104,0.0,120.59776781825349,3.5942894683534745,14.60710636931163,61,24,0.0,15,91322743617,27,24.2,545.6671142578125,0.6694999933242798,0,0.0,0.0,,,,,0,,1
Raw,112780254,112753776000000,,,-1163522537620623104,0.0,120.59776781825349,3.5942894683534745,14.60710636931163,61,25,0.0,15,91327441323,1652,12.3,-302.74774169921875,26.95199966430664,0,0.0,0.0,,,,,0,,1
Raw,112780255,112753776000000,,,-1163522537620623104,0.0,120.59776781825349,3.5942894683534745,14.60710636931163,61,29,0.0,15,91318807219,53,19.0,-716.27490234375,1.0084999799728394,0,0.0,0.0,,,,,0,,1
Raw,112780257,112753776000000,,,-1163522537620623104,0.0,120.59776781825349,3.5942894683534745,14.60710636931163,61,31,0.0,15,91315531487,333,13.8,-633.5256958007812,10.499000549316406,0,0.0,0.0,,,,,0,,1
Raw,112780258,112753776000000,,,-1163522537620623104,0.0,120.59776781825349,3.5942894683534745,14.60710636931163,61,32,0.0,15,91324326488,165,14.6,38.686702728271484,5.862500190734863,0,0.0,0.0,,,,,0,,1
Fix,gps,51.519523,-0.139163,80.000000,0.000000,12.000000,1479600075000
Raw,112781249,112754776000000,,,-1163522537620623104,0.0,111.26862955279648,1.0200677021820888,14.550038754891624,61,2,0.0,15,92316867956,125,14.6,-396.9906311035156,3.630500316619873,0,0.0,0.0,,,,,0,,1
Raw,112781252,112754776000000,,,-1163522537620623104,0.0,111.26862955279648,1.0200677021820888,14.550038754891624,61,12,0.0,15,92329380285,46,20.6,204.57522583007812,0.8600000143051147,0,0.0,0.0,,,,,0,,1
Raw,112781253,112754776000000,,,-1163522537620623104,0.0,111.26862955279648,1.0200677021820888,14.550038754891624,61,19,0.0,15,92315811332,136,15.1,670.109619140625,5.129000186920166,0,0.0,0.0,,,,,0,,1
Raw,112781255,112754776000000,,,-1163522537620623104,0.0,111.26862955279648,1.0200677021820888,14.550038754891624,61,24,0.0,15,92322741798,27,24.7,547.4749145507812,0.6195000410079956,0,0.0,0.0,,,,,0,,1
Raw,112781256,112754776000000,,,-1163522537620623104,0.0,111.26862955279648,1.0200677021820888,14.550038754891624,61,25,0.0,15,92327442333,1831,12.3,-302.74774169921875,28.45199966430664,0,0.0,0.0,,,,,0,,1
Raw,112781259,112754776000000,,,-1163522537620623104,0.0,111.26862955279648,1.0200677021820888,14.550038754891624,61,29,0.0,15,92318809608,61,19.0,-716.27490234375,2.508500099182129,0,0.0,0.0,,,,,0,,1
Raw,112781261,112754776000000,,,-1163522537620623104,0.0,111.26862955279648,1.0200677021820888,14.550038754891624,61,31,0.0,15,92315533600,403,13.8,-633.5256958007812,11.999000549316406,0,0.0,0.0,,,,,0,,1
Raw,112781262,112754776000000,,,-1163522537620623104,0.0,111.26862955279648,1.0200677021820888,14.550038754891624,61,32,0.0,15,92324326225,90,16.1,38.86748123168945,2.762500047683716,0,0.0,0.0,,,,,0,,1
Fix,gps,51.519523,-0.139162,80.000000,0.000000,12.000000,1479600076000
Raw,112782257,112755776000000,,,-1163522537620623104,0.0,112.06325143575668,3.691810130641248,13.93823238294589,61,2,0.0,15,93316869280,149,14.6,-396.9906311035156,5.130500316619873,0,0.0,0.0,,,,,0,,1
Raw,112782258,112755776000000,,,-1163522537620623104,0.0,112.06325143575668,3.691810130641248,13.93823238294589,61,12,0.0,15,93329379536,46,20.4,206.63037109375,0.9299999475479126,0,0.0,0.0,,,,,0,,1
Raw,112782260,112755776000000,,,-1163522537620623104,0.0,112.06325143575668,3.691810130641248,13.93823238294589,61,14,0.0,15,93320722830,1698,13.0,-360.78729248046875,9.846500396728516,0,0.0,0.0,,,,,0,,1
Raw,112782261,112755776000000,,,-1163522537620623104,0.0,112.06325143575668,3.691810130641248,13.93823238294589,61,19,0.0,15,93315809097,170,15.1,670.109619140625,6.629000186920166,0,0.0,0.0,,,,,0,,1
Raw,112782263,112755776000000,,,-1163522537620623104,0.0,112.06325143575668,3.691810130641248,13.93823238294589,61,24,0.0,15,93322740008,31,23.6,548.87353515625,0.6694999933242798,0,0.0,0.0,,,,,0,,1
Raw,112782264,112755776000000,,,-1163522537620623104,0.0,112.06325143575668,3.691810130641248,13.93823238294589,61,25,0.0,15,93327443342,2020,12.3,-302.74774169921875,29.95199966430664,0,0.0,0.0,,,,,0,,1
Raw,112782265,112755776000000,,,-1163522537620623104,0.0,112.06325143575668,3.691810130641248,13.93823238294589,61,29,0.0,15,93318812024,64,18.0,-713.506103515625,1.8385000228881836,0,0.0,0.0,,,,,0,,1
Raw,112782266,112755776000000,,,-1163522537620623104,0.0,112.06325143575668,3.691810130641248,13.93823238294589,61,31,0.0,15,93315535713,483,13.8,-633.5256958007812,13.499000549316406,0,0.0,0.0,,,,,0,,1
Raw,112782267,112755776000000,,,-1163522537620623104,0.0,112.06325143575668,3.691810130641248,13.93823238294589,61,32,0.0,15,93324326095,109,16.1,38.86748123168945,4.262499809265137,0,0.0,0.0,,,,,0,,1
Fix,gps,51.519525,-0.139159,80.000000,0.000000,12.000000,1479600077000
Fix,gps,51.519538,-0.139159,80.000000,0.000000,12.000000,1479600078000
Raw,112783300,112756776000000,,,-1163522537620623104,0.0,110.66784645663574,7.061296954418162,13.271508830390898,61,2,0.0,15,94316870604,184,14.6,-396.9906311035156,6.630500316619873,0,0.0,0.0,,,,,0,,1
Raw,112783302,112756776000000,,,-1163522537620623104,0.0,110.66784645663574,7.061296954418162,13.271508830390898,61,12,0.0,15,94329378970,61,18.8,206.41156005859375,1.0099999904632568,0,0.0,0.0,,,,,0,,1
Raw,112783304,112756776000000,,,-1163522537620623104,0.0,110.66784645663574,7.061296954418162,13.271508830390898,61,14,0.0,15,94320724029,53,19.0,-359.3030090332031,1.1735000610351562,0,0.0,0.0,,,,,0,,1
Raw,112783305,112756776000000,,,-1163522537620623104,0.0,110.66784645663574,7.061296954418162,13.271508830390898,61,19,0.0,15,94315806862,215,15.1,670.109619140625,8.129000663757324,0,0.0,0.0,,,,,0,,1
Raw,112783306,112756776000000,,,-1163522537620623104,0.0,110.66784645663574,7.061296954418162,13.271508830390898,61,24,0.0,15,94322738036,40,21.9,548.902099609375,0.7894999980926514,0,0.0,0.0,,,,,0,,1
Raw,112783307,112756776000000,,,-1163522537620623104,0.0,110.66784645663574,7.061296954418162,13.271508830390898,61,25,0.0,15,94327444352,2219,12.3,-302.74774169921875,31.45199966430664,0,0.0,0.0,,,,,0,,1
Raw,112783308,112756776000000,,,-1163522537620623104,0.0,110.66784645663574,7.061296954418162,13.271508830390898,61,29,0.0,15,94318814451,53,19.4,-714.1436157226562,1.0084999799728394,0,0.0,0.0,,,,,0,,1
Raw,112783309,112756776000000,,,-1163522537620623104,0.0,110.66784645663574,7.061296954418162,13.271508830390898,61,31,0.0,15,94315537827,573,13.8,-633.5256958007812,14.999000549316406,0,0.0,0.0,,,,,0,,1
Raw,112783311,112756776000000,,,-1163522537620623104,0.0,110.66784645663574,7.061296954418162,13.271508830390898,61,32,0.0,15,94324326072,96,15.2,39.90458297729492,2.1125001907348633,0,0.0,0.0,,,,,0,,1
Fix,gps,51.519536,-0.139160,80.000000,0.000000,12.000000,1479600079000
Raw,112784271,112757776000000,,,-1163522537620623104,0.0,105.69170990493149,8.049631244054044,12.226052847378229,61,2,0.0,15,95316872017,79,17.5,-394.6119689941406,2.6005001068115234,0,0.0,0.0,,,,,0,,1
Raw,112784272,112757776000000,,,-1163522537620623104,0.0,105.69170990493149,8.049631244054044,12.226052847378229,61,12,0.0,15,95329378226,61,18.1,206.81117248535156,1.0899999141693115,0,0.0,0.0,,,,,0,,1
Raw,112784273,112757776000000,,,-1163522537620623104,0.0,105.69170990493149,8.049631244054044,12.226052847378229,61,14,0.0,15,95320725227,59,19.0,-359.3030090332031,2.2864999771118164,0,0.0,0.0,,,,,0,,1
Raw,112784274,112757776000000,,,-1163522537620623104,0.0,105.69170990493149,8.049631244054044,12.226052847378229,61,19,0.0,15,95315804497,125,14.7,673.1734008789062,3.629000186920166,0,0.0,0.0,,,,,0,,1
Raw,112784274,112757776000000,,,-1163522537620623104,0.0,105.69170990493149,8.049631244054044,12.226052847378229,61,24,0.0,15,95322736290,27,24.5,549.5966796875,0.6195000410079956,0,0.0,0.0,,,,,0,,1
Raw,112784275,112757776000000,,,-1163522537620623104,0.0,105.69170990493149,8.049631244054044,12.226052847378229,61,25,0.0,15,95327445362,2429,12.3,-302.74774169921875,32.95199966430664,0,0.0,0.0,,,,,0,,1
Raw,112784276,112757776000000,,,-1163522537620623104,0.0,105.69170990493149,8.049631244054044,12.226052847378229,61,29,0.0,15,95318816870,53,19.5,-712.4880981445312,0.9284999966621399,0,0.0,0.0,,,,,0,,1
Raw,112784276,112757776000000,,,-1163522537620623104,0.0,105.69170990493149,8.049631244054044,12.226052847378229,61,31,0.0,15,95315539940,673,13.8,-633.5256958007812,16.499000549316406,0,0.0,0.0,,,,,0,,1
Raw,112784277,112757776000000,,,-1163522537620623104,0.0,105.69170990493149,8.049631244054044,12.226052847378229,61,32,0.0,15,95324325939,111,15.2,39.90458297729492,3.6125001907348633,0,0.0,0.0,,,,,0,,1
Raw,112785223,112758776000000,,,-1163522537620623104,0.0,100.65830429084599,10.368301508227555,12.817094490478311,61,2,0.0,15,96316873334,98,17.5,-394.6119689941406,4.100500106811523,0,0.0,0.0,,,,,0,,1
Raw,112785223,112758776000000,,,-1163522537620623104,0.0,100.65830429084599,10.368301508227555,12.817094490478311,61,12,0.0,15,96329377628,53,19.8,205.9833984375,0.9299999475479126,0,0.0,0.0,,,,,0,,1
Raw,112785224,112758776000000,,,-1163522537620623104,0.0,100.65830429084599,10.368301508227555,12.817094490478311,61,14,0.0,15,96320726426,76,19.0,-359.3030090332031,3.7865002155303955,0,0.0,0.0,,,,,0,,1
Raw,112785224,112758776000000,,,-1163522537620623104,0.0,100.65830429084599,10.368301508227555,12.817094490478311,61,19,0.0,15,96315802251,149,14.7,673.1734008789062,5.129000186920166,0,0.0,0.0,,,,,0,,1
Raw,112785225,112758776000000,,,-1163522537620623104,0.0,100.65830429084599,10.368301508227555,12.817094490478311,61,24,0.0,15,96322734415,40,21.1,548.1028442382812,0.8495000004768372,0,0.0,0.0,,,,,0,,1
Raw,112785226,112758776000000,,,-1163522537620623104,0.0,100.65830429084599,10.368301508227555,12.817094490478311,61,25,0.0,15,96327446372,2648,12.3,-302.74774169921875,34.45199966430664,0,0.0,0.0,,,,,0,,1
Raw,112785226,112758776000000,,,-1163522537620623104,0.0,100.65830429084599,10.368301508227555,12.817094490478311,61,29,0.0,15,96318819247,61,19.5,-712.4880981445312,2.428500175476074,0,0.0,0.0,,,,,0,,1
Raw,112785227,112758776000000,,,-1163522537620623104,0.0,100.65830429084599,10.368301508227555,12.817094490478311,61,31,0.0,15,96315542053,784,13.8,-633.5256958007812,17.999000549316406,0,0.0,0.0,,,,,0,,1
Raw,112785227,112758776000000,,,-1163522537620623104,0.0,100.65830429084599,10.368301508227555,12.817094490478311,61,32,0.0,15,96324325806,135,15.2,39.90458297729492,5.112500190734863,0,0.0,0.0,,,,,0,,1
Fix,gps,51.519538,-0.139158,80.000000,0.000000,12.000000,1479600080000
Fix,gps,51.519543,-0.139158,80.000000,0.000000,12.000000,1479600081000
Raw,112786269,112759776000000,,,-1163522537620623104,0.0,101.87318548560143,7.444666655419653,15.354032195885251,61,2,0.0,15,97316874650,126,17.5,-394.6119689941406,5.600500106811523,0,0.0,0.0,,,,,0,,1
Raw,112786272,112759776000000,,,-1163522537620623104,0.0,101.87318548560143,7.444666655419653,15.354032195885251,61,12,0.0,15,97329376747,61,18.2,206.16416931152344,1.0899999141693115,0,0.0,0.0,,,,,0,,1
Raw,112786273,112759776000000,,,-1163522537620623104,0.0,101.87318548560143,7.444666655419653,15.354032195885251,61,14,0.0,15,97320727657,102,15.4,-359.4742736816406,2.8565001487731934,0,0.0,0.0,,,,,0,,1
Raw,112786274,112759776000000,,,-1163522537620623104,0.0,101.87318548560143,7.444666655419653,15.354032195885251,61,19,0.0,15,97315800006,184,14.7,673.1734008789062,6.629000186920166,0,0.0,0.0,,,,,0,,1
Raw,112786276,112759776000000,,,-1163522537620623104,0.0,101.87318548560143,7.444666655419653,15.354032195885251,61,24,0.0,15,97322732651,24,25.7,547.6031494140625,0.384799987077713,0,0.0,0.0,,,,,0,,1
Raw,112786277,112759776000000,,,-1163522537620623104,0.0,101.87318548560143,7.444666655419653,15.354032195885251,61,25,0.0,15,97327447382,2877,12.3,-302.74774169921875,35.95199966430664,0,0.0,0.0,,,,,0,,1
Raw,112786278,112759776000000,,,-1163522537620623104,0.0,101.87318548560143,7.444666655419653,15.354032195885251,61,29,0.0,15,97318821558,84,16.9,-714.4766235351562,1.9284999370574951,0,0.0,0.0,,,,,0,,1
Raw,112786279,112759776000000,,,-1163522537620623104,0.0,101.87318548560143,7.444666655419653,15.354032195885251,61,31,0.0,15,97315544166,904,13.8,-633.5256958007812,19.499000549316406,0,0.0,0.0,,,,,0,,1
Raw,112786281,112759776000000,,,-1163522537620623104,0.0,101.87318548560143,7.444666655419653,15.354032195885251,61,32,0.0,15,97324325673,170,15.2,39.90458297729492,6.612500190734863,0,0.0,0.0,,,,,0,,1
Fix,gps,51.519544,-0.139158,80.000000,0.000000,12.000000,1479600082000
Raw,112787268,112760776000000,,,-1163522537620623104,0.0,102.09160973317921,5.761084151724702,13.2144809799097,61,2,0.0,15,98316876052,102,15.2,-395.0591735839844,2.880500078201294,0,0.0,0.0,,,,,0,,1
Raw,112787269,112760776000000,,,-1163522537620623104,0.0,102.09160973317921,5.761084151724702,13.2144809799097,61,12,0.0,15,98329376132,61,18.7,206.11659240722656,1.0099999904632568,0,0.0,0.0,,,,,0,,1
Raw,112787270,112760776000000,,,-1163522537620623104,0.0,102.09160973317921,5.761084151724702,13.2144809799097,61,14,0.0,15,98320728856,122,15.4,-359.4742736816406,4.356500148773193,0,0.0,0.0,,,,,0,,1
Raw,112787271,112760776000000,,,-1163522537620623104,0.0,102.09160973317921,5.761084151724702,13.2144809799097,61,19,0.0,15,98315797760,229,14.7,673.1734008789062,8.129000663757324,0,0.0,0.0,,,,,0,,1
Raw,112787271,112760776000000,,,-1163522537620623104,0.0,102.09160973317921,5.761084151724702,13.2144809799097,61,24,0.0,15,98322730770,21,26.2,548.709228515625,0.11420000344514847,0,0.0,0.0,,,,,0,,1
Raw,112787273,112760776000000,,,-1163522537620623104,0.0,102.09160973317921,5.761084151724702,13.2144809799097,61,25,0.0,15,98327448392,3116,12.3,-302.74774169921875,37.45199966430664,0,0.0,0.0,,,,,0,,1
Raw,112787274,112760776000000,,,-1163522537620623104,0.0,102.09160973317921,5.761084151724702,13.2144809799097,61,29,0.0,15,98318823942,98,16.9,-714.4766235351562,3.428500175476074,0,0.0,0.0,,,,,0,,1
Raw,112787274,112760776000000,,,-1163522537620623104,0.0,102.09160973317921,5.761084151724702,13.2144809799097,61,31,0.0,15,98315546279,1034,13.8,-633.5256958007812,20.999000549316406,0,0.0,0.0,,,,,0,,1
Raw,112787275,112760776000000,,,-1163522537620623104,0.0,102.09160973317921,5.761084151724702,13.2144809799097,61,32,0.0,15,98324325592,125,14.1,40.26613998413086,3.7325000762939453,0,0.0,0.0,,,,,0,,1
Raw,112788262,112761776000000,,,-1163522537620623104,0.0,101.43168037757277,8.060835131452649,14.903517903090973,61,2,0.0,15,99316877370,122,15.2,-395.0591735839844,4.380500316619873,0,0.0,0.0,,,,,0,,1
Raw,112788263,112761776000000,,,-1163522537620623104,0.0,101.43168037757277,8.060835131452649,14.903517903090973,61,12,0.0,15,99329375436,53,19.6,206.5447540283203,0.9299999475479126,0,0.0,0.0,,,,,0,,1
Raw,112788265,112761776000000,,,-1163522537620623104,0.0,101.43168037757277,8.060835131452649,14.903517903090973,61,14,0.0,15,99320730055,151,15.4,-359.4742736816406,5.856500148773193,0,0.0,0.0,,,,,0,,1
Raw,112788266,112761776000000,,,-1163522537620623104,0.0,101.43168037757277,8.060835131452649,14.903517903090973,61,19,0.0,15,99315795515,284,14.7,673.1734008789062,9.629000663757324,0,0.0,0.0,,,,,0,,1
Raw,112788268,112761776000000,,,-1163522537620623104,0.0,101.43168037757277,8.060835131452649,14.903517903090973,61,24,0.0,15,99322728964,27,24.6,548.8069458007812,0.6195000410079956,0,0.0,0.0,,,,,0,,1
Raw,112788268,112761776000000,,,-1163522537620623104,0.0,101.43168037757277,8.060835131452649,14.903517903090973,61,29,0.0,15,99318826284,84,16.7,-714.0198974609375,1.9284999370574951,0,0.0,0.0,,,,,0,,1
Raw,112788269,112761776000000,,,-1163522537620623104,0.0,101.43168037757277,8.060835131452649,14.903517903090973,61,31,0.0,15,99315548393,1174,13.8,-633.5256958007812,22.499000549316406,0,0.0,0.0,,,,,0,,1
Raw,112788270,112761776000000,,,-1163522537620623104,0.0,101.43168037757277,8.060835131452649,14.903517903090973,61,32,0.0,15,99324325457,150,14.1,40.26613998413086,5.232500076293945,0,0.0,0.0,,,,,0,,1
Fix,gps,51.519544,-0.139158,80.000000,0.000000,12.000000,1479600083000
Raw,112789241,112762776000000,,,-1163522537620623104,0.0,103.95871504442766,8.102902992875418,12.967829243876187,61,2,0.0,15,100316878688,152,15.2,-395.0591735839844,5.880500316619873,0,0.0,0.0,,,,,0,,1
Raw,112789242,112762776000000,,,-1163522537620623104,0.0,103.95871504442766,8.102902992875418,12.967829243876187,61,12,0.0,15,100329374818,53,19.9,206.52572631835938,0.9299999475479126,0,0.0,0.0,,,,,0,,1
Raw,112789243,112762776000000,,,-1163522537620623104,0.0,103.95871504442766,8.102902992875418,12.967829243876187,61,14,0.0,15,100320731132,102,15.2,-359.7121276855469,2.8565001487731934,0,0.0,0.0,,,,,0,,1
Raw,112789244,112762776000000,,,-1163522537620623104,0.0,103.95871504442766,8.102902992875418,12.967829243876187,61,19,0.0,15,100315793269,348,14.7,673.1734008789062,11.129000663757324,0,0.0,0.0,,,,,0,,1
Raw,112789245,112762776000000,,,-1163522537620623104,0.0,103.95871504442766,8.102902992875418,12.967829243876187,61,24,0.0,15,100322727117,27,24.1,548.3121948242188,0.6694999933242798,0,0.0,0.0,,,,,0,,1
Raw,112789246,112762776000000,,,-1163522537620623104,0.0,103.95871504442766,8.102902992875418,12.967829243876187,61,29,0.0,15,100318828725,61,18.4,-714.8667602539062,1.088499903678894,0,0.0,0.0,,,,,0,,1
Raw,112789247,112762776000000,,,-1163522537620623104,0.0,103.95871504442766,8.102902992875418,12.967829243876187,61,31,0.0,15,100315550506,1325,13.8,-633.5256958007812,23.999000549316406,0,0.0,0.0,,,,,0,,1
Raw,112789248,112762776000000,,,-1163522537620623104,0.0,103.95871504442766,8.102902992875418,12.967829243876187,61,32,0.0,15,100324325323,185,14.1,40.26613998413086,6.732500076293945,0,0.0,0.0,,,,,0,,1
Fix,gps,51.519547,-0.139154,80.000000,0.000000,11.000000,1479600084000
Fix,gps,51.519546,-0.139155,80.000000,0.000000,11.000000,1479600085000
Raw,112790244,112763776000000,,,-1163522537620622848,0.0,95.6314688664861,6.689512079349059,13.043803020641949,61,2,0.0,15,101316880005,192,15.2,-395.0591735839844,7.380500316619873,0,0.0,0.0,,,,,0,,1
Raw,112790245,112763776000000,,,-1163522537620622848,0.0,95.6314688664861,6.689512079349059,13.043803020641949,61,12,0.0,15,101329374087,46,20.1,206.34494018554688,0.9299999475479126,0,0.0,0.0,,,,,0,,1
Raw,112790247,112763776000000,,,-1163522537620622848,0.0,95.6314688664861,6.689512079349059,13.043803020641949,61,14,0.0,15,101320732332,122,15.2,-359.7121276855469,4.356500148773193,0,0.0,0.0,,,,,0,,1
Raw,112790249,112763776000000,,,-1163522537620622848,0.0,95.6314688664861,6.689512079349059,13.043803020641949,61,19,0.0,15,101315791003,166,13.7,672.3265991210938,5.249000549316406,0,0.0,0.0,,,,,0,,1
Raw,112790251,112763776000000,,,-1163522537620622848,0.0,95.6314688664861,6.689512079349059,13.043803020641949,61,24,0.0,15,101322725323,27,24.8,548.892578125,0.6195000410079956,0,0.0,0.0,,,,,0,,1
Raw,112790252,112763776000000,,,-1163522537620622848,0.0,95.6314688664861,6.689512079349059,13.043803020641949,61,29,0.0,15,101318831110,69,18.4,-714.8667602539062,2.5885000228881836,0,0.0,0.0,,,,,0,,1
Raw,112790254,112763776000000,,,-1163522537620622848,0.0,95.6314688664861,6.689512079349059,13.043803020641949,61,31,0.0,15,101315552619,1485,13.8,-633.5256958007812,25.499000549316406,0,0.0,0.0,,,,,0,,1
Raw,112790255,112763776000000,,,-1163522537620622848,0.0,95.6314688664861,6.689512079349059,13.043803020641949,61,32,0.0,15,101324325103,102,15.0,40.54206848144531,2.8625001907348633,0,0.0,0.0,,,,,0,,1
Raw,112791241,112764776000000,,,-1163522537620622848,0.0,93.694259703625,6.84267561412934,16.47580790193131,61,2,0.0,15,102316881323,241,15.2,-395.0591735839844,8.880499839782715,0,0.0,0.0,,,,,0,,1
Raw,112791242,112764776000000,,,-1163522537620622848,0.0,93.694259703625,6.84267561412934,16.47580790193131,61,12,0.0,15,102329373376,53,19.5,207.68650817871094,0.9299999475479126,0,0.0,0.0,,,,,0,,1
Raw,112791243,112764776000000,,,-1163522537620622848,0.0,93.694259703625,6.84267561412934,16.47580790193131,61,14,0.0,15,102320733532,151,15.2,-359.7121276855469,5.856500148773193,0,0.0,0.0,,,,,0,,1
Raw,112791245,112764776000000,,,-1163522537620622848,0.0,93.694259703625,6.84267561412934,16.47580790193131,61,19,0.0,15,102315788761,201,13.7,672.3265991210938,6.749000072479248,0,0.0,0.0,,,,,0,,1
Raw,112791246,112764776000000,,,-1163522537620622848,0.0,93.694259703625,6.84267561412934,16.47580790193131,61,24,0.0,15,102322723414,24,25.9,550.2034912109375,0.384799987077713,0,0.0,0.0,,,,,0,,1
Raw,112791247,112764776000000,,,-1163522537620622848,0.0,93.694259703625,6.84267561412934,16.47580790193131,61,29,0.0,15,102318833552,73,17.4,-713.6774291992188,1.9284999370574951,0,0.0,0.0,,,,,0,,1
Raw,112791248,112764776000000,,,-1163522537620622848,0.0,93.694259703625,6.84267561412934,16.47580790193131,61,31,0.0,15,102315554732,1655,13.8,-633.5256958007812,26.999000549316406,0,0.0,0.0,,,,,0,,1
Raw,112791250,112764776000000,,,-1163522537620622848,0.0,93.694259703625,6.84267561412934,16.47580790193131,61,32,0.0,15,102324324968,122,15.0,40.54206848144531,4.362500190734863,0,0.0,0.0,,,,,0,,1
Fix,gps,51.519555,-0.139151,81.000000,0.000000,11.000000,1479600086000
Raw,112792256,112765776000000,,,-1163522537620622848,0.0,94.47620686842129,9.958995380499013,13.380668795207226,61,2,0.0,15,103316882467,122,15.1,-395.7252197265625,4.380500316619873,0,0.0,0.0,,,,,0,,1
Raw,112792260,112765776000000,,,-1163522537620622848,0.0,94.47620686842129,9.958995380499013,13.380668795207226,61,12,0.0,15,103329372718,53,19.2,207.68650817871094,1.0099999904632568,0,0.0,0.0,,,,,0,,1
Raw,112792261,112765776000000,,,-1163522537620622848,0.0,94.47620686842129,9.958995380499013,13.380668795207226,61,14,0.0,15,103320734732,191,15.2,-359.7121276855469,7.356500625610352,0,0.0,0.0,,,,,0,,1
Raw,112792263,112765776000000,,,-1163522537620622848,0.0,94.47620686842129,9.958995380499013,13.380668795207226,61,19,0.0,15,103315786518,246,13.7,672.3265991210938,8.249000549316406,0,0.0,0.0,,,,,0,,1
Raw,112792266,112765776000000,,,-1163522537620622848,0.0,94.47620686842129,9.958995380499013,13.380668795207226,61,24,0.0,15,103322721593,24,25.9,549.25634765625,0.384799987077713,0,0.0,0.0,,,,,0,,1
Raw,112792268,112765776000000,,,-1163522537620622848,0.0,94.47620686842129,9.958995380499013,13.380668795207226,61,29,0.0,15,103318835932,87,17.4,-713.6774291992188,3.428500175476074,0,0.0,0.0,,,,,0,,1
Raw,112792271,112765776000000,,,-1163522537620622848,0.0,94.47620686842129,9.958995380499013,13.380668795207226,61,31,0.0,15,103315556846,1835,13.8,-633.5256958007812,28.499000549316406,0,0.0,0.0,,,,,0,,1
Raw,112792272,112765776000000,,,-1163522537620622848,0.0,94.47620686842129,9.958995380499013,13.380668795207226,61,32,0.0,15,103324324822,84,16.6,42.606754302978516,1.9225000143051147,0,0.0,0.0,,,,,0,,1
Fix,gps,51.519564,-0.139146,81.000000,0.000000,12.000000,1479600087000
Raw,112793277,112766776000000,,,-1163522537620622848,0.0,98.06938032852486,8.925602981241985,13.314107142757369,61,2,0.0,15,104316883787,152,15.1,-395.7252197265625,5.880500316619873,0,0.0,0.0,,,,,0,,1
Raw,112793277,112766776000000,,,-1163522537620622848,0.0,98.06938032852486,8.925602981241985,13.314107142757369,61,12,0.0,15,104329372057,53,19.2,206.78262329101562,1.0099999904632568,0,0.0,0.0,,,,,0,,1
Raw,112793278,112766776000000,,,-1163522537620622848,0.0,98.06938032852486,8.925602981241985,13.314107142757369,61,14,0.0,15,104320735983,111,15.4,-357.67596435546875,3.6065001487731934,0,0.0,0.0,,,,,0,,1
Raw,112793278,112766776000000,,,-1163522537620622848,0.0,98.06938032852486,8.925602981241985,13.314107142757369,61,19,0.0,15,104315784276,301,13.7,672.3265991210938,9.749000549316406,0,0.0,0.0,,,,,0,,1
Raw,112793279,112766776000000,,,-1163522537620622848,0.0,98.06938032852486,8.925602981241985,13.314107142757369,61,24,0.0,15,104322719718,24,25.4,549.2459106445312,0.384799987077713,0,0.0,0.0,,,,,0,,1
Raw,112793279,112766776000000,,,-1163522537620622848,0.0,98.06938032852486,8.925602981241985,13.314107142757369,61,29,0.0,15,104318838190,73,17.0,-713.7059326171875,1.9284999370574951,0,0.0,0.0,,,,,0,,1
Raw,112793280,112766776000000,,,-1163522537620622848,0.0,98.06938032852486,8.925602981241985,13.314107142757369,61,31,0.0,15,104315558959,2026,13.8,-633.5256958007812,29.999000549316406,0,0.0,0.0,,,,,0,,1
Raw,112793282,112766776000000,,,-1163522537620622848,0.0,98.06938032852486,8.925602981241985,13.314107142757369,61,32,0.0,15,104324324680,98,16.6,42.606754302978516,3.4225001335144043,0,0.0,0.0,,,,,0,,1
Fix,gps,51.519566,-0.139148,81.000000,0.000000,12.000000,1479600088000
Raw,112794251,112767776000000,,,-1163522537620622848,0.0,96.75466571934521,7.998097974637366,12.792280202104429,61,2,0.0,15,105316885107,192,15.1,-395.7252197265625,7.380500316619873,0,0.0,0.0,,,,,0,,1
Raw,112794252,112767776000000,,,-1163522537620622848,0.0,96.75466571934521,7.998097974637366,12.792280202104429,61,12,0.0,15,105329371401,46,20.5,206.5542755126953,0.8600000143051147,0,0.0,0.0,,,,,0,,1
Raw,112794253,112767776000000,,,-1163522537620622848,0.0,96.75466571934521,7.998097974637366,12.792280202104429,61,14,0.0,15,105320737177,135,15.4,-357.67596435546875,5.106500148773193,0,0.0,0.0,,,,,0,,1
Raw,112794254,112767776000000,,,-1163522537620622848,0.0,96.75466571934521,7.998097974637366,12.792280202104429,61,19,0.0,15,105315782033,367,13.7,672.3265991210938,11.249000549316406,0,0.0,0.0,,,,,0,,1
Raw,112794255,112767776000000,,,-1163522537620622848,0.0,96.75466571934521,7.998097974637366,12.792280202104429,61,24,0.0,15,105322717909,40,21.9,549.8726196289062,0.7894999980926514,0,0.0,0.0,,,,,0,,1
Raw,112794256,112767776000000,,,-1163522537620622848,0.0,96.75466571934521,7.998097974637366,12.792280202104429,61,29,0.0,15,105318840571,87,17.0,-713.7059326171875,3.428500175476074,0,0.0,0.0,,,,,0,,1
Raw,112794257,112767776000000,,,-1163522537620622848,0.0,96.75466571934521,7.998097974637366,12.792280202104429,61,31,0.0,15,105315561072,2226,13.8,-633.5256958007812,31.499000549316406,0,0.0,0.0,,,,,0,,1
Raw,112794258,112767776000000,,,-1163522537620622848,0.0,96.75466571934521,7.998097974637366,12.792280202104429,61,32,0.0,15,105324324591,96,15.3,42.226165771484375,2.1125001907348633,0,0.0,0.0,,,,,0,,1
Fix,gps,51.519566,-0.139148,81.000000,0.000000,12.000000,1479600089000
Raw,112795237,112768776000000,,,-1163522537620622848,0.0,97.75503713171929,8.336568621772942,13.433955654325347,61,2,0.0,15,106316886523,102,15.9,-396.7527770996094,2.7804999351501465,0,0.0,0.0,,,,,0,,1
Raw,112795239,112768776000000,,,-1163522537620622848,0.0,97.75503713171929,8.336568621772942,13.433955654325347,61,12,0.0,15,106329370689,46,20.9,207.25836181640625,0.8600000143051147,0,0.0,0.0,,,,,0,,1
Raw,112795240,112768776000000,,,-1163522537620622848,0.0,97.75503713171929,8.336568621772942,13.433955654325347,61,14,0.0,15,106320738327,84,16.7,-357.6474609375,1.9165000915527344,0,0.0,0.0,,,,,0,,1
Raw,112795241,112768776000000,,,-1163522537620622848,0.0,97.75503713171929,8.336568621772942,13.433955654325347,61,19,0.0,15,106315779790,442,13.7,672.3265991210938,12.749000549316406,0,0.0,0.0,,,,,0,,1
Raw,112795243,112768776000000,,,-1163522537620622848,0.0,97.75503713171929,8.336568621772942,13.433955654325347,61,24,0.0,15,106322716147,31,23.8,549.4920043945312,0.6694999933242798,0,0.0,0.0,,,,,0,,1
Raw,112795244,112768776000000,,,-1163522537620622848,0.0,97.75503713171929,8.336568621772942,13.433955654325347,61,29,0.0,15,106318843099,73,17.4,-713.4109497070312,1.9284999370574951,0,0.0,0.0,,,,,0,,1
Raw,112795245,112768776000000,,,-1163522537620622848,0.0,97.75503713171929,8.336568621772942,13.433955654325347,61,31,0.0,15,106315563185,2436,13.8,-633.5256958007812,32.999000549316406,0,0.0,0.0,,,,,0,,1
Raw,112795247,112768776000000,,,-1163522537620622848,0.0,97.75503713171929,8.336568621772942,13.433955654325347,61,32,0.0,15,106324324605,70,17.1,42.8826789855957,1.1725000143051147,0,0.0,0.0,,,,,0,,1
Fix,gps,51.519567,-0.139148,81.000000,0.000000,12.000000,1479600090000
Fix,gps,51.519570,-0.139146,81.000000,0.000000,12.000000,1479600091000
Raw,112796266,112769776000000,,,-1163522537620622848,0.0,95.55828000884503,8.296697320329939,12.329311843675418,61,2,0.0,15,107316887847,121,15.9,-396.7527770996094,4.280500411987305,0,0.0,0.0,,,,,0,,1
Raw,112796267,112769776000000,,,-1163522537620622848,0.0,95.55828000884503,8.296697320329939,12.329311843675418,61,12,0.0,15,107329369958,46,20.6,208.04808044433594,0.8600000143051147,0,0.0,0.0,,,,,0,,1
Raw,112796268,112769776000000,,,-1163522537620622848,0.0,95.55828000884503,8.296697320329939,12.329311843675418,61,14,0.0,15,107320739520,98,16.7,-357.6474609375,3.4165000915527344,0,0.0,0.0,,,,,0,,1
Raw,112796268,112769776000000,,,-1163522537620622848,0.0,95.55828000884503,8.296697320329939,12.329311843675418,61,19,0.0,15,107315777548,527,13.7,672.3265991210938,14.249000549316406,0,0.0,0.0,,,,,0,,1
Raw,112796269,112769776000000,,,-1163522537620622848,0.0,95.55828000884503,8.296697320329939,12.329311843675418,61,24,0.0,15,107322714220,31,23.7,550.0724487304688,0.6694999933242798,0,0.0,0.0,,,,,0,,1
Raw,112796270,112769776000000,,,-1163522537620622848,0.0,95.55828000884503,8.296697320329939,12.329311843675418,61,29,0.0,15,107318845479,87,17.4,-713.4109497070312,3.428500175476074,0,0.0,0.0,,,,,0,,1
Raw,112796271,112769776000000,,,-1163522537620622848,0.0,95.55828000884503,8.296697320329939,12.329311843675418,61,31,0.0,15,107315565334,220,12.9,-633.4971313476562,6.86899995803833,0,0.0,0.0,,,,,0,,1
Raw,112796272,112769776000000,,,-1163522537620622848,0.0,95.55828000884503,8.296697320329939,12.329311843675418,61,32,0.0,15,107324324462,79,17.1,42.8826789855957,2.6725001335144043,0,0.0,0.0,,,,,0,,1
Fix,gps,51.519576,-0.139143,82.000000,0.000000,12.000000,1479600092000
Raw,112797251,112770776000000,,,-1163522537620622848,0.0,102.08624007645994,9.21510990468667,12.592293038819916,61,2,0.0,15,108316889170,151,15.9,-396.7527770996094,5.780500411987305,0,0.0,0.0,,,,,0,,1
Raw,112797253,112770776000000,,,-1163522537620622848,0.0,102.08624007645994,9.21510990468667,12.592293038819916,61,12,0.0,15,108329369212,46,20.6,208.22885131835938,0.8600000143051147,0,0.0,0.0,,,,,0,,1
Raw,112797255,112770776000000,,,-1163522537620622848,0.0,102.08624007645994,9.21510990468667,12.592293038819916,61,14,0.0,15,108320740717,73,17.6,-357.4952087402344,1.8264999389648438,0,0.0,0.0,,,,,0,,1
Raw,112797257,112770776000000,,,-1163522537620622848,0.0,102.08624007645994,9.21510990468667,12.592293038819916,61,19,0.0,15,108315775305,622,13.7,672.3265991210938,15.749000549316406,0,0.0,0.0,,,,,0,,1
Raw,112797258,112770776000000,,,-1163522537620622848,0.0,102.08624007645994,9.21510990468667,12.592293038819916,61,24,0.0,15,108322712448,35,22.0,549.311279296875,0.7894999980926514,0,0.0,0.0,,,,,0,,1
Raw,112797259,112770776000000,,,-1163522537620622848,0.0,102.08624007645994,9.21510990468667,12.592293038819916,61,29,0.0,15,108318847776,84,16.4,-715.1331176757812,2.0185000896453857,0,0.0,0.0,,,,,0,,1
Raw,112797260,112770776000000,,,-1163522537620622848,0.0,102.08624007645994,9.21510990468667,12.592293038819916,61,31,0.0,15,108315567447,266,12.9,-633.4971313476562,8.369000434875488,0,0.0,0.0,,,,,0,,1
Raw,112797262,112770776000000,,,-1163522537620622848,0.0,102.08624007645994,9.21510990468667,12.592293038819916,61,32,0.0,15,108324324189,73,17.5,42.72092819213867,1.8324999809265137,0,0.0,0.0,,,,,0,,1
Raw,112798241,112771776000000,,,-1163522537620622848,0.0,99.22114259097725,8.684122147811092,12.151392075871914,61,2,0.0,15,109316890494,190,15.9,-396.7527770996094,7.280500411987305,0,0.0,0.0,,,,,0,,1
Raw,112798242,112771776000000,,,-1163522537620622848,0.0,99.22114259097725,8.684122147811092,12.151392075871914,61,12,0.0,15,109329368631,61,18.3,208.5999298095703,1.0899999141693115,0,0.0,0.0,,,,,0,,1
Raw,112798243,112771776000000,,,-1163522537620622848,0.0,99.22114259097725,8.684122147811092,12.151392075871914,61,14,0.0,15,109320741910,87,17.6,-357.4952087402344,3.3264999389648438,0,0.0,0.0,,,,,0,,1
Raw,112798244,112771776000000,,,-1163522537620622848,0.0,99.22114259097725,8.684122147811092,12.151392075871914,61,19,0.0,15,109315773062,727,13.7,672.3265991210938,17.249000549316406,0,0.0,0.0,,,,,0,,1
Raw,112798246,112771776000000,,,-1163522537620622848,0.0,99.22114259097725,8.684122147811092,12.151392075871914,61,24,0.0,15,109322710598,31,23.9,549.1685180664062,0.6694999933242798,0,0.0,0.0,,,,,0,,1
Raw,112798251,112771776000000,,,-1163522537620622848,0.0,99.22114259097725,8.684122147811092,12.151392075871914,61,29,0.0,15,109318850161,98,16.4,-715.1331176757812,3.5185000896453857,0,0.0,0.0,,,,,0,,1
Raw,112798253,112771776000000,,,-1163522537620622848,0.0,99.22114259097725,8.684122147811092,12.151392075871914,61,31,0.0,15,109315569560,321,12.9,-633.4971313476562,9.869000434875488,0,0.0,0.0,,,,,0,,1
Raw,112798254,112771776000000,,,-1163522537620622848,0.0,99.22114259097725,8.684122147811092,12.151392075871914,61,32,0.0,15,109324324118,70,17.6,41.874122619628906,1.0824999809265137,0,0.0,0.0,,,,,0,,1
Fix,gps,51.519576,-0.139144,81.000000,0.000000,12.000000,1479600093000
Raw,112799250,112772776000000,,,-1163522537620622848,0.0,100.69205745821819,7.295403963036458,13.356147169422972,61,2,0.0,15,110316891817,240,15.9,-396.7527770996094,8.780500411987305,0,0.0,0.0,,,,,0,,1
Raw,112799252,112772776000000,,,-1163522537620622848,0.0,100.69205745821819,7.295403963036458,13.356147169422972,61,12,0.0,15,110329367935,69,18.3,208.5999298095703,2.5900001525878906,0,0.0,0.0,,,,,0,,1
Raw,112799253,112772776000000,,,-1163522537620622848,0.0,100.69205745821819,7.295403963036458,13.356147169422972,61,14,0.0,15,110320743102,110,17.6,-357.4952087402344,4.826499938964844,0,0.0,0.0,,,,,0,,1
Raw,112799254,112772776000000,,,-1163522537620622848,0.0,100.69205745821819,7.295403963036458,13.356147169422972,61,19,0.0,15,110315770820,843,13.7,672.3265991210938,18.749000549316406,0,0.0,0.0,,,,,0,,1
Raw,112799255,112772776000000,,,-1163522537620622848,0.0,100.69205745821819,7.295403963036458,13.356147169422972,61,24,0.0,15,110322708819,35,22.5,549.1304321289062,0.7294999957084656,0,0.0,0.0,,,,,0,,1
Raw,112799257,112772776000000,,,-1163522537620622848,0.0,100.69205745821819,7.295403963036458,13.356147169422972,61,29,0.0,15,110318852514,73,17.8,-714.3529052734375,1.8385000228881836,0,0.0,0.0,,,,,0,,1
Raw,112799258,112772776000000,,,-1163522537620622848,0.0,100.69205745821819,7.295403963036458,13.356147169422972,61,31,0.0,15,110315571673,387,12.9,-633.4971313476562,11.369000434875488,0,0.0,0.0,,,,,0,,1
Raw,112799259,112772776000000,,,-1163522537620622848,0.0,100.69205745821819,7.295403963036458,13.356147169422972,61,32,0.0,15,110324323825,61,18.9,41.69334411621094,1.002500057220459,0,0.0,0.0,,,,,0,,1
Fix,gps,51.519596,-0.139134,82.000000,0.000000,12.000000,1479600094000
Raw,112800244,112773776000000,,,-1163522537620622848,0.0,98.3585778158158,5.385584529492134,12.810251116609416,61,2,0.0,15,111316893140,299,15.9,-396.7527770996094,10.280500411987305,0,0.0,0.0,,,,,0,,1
Raw,112800245,112773776000000,,,-1163522537620622848,0.0,98.3585778158158,5.385584529492134,12.810251116609416,61,12,0.0,15,111329367237,84,16.8,206.57330322265625,1.9300000667572021,0,0.0,0.0,,,,,0,,1
Raw,112800247,112773776000000,,,-1163522537620622848,0.0,98.3585778158158,5.385584529492134,12.810251116609416,61,14,0.0,15,111320744354,90,16.4,-358.5037841796875,2.756500244140625,0,0.0,0.0,,,,,0,,1
Raw,112800249,112773776000000,,,-1163522537620622848,0.0,98.3585778158158,5.385584529492134,12.810251116609416,61,19,0.0,15,111315768577,968,13.7,672.3265991210938,20.249000549316406,0,0.0,0.0,,,,,0,,1
Raw,112800250,112773776000000,,,-1163522537620622848,0.0,98.3585778158158,5.385584529492134,12.810251116609416,61,24,0.0,15,111322706964,35,22.6,549.9677734375,0.7294999957084656,0,0.0,0.0,,,,,0,,1
Raw,112800252,112773776000000,,,-1163522537620622848,0.0,98.3585778158158,5.385584529492134,12.810251116609416,61,29,0.0,15,111318854897,87,17.8,-714.3529052734375,3.3385000228881836,0,0.0,0.0,,,,,0,,1
Raw,112800253,112773776000000,,,-1163522537620622848,0.0,98.3585778158158,5.385584529492134,12.810251116609416,61,31,0.0,15,111315573786,462,12.9,-633.4971313476562,12.869000434875488,0,0.0,0.0,,,,,0,,1
Raw,112800261,112773776000000,,,-1163522537620622848,0.0,98.3585778158158,5.385584529492134,12.810251116609416,61,32,0.0,15,111324323638,53,19.3,42.58772277832031,1.002500057220459,0,0.0,0.0,,,,,0,,1
Fix,gps,51.519609,-0.139129,83.000000,0.000000,11.000000,1479600095000
Raw,112801257,112774776000000,,,-1163522537620622848,0.0,92.81169332098216,6.753168578429587,12.49704090924115,61,2,0.0,15,112316894464,369,15.9,-396.7527770996094,11.780500411987305,0,0.0,0.0,,,,,0,,1
Raw,112801258,112774776000000,,,-1163522537620622848,0.0,92.81169332098216,6.753168578429587,12.49704090924115,61,12,0.0,15,112329366548,98,16.8,206.57330322265625,3.4300003051757812,0,0.0,0.0,,,,,0,,1
Raw,112801259,112774776000000,,,-1163522537620622848,0.0,92.81169332098216,6.753168578429587,12.49704090924115,61,14,0.0,15,112320745550,109,16.4,-358.5037841796875,4.256500244140625,0,0.0,0.0,,,,,0,,1
Raw,112801260,112774776000000,,,-1163522537620622848,0.0,92.81169332098216,6.753168578429587,12.49704090924115,61,19,0.0,15,112315766334,1103,13.7,672.3265991210938,21.749000549316406,0,0.0,0.0,,,,,0,,1
Raw,112801260,112774776000000,,,-1163522537620622848,0.0,92.81169332098216,6.753168578429587,12.49704090924115,61,24,0.0,15,112322705128,27,24.3,550.7384643554688,0.6694999933242798,0,0.0,0.0,,,,,0,,1
Raw,112801261,112774776000000,,,-1163522537620622848,0.0,92.81169332098216,6.753168578429587,12.49704090924115,61,29,0.0,15,112318857269,84,16.7,-712.4880981445312,1.9284999370574951,0,0.0,0.0,,,,,0,,1
Raw,112801262,112774776000000,,,-1163522537620622848,0.0,92.81169332098216,6.753168578429587,12.49704090924115,61,31,0.0,15,112315575899,548,12.9,-633.4971313476562,14.369000434875488,0,0.0,0.0,,,,,0,,1
Raw,112801262,112774776000000,,,-1163522537620622848,0.0,92.81169332098216,6.753168578429587,12.49704090924115,61,32,0.0,15,112324323538,70,17.8,44.27182388305664,1.0824999809265137,0,0.0,0.0,,,,,0,,1
Fix,gps,51.519615,-0.139126,83.000000,0.000000,11.000000,1479600096000
Fix,gps,51.519622,-0.139123,83.000000,0.000000,11.000000,1479600097000
Raw,112802317,112775776000000,,,-1163522537620622848,0.0,90.07184416987002,10.873408507890414,12.317406520396236,61,2,0.0,15,113316895787,448,15.9,-396.7527770996094,13.280500411987305,0,0.0,0.0,,,,,0,,1
Raw,112802320,112775776000000,,,-1163522537620622848,0.0,90.07184416987002,10.873408507890414,12.317406520396236,61,12,0.0,15,113329365859,122,16.8,206.57330322265625,4.930000305175781,0,0.0,0.0,,,,,0,,1
Raw,112802321,112775776000000,,,-1163522537620622848,0.0,90.07184416987002,10.873408507890414,12.317406520396236,61,14,0.0,15,113320746746,138,16.4,-358.5037841796875,5.756500244140625,0,0.0,0.0,,,,,0,,1
Raw,112802323,112775776000000,,,-1163522537620622848,0.0,90.07184416987002,10.873408507890414,12.317406520396236,61,19,0.0,15,113315764120,343,11.7,672.497802734375,9.999000549316406,0,0.0,0.0,,,,,0,,1
Raw,112802324,112775776000000,,,-1163522537620622848,0.0,90.07184416987002,10.873408507890414,12.317406520396236,61,24,0.0,15,113322703294,31,23.0,550.7764892578125,0.7294999957084656,0,0.0,0.0,,,,,0,,1
Raw,112802326,112775776000000,,,-1163522537620622848,0.0,90.07184416987002,10.873408507890414,12.317406520396236,61,29,0.0,15,113318859669,61,18.4,-713.1160278320312,1.088499903678894,0,0.0,0.0,,,,,0,,1
Raw,112802328,112775776000000,,,-1163522537620622848,0.0,90.07184416987002,10.873408507890414,12.317406520396236,61,31,0.0,15,113315578013,643,12.9,-633.4971313476562,15.869000434875488,0,0.0,0.0,,,,,0,,1
Raw,112802329,112775776000000,,,-1163522537620622848,0.0,90.07184416987002,10.873408507890414,12.317406520396236,61,32,0.0,15,113324323377,46,20.7,44.26231002807617,0.8524999618530273,0,0.0,0.0,,,,,0,,1
Raw,112803242,112776776000000,,,-1163522537620622848,0.0,86.09451469965279,10.328369765597563,12.169974559755772,61,2,0.0,15,114316897111,538,15.9,-396.7527770996094,14.780500411987305,0,0.0,0.0,,,,,0,,1
Raw,112803244,112776776000000,,,-1163522537620622848,0.0,86.09451469965279,10.328369765597563,12.169974559755772,61,12,0.0,15,114329365093,102,15.3,207.53427124023438,2.870000123977661,0,0.0,0.0,,,,,0,,1
Raw,112803245,112776776000000,,,-1163522537620622848,0.0,86.09451469965279,10.328369765597563,12.169974559755772,61,14,0.0,15,114320747858,102,15.9,-356.1250915527344,2.756500244140625,0,0.0,0.0,,,,,0,,1
Raw,112803246,112776776000000,,,-1163522537620622848,0.0,86.09451469965279,10.328369765597563,12.169974559755772,61,19,0.0,15,114315761876,409,11.7,672.497802734375,11.499000549316406,0,0.0,0.0,,,,,0,,1
Raw,112803247,112776776000000,,,-1163522537620622848,0.0,86.09451469965279,10.328369765597563,12.169974559755772,61,24,0.0,15,114322701421,27,24.3,549.8726196289062,0.6694999933242798,0,0.0,0.0,,,,,0,,1
Raw,112803248,112776776000000,,,-1163522537620622848,0.0,86.09451469965279,10.328369765597563,12.169974559755772,61,29,0.0,15,114318862048,69,18.4,-713.1160278320312,2.5885000228881836,0,0.0,0.0,,,,,0,,1
Raw,112803249,112776776000000,,,-1163522537620622848,0.0,86.09451469965279,10.328369765597563,12.169974559755772,61,31,0.0,15,114315580126,749,12.9,-633.4971313476562,17.369001388549805,0,0.0,0.0,,,,,0,,1
Raw,112803250,112776776000000,,,-1163522537620622848,0.0,86.09451469965279,10.328369765597563,12.169974559755772,61,32,0.0,15,114324323293,40,21.0,43.36792755126953,0.8524999618530273,0,0.0,0.0,,,,,0,,1
Fix,gps,51.519622,-0.139123,83.000000,0.000000,11.000000,1479600098000
Raw,112804258,112777776000000,,,-1163522537620622848,0.0,89.58712714957073,9.060876719952446,14.145591780485447,61,2,0.0,15,115316898434,637,15.9,-396.7527770996094,16.280500411987305,0,0.0,0.0,,,,,0,,1
Raw,112804259,112777776000000,,,-1163522537620622848,0.0,89.58712714957073,9.060876719952446,14.145591780485447,61,12,0.0,15,115329364517,70,17.7,207.97195434570312,1.0899999141693115,0,0.0,0.0,,,,,0,,1
Raw,112804260,112777776000000,,,-1163522537620622848,0.0,89.58712714957073,9.060876719952446,14.145591780485447,61,14,0.0,15,115320749046,121,15.9,-356.1250915527344,4.256500244140625,0,0.0,0.0,,,,,0,,1
Raw,112804260,112777776000000,,,-1163522537620622848,0.0,89.58712714957073,9.060876719952446,14.145591780485447,61,19,0.0,15,115315759633,485,11.7,672.497802734375,12.999000549316406,0,0.0,0.0,,,,,0,,1
Raw,112804261,112777776000000,,,-1163522537620622848,0.0,89.58712714957073,9.060876719952446,14.145591780485447,61,24,0.0,15,115322699638,27,24.9,550.1580200195312,0.6195000410079956,0,0.0,0.0,,,,,0,,1
Raw,112804262,112777776000000,,,-1163522537620622848,0.0,89.58712714957073,9.060876719952446,14.145591780485447,61,29,0.0,15,115318864423,64,18.0,-712.7449340820312,1.8385000228881836,0,0.0,0.0,,,,,0,,1
Raw,112804262,112777776000000,,,-1163522537620622848,0.0,89.58712714957073,9.060876719952446,14.145591780485447,61,31,0.0,15,115315582239,865,12.9,-633.4971313476562,18.869001388549805,0,0.0,0.0,,,,,0,,1
Raw,112804263,112777776000000,,,-1163522537620622848,0.0,89.58712714957073,9.060876719952446,14.145591780485447,61,32,0.0,15,115324323077,46,20.2,43.74851608276367,0.92249995470047,0,0.0,0.0,,,,,0,,1
Fix,gps,51.519630,-0.139119,83.000000,0.000000,11.000000,1479600099000
Raw,112805268,112778776000000,,,-1163522537620622848,0.0,92.6289358176291,8.281123376056312,12.137379263835898,61,2,0.0,15,116316899758,746,15.9,-396.7527770996094,17.780500411987305,0,0.0,0.0,,,,,0,,1
Raw,112805269,112778776000000,,,-1163522537620622848,0.0,92.6289358176291,8.281123376056312,12.137379263835898,61,12,0.0,15,116329363824,79,17.7,207.97195434570312,2.5900001525878906,0,0.0,0.0,,,,,0,,1
Raw,112805269,112778776000000,,,-1163522537620622848,0.0,92.6289358176291,8.281123376056312,12.137379263835898,61,14,0.0,15,116320750221,84,16.2,-356.7816162109375,2.006500005722046,0,0.0,0.0,,,,,0,,1
Raw,112805270,112778776000000,,,-1163522537620622848,0.0,92.6289358176291,8.281123376056312,12.137379263835898,61,19,0.0,15,116315757390,571,11.7,672.497802734375,14.499000549316406,0,0.0,0.0,,,,,0,,1
Raw,112805271,112778776000000,,,-1163522537620622848,0.0,92.6289358176291,8.281123376056312,12.137379263835898,61,24,0.0,15,116322697783,27,24.5,548.9496459960938,0.6195000410079956,0,0.0,0.0,,,,,0,,1
Raw,112805271,112778776000000,,,-1163522537620622848,0.0,92.6289358176291,8.281123376056312,12.137379263835898,61,29,0.0,15,116318866877,61,18.2,-714.3814697265625,1.088499903678894,0,0.0,0.0,,,,,0,,1
Raw,112805272,112778776000000,,,-1163522537620622848,0.0,92.6289358176291,8.281123376056312,12.137379263835898,61,31,0.0,15,116315584499,242,12.8,-634.4866943359375,7.619000434875488,0,0.0,0.0,,,,,0,,1
Raw,112805273,112778776000000,,,-1163522537620622848,0.0,92.6289358176291,8.281123376056312,12.137379263835898,61,32,0.0,15,116324323079,40,21.7,42.616268157958984,0.7924999594688416,0,0.0,0.0,,,,,0,,1
Fix,gps,51.519630,-0.139120,83.000000,0.000000,11.000000,1479600100000
Raw,112806268,112779776000000,,,-1163522537620622848,0.0,93.35511276731268,5.475924619709919,11.986459210483176,61,2,0.0,15,117316901081,866,15.9,-396.7527770996094,19.280500411987305,0,0.0,0.0,,,,,0,,1
Raw,112806270,112779776000000,,,-1163522537620622848,0.0,93.35511276731268,5.475924619709919,11.986459210483176,61,12,0.0,15,117329363130,97,17.7,207.97195434570312,4.090000152587891,0,0.0,0.0,,,,,0,,1
Raw,112806272,112779776000000,,,-1163522537620622848,0.0,93.35511276731268,5.475924619709919,11.986459210483176,61,14,0.0,15,117320751411,98,16.2,-356.7816162109375,3.506500005722046,0,0.0,0.0,,,,,0,,1
Raw,112806273,112779776000000,,,-1163522537620622848,0.0,93.35511276731268,5.475924619709919,11.986459210483176,61,19,0.0,15,117315755147,667,11.7,672.497802734375,15.999000549316406,0,0.0,0.0,,,,,0,,1
Raw,112806274,112779776000000,,,-1163522537620622848,0.0,93.35511276731268,5.475924619709919,11.986459210483176,61,24,0.0,15,117322695985,27,24.0,549.3778076171875,0.6694999933242798,0,0.0,0.0,,,,,0,,1
Raw,112806276,112779776000000,,,-1163522537620622848,0.0,93.35511276731268,5.475924619709919,11.986459210483176,61,29,0.0,15,117318869243,70,17.9,-714.876220703125,1.088499903678894,0,0.0,0.0,,,,,0,,1
Raw,112806277,112779776000000,,,-1163522537620622848,0.0,93.35511276731268,5.475924619709919,11.986459210483176,61,31,0.0,15,117315586616,292,12.8,-634.4866943359375,9.119000434875488,0,0.0,0.0,,,,,0,,1
Raw,112806279,112779776000000,,,-1163522537620622848,0.0,93.35511276731268,5.475924619709919,11.986459210483176,61,32,0.0,15,117324322853,46,20.2,43.83414840698242,0.92249995470047,0,0.0,0.0,,,,,0,,1
Fix,gps,51.519632,-0.139118,83.000000,0.000000,11.000000,1479600101000
Fix,gps,51.519634,-0.139118,83.000000,0.000000,11.000000,1479600102000
Raw,112807293,112780776000000,,,-1163522537620622848,0.0,93.15476927440614,6.536105984542047,12.134002510152303,61,2,0.0,15,118316902404,995,15.9,-396.7527770996094,20.780500411987305,0,0.0,0.0,,,,,0,,1
Raw,112807294,112780776000000,,,-1163522537620622848,0.0,93.15476927440614,6.536105984542047,12.134002510152303,61,12,0.0,15,118329362364,116,14.8,208.2478790283203,2.870000123977661,0,0.0,0.0,,,,,0,,1
Raw,112807295,112780776000000,,,-1163522537620622848,0.0,93.15476927440614,6.536105984542047,12.134002510152303,61,14,0.0,15,118320752678,84,16.1,-356.7530517578125,2.006500005722046,0,0.0,0.0,,,,,0,,1
Raw,112807295,112780776000000,,,-1163522537620622848,0.0,93.15476927440614,6.536105984542047,12.134002510152303,61,19,0.0,15,118315752904,773,11.7,672.497802734375,17.499000549316406,0,0.0,0.0,,,,,0,,1
Raw,112807296,112780776000000,,,-1163522537620622848,0.0,93.15476927440614,6.536105984542047,12.134002510152303,61,24,0.0,15,118322694119,27,24.4,550.586181640625,0.6694999933242798,0,0.0,0.0,,,,,0,,1
Raw,112807297,112780776000000,,,-1163522537620622848,0.0,93.15476927440614,6.536105984542047,12.134002510152303,61,29,0.0,15,118318871627,79,17.9,-714.876220703125,2.5885000228881836,0,0.0,0.0,,,,,0,,1
Raw,112807298,112780776000000,,,-1163522537620622848,0.0,93.15476927440614,6.536105984542047,12.134002510152303,61,31,0.0,15,118315588732,353,12.8,-634.4866943359375,10.619000434875488,0,0.0,0.0,,,,,0,,1
Raw,112807299,112780776000000,,,-1163522537620622848,0.0,93.15476927440614,6.536105984542047,12.134002510152303,61,32,0.0,15,118324322659,40,21.8,44.25279235839844,0.7924999594688416,0,0.0,0.0,,,,,0,,1
Fix,gps,51.519635,-0.139118,83.000000,0.000000,11.000000,1479600103000
Raw,112808284,112781776000000,,,-1163522537620622848,0.0,94.31256330572069,8.850993107577343,12.01533896396081,61,2,0.0,15,119316903728,1135,15.9,-396.7527770996094,22.280500411987305,0,0.0,0.0,,,,,0,,1
Raw,112808285,112781776000000,,,-1163522537620622848,0.0,94.31256330572069,8.850993107577343,12.01533896396081,61,12,0.0,15,119329361669,136,14.8,208.2478790283203,4.37000036239624,0,0.0,0.0,,,,,0,,1
Raw,112808285,112781776000000,,,-1163522537620622848,0.0,94.31256330572069,8.850993107577343,12.01533896396081,61,14,0.0,15,119320753868,98,16.1,-356.7530517578125,3.506500005722046,0,0.0,0.0,,,,,0,,1
Raw,112808286,112781776000000,,,-1163522537620622848,0.0,94.31256330572069,8.850993107577343,12.01533896396081,61,19,0.0,15,119315750660,889,11.7,672.497802734375,18.999000549316406,0,0.0,0.0,,,,,0,,1
Raw,112808286,112781776000000,,,-1163522537620622848,0.0,94.31256330572069,8.850993107577343,12.01533896396081,61,24,0.0,15,119322692305,27,24.2,549.977294921875,0.6694999933242798,0,0.0,0.0,,,,,0,,1
Raw,112808287,112781776000000,,,-1163522537620622848,0.0,94.31256330572069,8.850993107577343,12.01533896396081,61,29,0.0,15,119318873904,73,17.1,-713.7820434570312,1.9284999370574951,0,0.0,0.0,,,,,0,,1
Raw,112808288,112781776000000,,,-1163522537620622848,0.0,94.31256330572069,8.850993107577343,12.01533896396081,61,31,0.0,15,119315590849,423,12.8,-634.4866943359375,12.119000434875488,0,0.0,0.0,,,,,0,,1
Raw,112808289,112781776000000,,,-1163522537620622848,0.0,94.31256330572069,8.850993107577343,12.01533896396081,61,32,0.0,15,119324322431,53,19.2,44.22425079345703,1.002500057220459,0,0.0,0.0,,,,,0,,1
Raw,112809267,112782776000000,,,-1163522537620622848,0.0,94.84861948294565,8.419776254286697,14.147497268433137,61,2,0.0,15,120316905051,1284,15.9,-396.7527770996094,23.780500411987305,0,0.0,0.0,,,,,0,,1
Raw,112809271,112782776000000,,,-1163522537620622848,0.0,94.84861948294565,8.419776254286697,14.147497268433137,61,12,0.0,15,120329360994,96,15.6,207.83876037597656,2.0199999809265137,0,0.0,0.0,,,,,0,,1
Raw,112809272,112782776000000,,,-1163522537620622848,0.0,94.84861948294565,8.419776254286697,14.147497268433137,61,14,0.0,15,120320755058,122,16.1,-356.7530517578125,5.006500244140625,0,0.0,0.0,,,,,0,,1
Raw,112809273,112782776000000,,,-1163522537620622848,0.0,94.84861948294565,8.419776254286697,14.147497268433137,61,19,0.0,15,120315748417,1015,11.7,672.497802734375,20.499000549316406,0,0.0,0.0,,,,,0,,1
Raw,112809274,112782776000000,,,-1163522537620622848,0.0,94.84861948294565,8.419776254286697,14.147497268433137,61,24,0.0,15,120322690511,27,24.9,550.2626953125,0.6195000410079956,0,0.0,0.0,,,,,0,,1
Raw,112809275,112782776000000,,,-1163522537620622848,0.0,94.84861948294565,8.419776254286697,14.147497268433137,61,29,0.0,15,120318876285,87,17.1,-713.7820434570312,3.428500175476074,0,0.0,0.0,,,,,0,,1
Raw,112809276,112782776000000,,,-1163522537620622848,0.0,94.84861948294565,8.419776254286697,14.147497268433137,61,31,0.0,15,120315592965,504,12.8,-634.4866943359375,13.619000434875488,0,0.0,0.0,,,,,0,,1
Raw,112809276,112782776000000,,,-1163522537620622848,0.0,94.84861948294565,8.419776254286697,14.147497268433137,61,32,0.0,15,120324322298,61,18.1,43.75802993774414,1.0824999809265137,0,0.0,0.0,,,,,0,,1
Fix,gps,51.519634,-0.139118,83.000000,0.000000,11.000000,1479600104000
Raw,112810250,112783776000000,,,-1163522537620622848,0.0,96.30643035052344,8.512116868265924,12.207856073700812,61,2,0.0,15,121316906375,1444,15.9,-396.7527770996094,25.280500411987305,0,0.0,0.0,,,,,0,,1
Raw,112810252,112783776000000,,,-1163522537620622848,0.0,96.30643035052344,8.512116868265924,12.207856073700812,61,12,0.0,15,121329360264,61,18.4,208.72360229492188,1.0899999141693115,0,0.0,0.0,,,,,0,,1
Raw,112810253,112783776000000,,,-1163522537620622848,0.0,96.30643035052344,8.512116868265924,12.207856073700812,61,14,0.0,15,121320756248,157,16.1,-356.7530517578125,6.506500244140625,0,0.0,0.0,,,,,0,,1
Raw,112810255,112783776000000,,,-1163522537620622848,0.0,96.30643035052344,8.512116868265924,12.207856073700812,61,19,0.0,15,121315746174,1151,11.7,672.497802734375,21.999000549316406,0,0.0,0.0,,,,,0,,1
Raw,112810256,112783776000000,,,-1163522537620622848,0.0,96.30643035052344,8.512116868265924,12.207856073700812,61,24,0.0,15,121322688658,24,25.0,550.2069702148438,0.384799987077713,0,0.0,0.0,,,,,0,,1
Raw,112810258,112783776000000,,,-1163522537620622848,0.0,96.30643035052344,8.512116868265924,12.207856073700812,61,29,0.0,15,121318878675,64,18.1,-713.1445922851562,1.8385000228881836,0,0.0,0.0,,,,,0,,1
Raw,112810259,112783776000000,,,-1163522537620622848,0.0,96.30643035052344,8.512116868265924,12.207856073700812,61,31,0.0,15,121315595081,594,12.8,-634.4866943359375,15.119000434875488,0,0.0,0.0,,,,,0,,1
Raw,112810260,112783776000000,,,-1163522537620622848,0.0,96.30643035052344,8.512116868265924,12.207856073700812,61,32,0.0,15,121324322314,80,16.9,43.79608917236328,1.1725000143051147,0,0.0,0.0,,,,,0,,1
Fix,gps,51.519641,-0.139116,83.000000,0.000000,11.000000,1479600105000
Fix,gps,51.519640,-0.139115,83.000000,0.000000,11.000000,1479600106000
Raw,112811262,112784776000000,,,-1163522537620622848,0.0,95.22875188849866,7.301375711366677,11.830347577279653,61,2,0.0,15,122316907698,1613,15.9,-396.7527770996094,26.780500411987305,0,0.0,0.0,,,,,0,,1
Raw,112811264,112784776000000,,,-1163522537620622848,0.0,95.22875188849866,7.301375711366677,11.830347577279653,61,12,0.0,15,122329359472,53,19.6,209.08517456054688,0.9299999475479126,0,0.0,0.0,,,,,0,,1
Raw,112811265,112784776000000,,,-1163522537620622848,0.0,95.22875188849866,7.301375711366677,11.830347577279653,61,14,0.0,15,122320757438,201,16.1,-356.7530517578125,8.006500244140625,0,0.0,0.0,,,,,0,,1
Raw,112811266,112784776000000,,,-1163522537620622848,0.0,95.22875188849866,7.301375711366677,11.830347577279653,61,19,0.0,15,122315743931,1297,11.7,672.497802734375,23.499000549316406,0,0.0,0.0,,,,,0,,1
Raw,112811269,112784776000000,,,-1163522537620622848,0.0,95.22875188849866,7.301375711366677,11.830347577279653,61,24,0.0,15,122322686846,27,24.3,550.0914306640625,0.6694999933242798,0,0.0,0.0,,,,,0,,1
Raw,112811270,112784776000000,,,-1163522537620622848,0.0,95.22875188849866,7.301375711366677,11.830347577279653,61,29,0.0,15,122318881054,78,18.1,-713.1445922851562,3.3385000228881836,0,0.0,0.0,,,,,0,,1
Raw,112811272,112784776000000,,,-1163522537620622848,0.0,95.22875188849866,7.301375711366677,11.830347577279653,61,31,0.0,15,122315597198,695,12.8,-634.4866943359375,16.619001388549805,0,0.0,0.0,,,,,0,,1
Raw,112811273,112784776000000,,,-1163522537620622848,0.0,95.22875188849866,7.301375711366677,11.830347577279653,61,32,0.0,15,122324322089,40,21.0,44.994937896728516,0.8524999618530273,0,0.0,0.0,,,,,0,,1
Raw,112812261,112785776000000,,,-1163522537620622848,0.0,97.87172893993556,8.15674734241563,12.227040583618226,61,2,0.0,15,123316909022,1793,15.9,-396.7527770996094,28.280500411987305,0,0.0,0.0,,,,,0,,1
Raw,112812262,112785776000000,,,-1163522537620622848,0.0,97.87172893993556,8.15674734241563,12.227040583618226,61,12,0.0,15,123329358868,53,19.8,206.67794799804688,0.9299999475479126,0,0.0,0.0,,,,,0,,1
Raw,112812262,112785776000000,,,-1163522537620622848,0.0,97.87172893993556,8.15674734241563,12.227040583618226,61,14,0.0,15,123320758613,135,14.6,-357.19073486328125,4.356500148773193,0,0.0,0.0,,,,,0,,1
Raw,112812263,112785776000000,,,-1163522537620622848,0.0,97.87172893993556,8.15674734241563,12.227040583618226,61,19,0.0,15,123315741687,1454,11.7,672.497802734375,24.999000549316406,0,0.0,0.0,,,,,0,,1
Raw,112812264,112785776000000,,,-1163522537620622848,0.0,97.87172893993556,8.15674734241563,12.227040583618226,61,24,0.0,15,123322684973,27,24.1,548.3026733398438,0.6694999933242798,0,0.0,0.0,,,,,0,,1
Raw,112812265,112785776000000,,,-1163522537620622848,0.0,97.87172893993556,8.15674734241563,12.227040583618226,61,29,0.0,15,123318883455,73,17.8,-713.8486328125,1.8385000228881836,0,0.0,0.0,,,,,0,,1
Raw,112812265,112785776000000,,,-1163522537620622848,0.0,97.87172893993556,8.15674734241563,12.227040583618226,61,31,0.0,15,123315599314,806,12.8,-634.4866943359375,18.119001388549805,0,0.0,0.0,,,,,0,,1
Raw,112812266,112785776000000,,,-1163522537620622848,0.0,97.87172893993556,8.15674734241563,12.227040583618226,61,32,0.0,15,123324321890,70,17.8,42.825592041015625,1.0824999809265137,0,0.0,0.0,,,,,0,,1
Fix,gps,51.519641,-0.139115,83.000000,0.000000,11.000000,1479600107000
Fix,gps,51.519641,-0.139115,83.000000,0.000000,11.000000,1479600108000
Raw,112813250,112786776000000,,,-1163522537620622848,0.0,93.89447222929448,3.1147459096716448,11.915680989962095,61,2,0.0,15,124316910345,1983,15.9,-396.7527770996094,29.780500411987305,0,0.0,0.0,,,,,0,,1
Raw,112813251,112786776000000,,,-1163522537620622848,0.0,93.89447222929448,3.1147459096716448,11.915680989962095,61,12,0.0,15,124329358179,61,19.8,206.67794799804688,2.430000066757202,0,0.0,0.0,,,,,0,,1
